timestamp,ax,ay,az,gx,gy,gz,mx,my,mz,roll,pitch,yaw,T,P,P_alt,fix,lon,lat,alt,velN,velE,velD,ejection
39916,-0.01,0.0,0.99,0.0,0.0,0.0,13.7,17.8,-45.2,0.52,-0.63,-102.3,24.33,1010.04,654.88,0,0.0,0.0,0.0,0.0,0.0,0.0,0
41091,-0.01,0.0,0.99,0.0,0.0,0.0,14.3,17.7,-45.3,0.52,-0.64,-102.3,24.33,1010.04,654.86,0,0.0,0.0,0.0,0.0,0.0,0.0,0
41143,-0.01,0.0,0.99,0.0,0.0,0.0,14.3,17.7,-45.3,0.52,-0.64,-102.3,24.32,1010.05,654.77,0,0.0,0.0,0.0,0.0,0.0,0.0,0
41212,-0.01,0.0,0.99,0.0,0.0,0.0,14.0,17.9,-45.4,0.52,-0.64,-102.3,24.31,1010.06,654.73,0,0.0,0.0,0.0,0.0,0.0,0.0,0
41303,-0.01,0.0,0.99,0.0,0.0,0.0,14.0,17.9,-45.4,0.52,-0.64,-102.3,24.31,1010.05,654.76,0,0.0,0.0,0.0,0.0,0.0,0.0,0
41394,-0.01,0.0,0.99,0.0,0.0,0.0,13.7,17.9,-45.2,0.52,-0.64,-102.3,24.32,1010.05,654.8,0,0.0,0.0,0.0,0.0,0.0,0.0,0
42814,-0.01,0.01,0.99,0.0,0.0,0.0,14.0,17.8,-45.3,0.52,-0.64,-102.3,24.3,1010.06,654.67,0,0.0,0.0,0.0,0.0,0.0,0.0,0
42867,-0.01,0.0,0.99,0.0,0.0,0.0,14.0,18.0,-45.4,0.52,-0.64,-102.3,24.3,1010.07,654.65,0,0.0,0.0,0.0,0.0,0.0,0.0,0
42936,-0.01,0.0,0.99,0.0,0.0,0.0,14.0,18.0,-45.4,0.52,-0.64,-102.3,24.3,1010.07,654.65,0,0.0,0.0,0.0,0.0,0.0,0.0,0
43062,-0.01,0.0,0.99,0.0,0.0,0.0,14.0,18.0,-45.4,0.52,-0.64,-102.3,24.3,1010.07,654.65,0,0.0,0.0,0.0,0.0,0.0,0.0,0
44357,-0.01,0.01,0.99,0.0,0.0,0.0,13.9,18.1,-45.4,0.52,-0.64,-102.3,24.31,1010.05,654.82,0,0.0,0.0,0.0,0.0,0.0,0.0,0
44459,-0.01,0.01,0.99,0.0,0.0,0.0,114.0,18.0,-45.5,0.52,-0.64,-102.31,24.32,1010.05,654.82,0,0.0,0.0,0.0,0.0,0.0,0.0,0
44581,0.0,0.01,0.99,0.0,0.0,0.0,13.8,17.8,-45.5,0.52,-0.64,-102.31,24.32,1010.05,654.79,0,0.0,0.0,0.0,0.0,0.0,0.0,0
44714,0.0,0.01,0.99,0.0,0.0,0.0,13.8,17.8,-45.5,0.52,-0.64,-102.31,24.32,1010.05,654.79,0,0.0,0.0,0.0,0.0,0.0,0.0,0
44758,-0.01,0.01,0.99,0.0,0.0,0.0,14.2,17.8,-45.6,0.52,-0.64,-102.31,24.31,1010.05,654.77,0,0.0,0.0,0.0,0.0,0.0,0.0,0
44871,-0.01,0.01,0.99,0.0,0.0,0.0,14.2,17.8,-45.6,0.52,-0.64,-102.31,24.3,1010.06,654.71,0,0.0,0.0,0.0,0.0,0.0,0.0,0
44971,0.0,0.01,0.99,0.0,0.0,0.0,14.0,17.9,-45.5,0.52,-0.64,-102.31,24.3,1010.06,654.74,0,0.0,0.0,0.0,0.0,0.0,0.0,0
45094,-0.01,0.0,0.99,0.0,0.0,0.0,13.9,18.1,-45.5,0.52,-0.66,-102.31,24.3,1010.06,654.73,0,0.0,0.0,0.0,0.0,0.0,0.0,0
45173,-0.01,0.0,0.99,0.0,0.0,0.0,13.9,18.1,-45.5,0.52,-0.66,-102.31,24.31,1010.06,654.75,0,0.0,0.0,0.0,0.0,0.0,0.0,0
45275,-0.01,0.0,0.99,0.0,0.0,0.0,13.9,18.1,-45.5,0.52,-0.66,-102.31,24.31,1010.05,654.76,0,0.0,0.0,0.0,0.0,0.0,0.0,0
45348,-0.01,0.0,0.99,0.0,0.0,0.0,14.0,18.0,-45.4,0.52,-0.63,-102.31,24.32,1010.05,654.81,0,0.0,0.0,0.0,0.0,0.0,0.0,0
45479,0.0,0.0,-0.01,0.0,0.0,0.0,0.0,0.9,13.5,0.52,-0.63,-102.31,24.32,1010.05,654.8,0,0.0,0.0,0.0,0.0,0.0,0.0,0
45585,0.0,0.0,-0.01,0.0,0.0,0.0,0.0,0.9,13.5,0.52,-0.63,-102.31,24.32,1010.05,654.8,0,0.0,0.0,0.0,0.0,0.0,0.0,0
45711,0.0,0.0,0.99,0.0,0.0,0.0,10.0,0.0,0.0,0.52,-0.63,-102.31,24.32,1010.05,654.76,0,0.0,0.0,0.0,0.0,0.0,0.0,0
45844,0.0,0.0,0.99,0.0,0.0,0.0,10.0,0.0,0.0,0.52,-0.63,-102.31,24.31,1010.06,654.75,0,0.0,0.0,0.0,0.0,0.0,0.0,0
45919,0.0,0.0,0.99,0.0,0.0,0.0,10.0,0.0,0.0,0.52,-0.63,-102.31,24.31,1010.05,654.76,0,0.0,0.0,0.0,0.0,0.0,0.0,0
46034,-0.01,0.0,0.99,0.0,0.0,0.0,14.1,17.8,-45.0,0.52,-0.64,-102.31,24.32,1010.05,654.76,0,0.0,0.0,0.0,0.0,0.0,0.0,0
46094,-0.01,0.0,0.99,0.0,0.0,0.0,14.6,18.0,-45.1,0.52,-0.64,-102.31,24.33,1010.05,654.81,0,0.0,0.0,0.0,0.0,0.0,0.0,0
47377,-0.01,0.01,0.99,0.0,0.0,0.0,14.1,17.1,-45.2,0.52,-0.64,-102.31,24.31,1010.06,654.68,0,0.0,0.0,0.0,0.0,0.0,0.0,0
47444,-0.01,0.01,0.99,0.0,0.0,0.0,14.1,17.1,-45.2,0.52,-0.64,-102.31,24.31,1010.06,654.68,0,0.0,0.0,0.0,0.0,0.0,0.0,0
47523,-0.01,0.01,0.99,0.0,0.0,0.0,14.1,17.1,-45.2,0.52,-0.64,-102.31,24.31,1010.07,654.66,0,0.0,0.0,0.0,0.0,0.0,0.0,0
47586,-0.01,0.01,0.99,0.0,0.0,0.0,14.1,17.1,-45.2,0.52,-0.64,-102.31,24.31,1010.07,654.61,0,0.0,0.0,0.0,0.0,0.0,0.0,0
47673,-0.01,0.01,0.99,0.0,0.0,0.0,14.1,17.1,-45.2,0.52,-0.64,-102.31,24.31,1010.07,654.64,0,0.0,0.0,0.0,0.0,0.0,0.0,0
47764,-0.01,0.01,0.99,0.0,0.0,0.0,14.1,17.1,-45.2,0.52,-0.64,-102.31,24.32,1010.06,654.67,0,0.0,0.0,0.0,0.0,0.0,0.0,0
47826,-0.01,0.0,0.99,0.0,0.0,0.0,14.1,17.5,-44.9,0.52,-0.64,-102.31,24.33,1010.06,654.7,0,0.0,0.0,0.0,0.0,0.0,0.0,0
47936,-0.01,0.0,0.99,0.0,0.0,0.0,14.1,17.5,-44.9,0.52,-0.64,-102.31,24.33,1010.06,654.7,0,0.0,0.0,0.0,0.0,0.0,0.0,0
49360,-0.15,0.02,-101.2,0.76,15.07,-1.32,0.5,4.7,-3.3,0.55,-8.91,-101.49,24.3,1010.07,654.67,0,0.0,0.0,0.0,0.0,0.0,0.0,0
49506,-0.21,0.02,0.96,0.71,3.17,-4.07,1.1,0.0,0.9,0.5,-11.25,-101.14,24.3,1010.07,654.64,0,0.0,0.0,0.0,0.0,0.0,0.0,0
49623,-0.18,0.0,0.96,0.95,3.23,-3.76,19.7,16.8,-41.9,0.48,-11.65,-100.66,24.3,1010.07,654.65,0,0.0,0.0,0.0,0.0,0.0,0.0,0
49761,-0.18,0.0,0.96,0.95,3.23,-3.76,19.7,16.8,-41.9,0.48,-11.65,-100.66,24.3,1010.07,654.65,0,0.0,0.0,0.0,0.0,0.0,0.0,0
49869,-0.18,0.0,0.96,0.95,3.23,-3.76,19.7,16.8,-41.9,0.48,-11.65,-100.66,24.3,1010.07,654.64,0,0.0,0.0,0.0,0.0,0.0,0.0,0
49976,-0.18,0.0,0.96,0.95,3.23,-3.76,19.7,16.8,-41.9,0.48,-11.65,-100.66,24.31,1010.07,654.63,0,0.0,0.0,0.0,0.0,0.0,0.0,0
50065,-0.17,0.01,0.98,9.32,-5.52,-20.39,16.4,17.7,-42.1,-0.01,-10.04,-96.66,24.31,1010.06,654.69,0,0.0,0.0,0.0,0.0,0.0,0.0,0
50188,-0.17,0.01,0.98,9.32,-5.52,-20.39,16.4,17.7,-42.1,-0.01,-10.04,-96.66,24.31,1010.06,654.69,0,0.0,0.0,0.0,0.0,0.0,0.0,0
50301,-0.11,0.03,0.9,1.1,-1.15,-33.9,13.7,16.7,-43.5,0.79,-9.76,-92.75,24.32,1010.06,654.72,0,0.0,0.0,0.0,0.0,0.0,0.0,0
50376,-0.17,0.0,1.01,3.53,-11.58,-24.95,8.9,16.4,-44.8,0.47,-7.69,-85.88,24.33,1010.05,654.77,0,0.0,0.0,0.0,0.0,0.0,0.0,0
50469,-0.17,0.0,1.01,3.53,-11.58,-24.95,8.9,16.4,-44.8,0.47,-7.69,-85.88,24.34,1010.05,654.79,0,0.0,0.0,0.0,0.0,0.0,0.0,0
51729,-0.09,0.0,1.0,-0.03,-0.58,4.61,1.4,14.4,-44.4,0.5,-6.76,-77.69,24.34,1010.05,654.8,0,0.0,0.0,0.0,0.0,0.0,0.0,0
51786,-0.1,0.02,1.01,-2.24,-0.01,15.48,4.5,15.0,-44.0,0.49,-7.93,-81.85,24.34,1010.05,654.83,0,0.0,0.0,0.0,0.0,0.0,0.0,0
51906,-0.1,0.02,1.01,-2.24,-0.01,15.48,4.5,15.0,-44.0,0.49,-7.93,-81.85,24.33,1010.05,654.79,0,0.0,0.0,0.0,0.0,0.0,0.0,0
52029,-0.1,0.02,1.01,-2.24,-0.01,15.48,4.5,15.0,-44.0,0.49,-7.93,-81.85,24.33,1010.05,654.79,0,0.0,0.0,0.0,0.0,0.0,0.0,0
52126,-0.13,0.03,1.0,-1.32,4.69,10.9,8.5,15.7,-43.2,0.58,-8.47,-88.0,24.33,1010.05,654.77,0,0.0,0.0,0.0,0.0,0.0,0.0,0
52257,-0.13,0.08,9.42,-1.68,5.5,10.65,7.7,-0.1,0.0,0.58,-8.52,-88.11,24.33,1010.06,654.75,0,0.0,0.0,0.0,0.0,0.0,0.0,0
52400,-0.18,0.0,0.98,-1.19,10.09,6.98,10.6,15.8,-42.8,0.63,-9.64,-89.33,24.32,1010.07,654.67,0,0.0,0.0,0.0,0.0,0.0,0.0,0
52533,-0.18,0.0,0.98,-1.19,10.09,6.98,10.6,15.8,-42.8,0.63,-9.64,-89.33,24.32,1010.07,654.63,0,0.0,0.0,0.0,0.0,0.0,0.0,0
52601,-0.18,0.05,0.98,-4.01,-2.13,26.16,14.7,16.2,-42.2,0.67,-10.34,-94.8,24.33,1010.06,654.67,0,0.0,0.0,0.0,0.0,0.0,0.0,0
52681,-0.18,0.05,0.98,-4.01,-2.13,26.16,14.7,16.2,-42.2,0.67,-10.34,-94.8,24.34,1010.05,654.76,0,0.0,0.0,0.0,0.0,0.0,0.0,0
52784,-0.16,0.0,0.94,-5.79,0.22,33.43,17.3,16.1,-41.7,0.7,-10.16,-98.18,24.35,1010.05,654.77,0,0.0,0.0,0.0,0.0,0.0,0.0,0
52909,-0.16,0.0,0.94,-5.79,0.22,33.43,17.3,16.1,-41.7,0.7,-10.16,-98.18,24.34,1010.05,654.8,0,0.0,0.0,0.0,0.0,0.0,0.0,0
52993,-0.23,0.0,0.95,-3.21,13.43,13.88,22.7,15.8,-40.4,0.55,-12.27,-104.03,24.35,1010.05,654.81,0,0.0,0.0,0.0,0.0,0.0,0.0,0
53117,-0.23,0.0,0.95,-3.21,13.43,13.88,22.7,15.8,-40.4,0.55,-12.27,-104.03,24.34,1010.05,654.76,0,0.0,0.0,0.0,0.0,0.0,0.0,0
53189,-0.21,-0.01,0.96,-6.2,-3.92,19.54,26.0,15.2,-39.5,0.57,-13.7,-107.87,24.35,1010.05,654.78,0,0.0,0.0,0.0,0.0,0.0,0.0,0
53306,-0.21,-0.01,0.96,-6.2,-3.92,19.54,26.0,15.2,-39.5,0.57,-13.7,-107.87,24.35,1010.05,654.83,0,0.0,0.0,0.0,0.0,0.0,0.0,0
53396,-0.21,-0.01,0.96,-6.2,-3.92,19.54,26.0,15.2,-39.5,0.57,-13.7,-107.87,24.35,1010.05,654.83,0,0.0,0.0,0.0,0.0,0.0,0.0,0
54533,-0.04,0.08,1.07,-1.05,-10.92,-5.24,18.0,10.7,-47.4,5.28,-4.38,-97.5,24.37,1010.03,654.97,0,0.0,0.0,0.0,0.0,0.0,0.0,0
54618,-0.03,0.05,0.95,-18.54,-32.86,-9.33,16.2,10.4,-47.1,3.02,-1.08,-96.04,24.36,1010.04,654.9,0,0.0,0.0,0.0,0.0,0.0,0.0,0
54739,0.07,0.02,0.97,1.27,0.86,-20.02,13.6,9.9,-46.4,1.92,2.21,-94.28,24.36,1010.04,654.89,0,0.0,0.0,0.0,0.0,0.0,0.0,0
54847,0.07,0.02,0.97,1.27,0.86,-20.02,13.6,9.9,-46.4,1.92,2.21,-94.28,24.36,1010.04,654.88,0,0.0,0.0,0.0,0.0,0.0,0.0,0
54966,0.06,-0.16,0.99,14.23,-16.71,8.01,13.2,12.0,-44.7,-0.89,2.56,-93.22,24.35,1010.04,654.9,0,0.0,0.0,0.0,0.0,0.0,0.0,0
55089,0.02,-23.62,-9.72,28.08,-16.03,5.72,-6.1,0.0,0.0,-0.69,2.73,-93.29,24.35,1010.05,654.83,0,0.0,0.0,0.0,0.0,0.0,0.0,0
55245,0.02,-23.62,-9.72,28.08,-16.03,5.72,-6.1,0.0,0.0,-0.69,2.73,-93.29,24.34,1010.05,654.81,0,0.0,0.0,0.0,0.0,0.0,0.0,0
55303,0.07,-0.03,1.01,5.95,-7.59,-3.6,10.6,11.9,-43.8,-1.57,5.37,-92.91,24.34,1010.05,654.78,0,0.0,0.0,0.0,0.0,0.0,0.0,0
55423,0.07,-0.03,1.01,5.95,-7.59,-3.6,10.6,11.9,-43.8,-1.57,5.37,-92.91,24.34,1010.05,654.79,0,0.0,0.0,0.0,0.0,0.0,0.0,0
55513,0.05,0.06,1.01,22.12,-5.41,-16.03,9.8,10.1,-44.7,1.31,5.95,-91.65,24.35,1010.05,654.81,0,0.0,0.0,0.0,0.0,0.0,0.0,0
55614,0.05,0.06,1.01,22.12,-5.41,-16.03,9.8,10.1,-44.7,1.31,5.95,-91.65,24.35,1010.04,654.87,0,0.0,0.0,0.0,0.0,0.0,0.0,0
55707,0.05,0.06,1.01,22.12,-5.41,-16.03,9.8,10.1,-44.7,1.31,5.95,-91.65,24.35,1010.04,654.87,0,0.0,0.0,0.0,0.0,0.0,0.0,0
55760,0.13,-0.02,1.04,-0.02,-3.82,-9.21,7.4,8.4,-46.5,3.61,7.09,-88.74,24.36,1010.04,654.85,0,0.0,0.0,0.0,0.0,0.0,0.0,0
55853,0.13,-0.02,1.04,-0.02,-3.82,-9.21,7.4,8.4,-46.5,3.61,7.09,-88.74,24.36,1010.04,654.85,0,0.0,0.0,0.0,0.0,0.0,0.0,0
55922,0.12,-0.11,0.94,-34.59,13.25,0.64,7.1,9.3,-44.7,0.23,6.44,-87.42,24.35,1010.05,654.8,0,0.0,0.0,0.0,0.0,0.0,0.0,0
56053,0.12,-0.11,0.94,-34.59,13.25,0.64,7.1,9.3,-44.7,0.23,6.44,-87.42,24.34,1010.06,654.75,0,0.0,0.0,0.0,0.0,0.0,0.0,0
56153,0.12,0.05,0.97,-20.43,-30.36,-21.93,6.2,10.7,-41.9,-1.7,5.41,-85.08,24.33,1010.06,654.73,0,0.0,0.0,0.0,0.0,0.0,0.0,0
56290,0.12,0.05,0.97,-20.43,-30.36,-21.93,6.2,10.7,-41.9,-1.7,5.41,-85.08,24.33,1010.06,654.73,0,0.0,0.0,0.0,0.0,0.0,0.0,0
56335,0.11,-0.03,1.04,-1.05,16.45,-8.85,3.7,10.9,-40.3,-2.49,6.02,-82.5,24.33,1010.06,654.72,0,0.0,0.0,0.0,0.0,0.0,0.0,0
56426,0.11,-0.03,1.04,-1.05,16.45,-8.85,3.7,10.9,-40.3,-2.49,6.02,-82.5,24.32,1010.06,654.73,0,0.0,0.0,0.0,0.0,0.0,0.0,0
56510,0.07,-0.02,0.99,9.38,-2.84,-19.48,4.3,8.8,-42.3,0.18,5.03,-80.8,24.33,1010.06,654.74,0,0.0,0.0,0.0,0.0,0.0,0.0,0
56631,0.07,-0.02,0.99,9.38,-2.84,-19.48,4.3,8.8,-42.3,0.18,5.03,-80.8,24.33,1010.06,654.74,0,0.0,0.0,0.0,0.0,0.0,0.0,0
56679,0.03,0.07,0.96,0.71,-2.38,-3.64,4.4,6.0,-45.9,3.24,4.73,-79.4,24.33,1010.06,654.75,0,0.0,0.0,0.0,0.0,0.0,0.0,0
56809,0.03,0.07,0.96,0.71,-2.38,-3.64,4.4,6.0,-45.9,3.24,4.73,-79.4,24.32,1010.06,654.72,0,0.0,0.0,0.0,0.0,0.0,0.0,0
56883,0.03,0.07,0.96,0.71,-2.38,-3.64,4.4,6.0,-45.9,3.24,4.73,-79.4,24.33,1010.05,654.78,0,0.0,0.0,0.0,0.0,0.0,0.0,0
56998,0.09,0.07,1.0,-5.26,13.37,-12.98,4.7,5.0,-46.2,3.32,3.1,-77.37,24.33,1010.05,654.79,0,0.0,0.0,0.0,0.0,0.0,0.0,0
57092,0.0,0.05,1.03,14.92,9.29,-18.59,6.2,5.3,-46.9,3.65,0.67,-73.48,24.33,1010.04,654.86,0,0.0,0.0,0.0,0.0,0.0,0.0,0
57207,0.0,0.05,1.03,14.92,9.29,-18.59,6.2,5.3,-46.9,3.65,0.67,-73.48,24.34,1010.04,654.9,0,0.0,0.0,0.0,0.0,0.0,0.0,0
57296,-0.08,0.11,0.98,7.57,-14.08,25.57,9.8,3.1,-49.8,6.56,-2.6,-73.64,24.34,1010.04,654.92,0,0.0,0.0,0.0,0.0,0.0,0.0,0
57415,-0.08,0.11,0.98,7.57,-14.08,25.57,9.8,3.1,-49.8,6.56,-2.6,-73.64,24.34,1010.04,654.92,0,0.0,0.0,0.0,0.0,0.0,0.0,0
57486,0.0,0.11,0.98,19.46,-4.44,16.29,12.5,2.3,-51.1,7.8,-1.01,-77.99,24.34,1010.03,654.93,0,0.0,0.0,0.0,0.0,0.0,0.0,0
57609,0.0,0.11,0.98,19.46,-4.44,16.29,12.5,2.3,-51.1,7.8,-1.01,-77.99,24.33,1010.04,654.87,0,0.0,0.0,0.0,0.0,0.0,0.0,0
57723,0.04,0.11,0.95,-1.07,1.92,4.96,13.3,1.5,-51.3,7.56,-0.51,-78.64,24.33,1010.04,654.87,0,0.0,0.0,0.0,0.0,0.0,0.0,0
57831,0.04,0.11,0.95,-1.07,1.92,4.96,13.3,1.5,-51.3,7.56,-0.51,-78.64,24.33,1010.04,654.91,0,0.0,0.0,0.0,0.0,0.0,0.0,0
57901,0.01,0.16,0.93,8.8,-15.12,11.4,13.3,0.7,-51.7,9.46,1.94,-79.51,24.34,1010.03,654.97,0,0.0,0.0,0.0,0.0,0.0,0.0,0
58037,-0.35,14.48,0.05,5.39,-16.14,10.46,0.2,1.0,12.4,9.52,2.09,-79.6,24.34,1010.03,654.98,0,0.0,0.0,0.0,0.0,0.0,0.0,0
58104,0.05,0.23,1.0,19.35,0.27,13.3,12.3,-1.1,-52.6,11.92,5.65,-82.3,24.35,1010.02,655.02,0,0.0,0.0,0.0,0.0,0.0,0.0,0
58184,0.05,0.23,1.0,19.35,0.27,13.3,12.3,-1.1,-52.6,11.92,5.65,-82.3,24.35,1010.02,655.02,0,0.0,0.0,0.0,0.0,0.0,0.0,0
58259,0.09,0.34,0.91,15.21,-10.71,1.9,14.1,-4.4,-55.0,17.29,5.54,-84.97,24.35,1010.02,655.08,0,0.0,0.0,0.0,0.0,0.0,0.0,0
58335,0.09,0.34,0.91,15.21,-10.71,1.9,14.1,-4.4,-55.0,17.29,5.54,-84.97,24.35,1010.02,655.07,0,0.0,0.0,0.0,0.0,0.0,0.0,0
58413,0.27,0.37,0.83,41.63,-35.3,-11.79,8.4,-9.8,-57.4,26.41,12.16,-79.44,24.35,1010.01,655.11,0,0.0,0.0,0.0,0.0,0.0,0.0,0
58523,0.27,0.37,0.83,41.63,-35.3,-11.79,8.4,-9.8,-57.4,26.41,12.16,-79.44,24.35,1010.01,655.11,0,0.0,0.0,0.0,0.0,0.0,0.0,0
58576,0.21,0.44,0.88,27.78,-24.38,-9.81,6.9,-12.4,-58.3,29.55,13.49,-77.87,24.36,1010.01,655.09,0,0.0,0.0,0.0,0.0,0.0,0.0,0
58711,0.21,0.44,0.88,27.78,-24.38,-9.81,6.9,-12.4,-58.3,29.55,13.49,-77.87,24.36,1010.01,655.09,0,0.0,0.0,0.0,0.0,0.0,0.0,0
58756,0.29,0.52,0.78,41.85,-41.22,14.68,3.0,-14.8,-57.9,34.7,18.11,-75.51,24.34,1010.02,655.02,0,0.0,0.0,0.0,0.0,0.0,0.0,0
58883,0.29,0.52,0.78,41.85,-41.22,14.68,3.0,-14.8,-57.9,34.7,18.11,-75.51,24.34,1010.02,655.02,0,0.0,0.0,0.0,0.0,0.0,0.0,0
58927,0.34,0.53,0.7,8.25,-28.51,15.68,1.0,-16.5,-57.1,37.09,21.11,-74.81,24.33,1010.03,654.95,0,0.0,0.0,0.0,0.0,0.0,0.0,0
59029,0.34,0.53,0.7,8.25,-28.51,15.68,1.0,-16.5,-57.1,37.09,21.11,-74.81,24.33,1010.04,654.88,0,0.0,0.0,0.0,0.0,0.0,0.0,0
59102,0.44,0.51,0.77,23.07,-39.75,18.53,-0.9,-16.3,-56.7,37.86,24.47,-74.08,24.33,1010.04,654.9,0,0.0,0.0,0.0,0.0,0.0,0.0,0
59211,0.44,0.51,0.77,23.07,-39.75,18.53,-0.9,-16.3,-56.7,37.86,24.47,-74.08,24.34,1010.04,654.91,0,0.0,0.0,0.0,0.0,0.0,0.0,0
59290,0.51,0.56,0.66,25.86,-43.58,38.24,-5.2,-16.0,-55.4,39.34,31.3,-74.75,24.35,1010.03,654.94,0,0.0,0.0,0.0,0.0,0.0,0.0,0
59414,0.51,0.56,0.66,25.86,-43.58,38.24,-5.2,-16.0,-55.4,39.34,31.3,-74.75,24.35,1010.04,654.91,0,0.0,0.0,0.0,0.0,0.0,0.0,0
59532,0.65,0.52,0.49,36.68,-26.18,2.05,-11.8,-16.0,-27.3,46.19,42.81,-72.8,24.35,1010.03,654.92,0,0.0,0.0,0.0,0.0,0.0,0.0,0
59677,0.74,0.64,0.37,25.48,-14.4,-29.45,-15.2,-20.3,-48.3,57.7,43.59,-66.26,24.34,1010.04,654.87,0,0.0,0.0,0.0,0.0,0.0,0.0,0
59844,0.61,0.72,0.25,13.15,-12.53,-12.05,-15.1,-26.2,-44.9,70.47,39.75,-60.67,24.34,1010.05,654.82,0,0.0,0.0,0.0,0.0,0.0,0.0,0
59983,0.61,0.72,0.25,13.15,-12.53,-12.05,-15.1,-26.2,-44.9,70.47,39.75,-60.67,24.33,1010.05,654.83,0,0.0,0.0,0.0,0.0,0.0,0.0,0
60067,0.61,0.72,0.25,13.15,-12.53,-12.05,-15.1,-26.2,-44.9,70.47,39.75,-60.67,24.34,1010.04,654.85,0,0.0,0.0,0.0,0.0,0.0,0.0,0
60163,0.59,0.75,0.24,14.68,-8.08,-12.59,-15.8,-28.5,-42.5,76.14,38.18,-57.05,24.34,1010.04,654.9,0,0.0,0.0,0.0,0.0,0.0,0.0,0
60332,0.55,0.73,0.13,16.08,-8.75,-14.11,-15.6,-29.8,-41.0,79.74,36.36,-55.43,24.34,1010.04,654.86,0,0.0,0.0,0.0,0.0,0.0,0.0,0
60438,0.55,0.73,0.13,16.08,-8.75,-14.11,-15.6,-29.8,-41.0,79.74,36.36,-55.43,24.34,1010.04,654.88,0,0.0,0.0,0.0,0.0,0.0,0.0,0
60564,0.5,0.88,0.13,-1.85,-12.03,-13.56,-13.6,-28.0,0.0,82.57,31.07,-54.85,24.34,1010.04,654.92,0,0.0,0.0,0.0,0.0,0.0,0.0,0
60673,0.52,0.83,0.0,-5.02,8.28,-6.8,-14.1,-34.6,-37.4,86.63,30.05,-52.81,24.34,1010.03,654.95,0,0.0,0.0,0.0,0.0,0.0,0.0,0
60777,0.52,0.83,0.0,-5.02,8.28,-6.8,-14.1,-34.6,-37.4,86.63,30.05,-52.81,24.35,1010.03,654.99,0,0.0,0.0,0.0,0.0,0.0,0.0,0
60853,0.45,0.89,0.08,-24.82,15.73,-29.98,-11.3,-59.6,-14.5,83.8,26.58,-55.43,24.36,1010.02,655.02,0,0.0,0.0,0.0,0.0,0.0,0.0,0
60961,0.45,0.89,0.08,-24.82,15.73,-29.98,-11.3,-59.6,-14.5,83.8,26.58,-55.43,24.36,1010.02,655.04,0,0.0,0.0,0.0,0.0,0.0,0.0,0
61025,0.3,0.91,0.26,-24.51,32.97,-35.24,-3.4,-34.1,-45.3,75.04,17.74,-61.41,24.37,1010.02,655.08,0,0.0,0.0,0.0,0.0,0.0,0.0,0
61153,0.3,0.91,0.26,-24.51,32.97,-35.24,-3.4,-34.1,-45.3,75.04,17.74,-61.41,24.37,1010.02,655.08,0,0.0,0.0,0.0,0.0,0.0,0.0,0
61215,0.23,0.91,0.33,-40.61,34.61,-33.15,1.1,-33.0,-48.9,69.42,12.03,-64.46,24.37,1010.01,655.1,0,0.0,0.0,0.0,0.0,0.0,0.0,0
61303,0.23,0.91,0.33,-40.61,34.61,-33.15,1.1,-33.0,-48.9,69.42,12.03,-64.46,24.36,1010.02,655.03,0,0.0,0.0,0.0,0.0,0.0,0.0,0
61380,0.16,0.91,0.39,-43.35,42.7,-38.25,5.1,-31.6,-51.6,65.26,7.5,-66.41,24.37,1010.02,655.0,0,0.0,0.0,0.0,0.0,0.0,0.0,0
61465,0.16,0.91,0.39,-43.35,42.7,-38.25,5.1,-31.6,-51.6,65.26,7.5,-66.41,24.38,1010.02,655.01,0,0.0,0.0,0.0,0.0,0.0,0.0,0
61571,0.04,0.84,0.44,-47.5,40.39,-34.91,8.4,-29.0,-55.9,62.0,3.82,-68.05,24.38,1010.02,655.01,0,0.0,0.0,0.0,0.0,0.0,0.0,0
61630,-0.15,0.73,0.63,-43.31,28.62,-15.44,17.9,-22.5,-55.8,50.48,-8.02,-73.26,24.38,1010.02,655.02,0,0.0,0.0,0.0,0.0,0.0,0.0,0
61737,-0.15,0.73,0.63,-43.31,28.62,-15.44,17.9,-22.5,-55.8,50.48,-8.02,-73.26,24.37,1010.03,654.97,0,0.0,0.0,0.0,0.0,0.0,0.0,0
61836,-0.22,0.68,0.73,-35.39,27.1,-9.76,21.2,-17.9,0.0,44.08,-12.19,-75.26,24.36,1010.03,654.95,0,0.0,0.0,0.0,0.0,0.0,0.0,0
61924,-0.28,0.6,0.77,-45.15,14.59,-1.75,24.4,-13.2,-55.6,37.18,-15.5,-77.17,24.37,1010.03,654.97,0,0.0,0.0,0.0,0.0,0.0,0.0,0
62049,-0.28,0.6,0.77,-45.15,14.59,-1.75,24.4,-13.2,-55.6,37.18,-15.5,-77.17,24.37,1010.03,654.96,0,0.0,0.0,0.0,0.0,0.0,0.0,0
62120,-0.27,0.52,0.81,-57.22,9.71,6.6,25.0,-10.5,-55.5,33.46,-16.28,-77.76,24.37,1010.03,654.97,0,0.0,0.0,0.0,0.0,0.0,0.0,0
62233,11.21,-0.25,0.42,-304.12,-28.39,-22.42,0.9,24.4,-5.5,32.91,-16.31,-77.87,24.38,1010.02,655.0,0,0.0,0.0,0.0,0.0,0.0,0.0,0
62366,11.21,-0.25,0.42,-304.12,-28.39,-22.42,0.9,24.4,-5.5,32.91,-16.31,-77.87,24.37,1010.03,654.97,0,0.0,0.0,0.0,0.0,0.0,0.0,0
62502,-0.18,0.34,0.94,-37.96,-30.44,12.31,21.9,-3.6,-55.0,22.28,-10.69,-78.28,24.37,1010.03,654.97,0,0.0,0.0,0.0,0.0,0.0,0.0,0
62628,-0.18,0.34,0.94,-37.96,-30.44,12.31,21.9,-3.6,-55.0,22.28,-10.69,-78.28,24.37,1010.03,654.97,0,0.0,0.0,0.0,0.0,0.0,0.0,0
62687,-0.1,0.24,0.95,-26.13,-12.57,4.67,1.2,6.3,-0.1,14.88,-5.92,-78.23,24.36,1010.04,654.9,0,0.0,0.0,0.0,0.0,0.0,0.0,0
62861,-0.1,0.24,0.95,-26.13,-12.57,4.67,1.2,6.3,-0.1,14.88,-5.92,-78.23,24.34,1010.05,654.8,0,0.0,0.0,0.0,0.0,0.0,0.0,0
62939,-0.1,0.13,0.96,-18.14,7.99,1.86,18.9,4.4,-51.9,9.03,-6.29,-78.58,24.35,1010.05,654.8,0,0.0,0.0,0.0,0.0,0.0,0.0,0
63072,-0.1,0.13,0.96,-18.14,7.99,1.86,18.9,4.4,-51.9,9.03,-6.29,-78.58,24.35,1010.05,654.8,0,0.0,0.0,0.0,0.0,0.0,0.0,0
63136,-0.15,0.06,0.97,-16.68,17.19,3.02,20.9,6.6,-49.2,4.79,-9.0,-79.47,24.36,1010.05,654.83,0,0.0,0.0,0.0,0.0,0.0,0.0,0
63259,-2.48,26.15,7.21,-14.91,18.28,3.5,-0.2,0.0,0.9,4.63,-9.17,-79.51,24.36,1010.04,654.85,0,0.0,0.0,0.0,0.0,0.0,0.0,0
63393,-2.48,26.15,7.21,-14.91,18.28,3.5,-0.2,0.0,0.9,4.63,-9.17,-79.51,24.36,1010.04,654.85,0,0.0,0.0,0.0,0.0,0.0,0.0,0
63467,-0.28,0.11,0.95,27.64,25.73,4.79,25.1,5.8,-47.1,6.35,-14.78,-81.43,24.36,1010.05,654.8,0,0.0,0.0,0.0,0.0,0.0,0.0,0
63592,-0.28,0.11,0.95,27.64,25.73,4.79,25.1,5.8,-47.1,6.35,-14.78,-81.43,24.36,1010.05,654.8,0,0.0,0.0,0.0,0.0,0.0,0.0,0
63635,-0.28,0.11,0.95,27.64,25.73,4.79,25.1,5.8,-47.1,6.35,-14.78,-81.43,24.35,1010.06,654.73,0,0.0,0.0,0.0,0.0,0.0,0.0,0
63728,-0.28,0.11,0.95,27.64,25.73,4.79,25.1,5.8,-47.1,6.35,-14.78,-81.43,24.35,1010.06,654.72,0,0.0,0.0,0.0,0.0,0.0,0.0,0
63794,-0.35,0.31,0.82,35.09,5.48,-4.19,29.6,-2.4,-49.9,20.55,-20.79,-83.58,24.35,1010.05,654.76,0,0.0,0.0,0.0,0.0,0.0,0.0,0
63914,-0.35,0.31,0.82,35.09,5.48,-4.19,29.6,-2.4,-49.9,20.55,-20.79,-83.58,24.35,1010.05,654.76,0,0.0,0.0,0.0,0.0,0.0,0.0,0
63992,-0.34,0.43,0.86,35.4,-21.83,-1.81,28.6,-4.6,-52.2,24.7,-19.56,-82.58,24.36,1010.05,654.83,0,0.0,0.0,0.0,0.0,0.0,0.0,0
64118,-0.34,0.43,0.86,35.4,-21.83,-1.81,28.6,-4.6,-52.2,24.7,-19.56,-82.58,24.36,1010.05,654.83,0,0.0,0.0,0.0,0.0,0.0,0.0,0
64172,-0.12,0.46,0.9,19.0,-55.98,6.04,20.9,-9.0,-57.0,29.28,-10.18,-77.24,24.35,1010.05,654.77,0,0.0,0.0,0.0,0.0,0.0,0.0,0
64247,-0.12,0.46,0.9,19.0,-55.98,6.04,20.9,-9.0,-57.0,29.28,-10.18,-77.24,24.35,1010.05,654.77,0,0.0,0.0,0.0,0.0,0.0,0.0,0
64295,-0.06,0.48,0.87,2.47,-38.29,9.53,15.7,-10.4,-58.6,30.43,-4.14,-74.83,24.35,1010.06,654.73,0,0.0,0.0,0.0,0.0,0.0,0.0,0
64386,-0.06,0.48,0.87,2.47,-38.29,9.53,15.7,-10.4,-58.6,30.43,-4.14,-74.83,24.35,1010.06,654.73,0,0.0,0.0,0.0,0.0,0.0,0.0,0
64461,0.0,0.51,0.88,-4.73,-15.53,7.09,12.8,-9.8,-58.8,29.56,-0.47,-73.78,24.34,1010.06,654.69,0,0.0,0.0,0.0,0.0,0.0,0.0,0
64585,0.0,0.51,0.88,-4.73,-15.53,7.09,12.8,-9.8,-58.8,29.56,-0.47,-73.78,24.33,1010.07,654.67,0,0.0,0.0,0.0,0.0,0.0,0.0,0
64664,0.0,0.37,0.95,-16.18,2.15,-5.47,12.0,-4.4,-57.3,21.27,0.57,-74.58,24.34,1010.06,654.7,0,0.0,0.0,0.0,0.0,0.0,0.0,0
64801,0.0,0.37,0.95,-16.18,2.15,-5.47,12.0,-4.4,-57.3,21.27,0.57,-74.58,24.35,1010.06,654.75,0,0.0,0.0,0.0,0.0,0.0,0.0,0
64891,0.0,0.37,0.95,-16.18,2.15,-5.47,12.0,-4.4,-57.3,21.27,0.57,-74.58,24.35,1010.05,654.76,0,0.0,0.0,0.0,0.0,0.0,0.0,0
64998,0.0,0.37,0.95,10.4,18.64,-2.66,13.1,-3.7,-56.4,20.31,-0.65,-74.12,24.36,1010.05,654.79,0,0.0,0.0,0.0,0.0,0.0,0.0,0
65106,0.0,0.37,0.95,10.4,18.64,-2.66,13.1,-3.7,-56.4,20.31,-0.65,-74.12,24.36,1010.05,654.82,0,0.0,0.0,0.0,0.0,0.0,0.0,0
65210,-0.14,0.2,0.97,-64.48,35.33,6.0,17.9,0.4,-53.7,12.87,-6.63,-76.4,24.37,1010.04,654.87,0,0.0,0.0,0.0,0.0,0.0,0.0,0
65315,-0.14,0.2,0.97,-64.48,35.33,6.0,17.9,0.4,-53.7,12.87,-6.63,-76.4,24.37,1010.04,654.9,0,0.0,0.0,0.0,0.0,0.0,0.0,0
65415,-0.12,0.25,0.92,17.45,-1.47,9.43,20.9,1.1,-52.4,13.23,-8.97,-78.74,24.37,1010.04,654.91,0,0.0,0.0,0.0,0.0,0.0,0.0,0
65532,-0.12,0.25,0.92,17.45,-1.47,9.43,20.9,1.1,-52.4,13.23,-8.97,-78.74,24.38,1010.04,654.91,0,0.0,0.0,0.0,0.0,0.0,0.0,0
65623,-0.04,0.3,0.9,54.29,-15.79,10.54,21.4,-1.5,-53.4,17.02,-7.28,-80.75,24.38,1010.04,654.91,0,0.0,0.0,0.0,0.0,0.0,0.0,0
65725,-0.04,0.3,0.9,54.29,-15.79,10.54,21.4,-1.5,-53.4,17.02,-7.28,-80.75,24.38,1010.04,654.92,0,0.0,0.0,0.0,0.0,0.0,0.0,0
65823,-0.11,0.32,0.9,14.06,46.2,-12.36,24.3,-3.9,-53.4,20.42,-10.94,-82.04,24.39,1010.03,654.94,0,0.0,0.0,0.0,0.0,0.0,0.0,0
65902,-0.42,0.36,0.84,-26.17,73.47,-26.52,31.6,-5.0,-50.0,23.21,-23.21,-83.09,24.39,1010.03,654.93,0,0.0,0.0,0.0,0.0,0.0,0.0,0
66040,-0.42,0.36,0.84,-26.17,73.47,-26.52,31.6,-5.0,-50.0,23.21,-23.21,-83.09,24.39,1010.03,654.95,0,0.0,0.0,0.0,0.0,0.0,0.0,0
66121,-0.53,0.3,0.72,38.57,44.53,-16.42,37.1,-1.7,-43.6,21.79,-35.31,-82.4,24.39,1010.03,654.96,0,0.0,0.0,0.0,0.0,0.0,0.0,0
66261,-0.53,0.3,0.72,38.57,44.53,-16.42,37.1,-1.7,-43.6,21.79,-35.31,-82.4,24.39,1010.03,654.95,0,0.0,0.0,0.0,0.0,0.0,0.0,0
66362,-0.71,0.3,58.93,36.86,47.52,-14.17,34.9,-9.8,-0.7,32.12,-43.93,-85.03,24.38,1010.03,654.95,0,0.0,0.0,0.0,0.0,0.0,0.0,0
66505,-0.71,0.3,58.93,36.86,47.52,-14.17,34.9,-9.8,-0.7,32.12,-43.93,-85.03,24.38,1010.04,654.91,0,0.0,0.0,0.0,0.0,0.0,0.0,0
66610,-0.76,0.47,0.41,64.78,10.29,-1.44,43.8,-10.7,-36.5,49.75,-50.79,-88.96,24.37,1010.04,654.92,0,0.0,0.0,0.0,0.0,0.0,0.0,0
66681,-0.76,0.47,0.41,64.78,10.29,-1.44,43.8,-10.7,-36.5,49.75,-50.79,-88.96,24.38,1010.03,654.94,0,0.0,0.0,0.0,0.0,0.0,0.0,0
66770,-0.75,0.65,0.26,61.88,-40.79,50.71,42.0,-19.5,-37.1,65.08,-45.14,-90.09,24.39,1010.02,655.01,0,0.0,0.0,0.0,0.0,0.0,0.0,0
66898,-0.75,0.65,0.26,61.88,-40.79,50.71,42.0,-19.5,-37.1,65.08,-45.14,-90.09,24.38,1010.02,655.03,0,0.0,0.0,0.0,0.0,0.0,0.0,0
66981,-0.66,0.71,0.29,10.17,-57.99,66.87,37.0,-25.2,-40.8,67.58,-35.38,-86.04,24.38,1010.02,655.03,0,0.0,0.0,0.0,0.0,0.0,0.0,0
67031,-0.66,0.71,0.29,10.17,-57.99,66.87,37.0,-25.2,-40.8,67.58,-35.38,-86.04,24.39,1010.02,655.05,0,0.0,0.0,0.0,0.0,0.0,0.0,0
67100,-0.39,0.86,0.42,16.76,-65.9,54.75,27.3,-31.3,-44.0,69.8,-21.66,-78.08,24.38,1010.02,655.02,0,0.0,0.0,0.0,0.0,0.0,0.0,0
67242,70.04,-0.13,0.88,12.0,-18.86,-60.94,0.4,16.7,-33.1,69.76,-20.92,-77.62,24.38,1010.03,654.97,0,0.0,0.0,0.0,0.0,0.0,0.0,0
67379,70.04,-0.13,0.88,12.0,-18.86,-60.94,0.4,16.7,-33.1,69.76,-20.92,-77.62,24.37,1010.03,654.92,0,0.0,0.0,0.0,0.0,0.0,0.0,0
67494,0.23,0.88,0.34,3.33,-60.68,74.65,2.8,-32.3,-49.7,67.82,11.06,-67.03,24.37,1010.03,654.95,0,0.0,0.0,0.0,0.0,0.0,0.0,0
67606,0.23,0.88,0.34,3.33,-60.68,74.65,2.8,-32.3,-49.7,67.82,11.06,-67.03,24.37,1010.04,654.9,0,0.0,0.0,0.0,0.0,0.0,0.0,0
67739,0.42,0.86,0.39,-20.16,-24.91,16.03,0.4,-6.8,-26.9,67.75,20.17,-64.14,24.36,1010.04,654.88,0,0.0,0.0,0.0,0.0,0.0,0.0,0
67874,0.42,0.86,0.39,-20.16,-24.91,16.03,0.4,-6.8,-26.9,67.75,20.17,-64.14,24.36,1010.04,654.88,0,0.0,0.0,0.0,0.0,0.0,0.0,0
67928,0.44,0.75,0.34,-10.96,-22.41,20.37,-8.9,-25.9,-49.3,63.71,27.2,-61.02,24.36,1010.05,654.83,0,0.0,0.0,0.0,0.0,0.0,0.0,0
68059,0.44,0.75,0.34,-10.96,-22.41,20.37,-8.9,-25.9,-49.3,63.71,27.2,-61.02,24.35,1010.05,654.77,0,0.0,0.0,0.0,0.0,0.0,0.0,0
68148,0.52,0.75,0.43,-22.86,-7.97,37.78,-11.7,-22.8,-48.7,60.89,32.02,-60.78,24.36,1010.05,654.8,0,0.0,0.0,0.0,0.0,0.0,0.0,0
68285,0.52,0.75,0.43,-22.86,-7.97,37.78,-11.7,-22.8,-48.7,60.89,32.02,-60.78,24.36,1010.05,654.81,0,0.0,0.0,0.0,0.0,0.0,0.0,0
68397,0.52,0.75,0.43,-22.86,-7.97,37.78,-11.7,-22.8,-48.7,60.89,32.02,-60.78,24.36,1010.05,654.78,0,0.0,0.0,0.0,0.0,0.0,0.0,0
68531,0.52,0.75,0.43,-22.86,-7.97,37.78,-11.7,-22.8,-48.7,60.89,32.02,-60.78,24.36,1010.05,654.77,0,0.0,0.0,0.0,0.0,0.0,0.0,0
68609,0.75,0.44,0.49,-55.34,3.79,19.15,-15.6,-95.0,0.2,40.43,47.08,-68.48,24.37,1010.05,654.8,0,0.0,0.0,0.0,0.0,0.0,0.0,0
68755,0.68,0.23,0.62,-89.85,38.28,11.21,-13.0,-0.1,-46.9,19.2,45.31,-75.33,24.37,1010.05,654.76,0,0.0,0.0,0.0,0.0,0.0,0.0,0
68883,0.68,0.23,0.62,-89.85,38.28,11.21,-13.0,-0.1,-46.9,19.2,45.31,-75.33,24.37,1010.06,654.69,0,0.0,0.0,0.0,0.0,0.0,0.0,0
68978,0.68,0.23,0.62,-89.85,38.28,11.21,-13.0,-0.1,-46.9,19.2,45.31,-75.33,24.37,1010.06,654.67,0,0.0,0.0,0.0,0.0,0.0,0.0,0
69069,0.51,-0.12,0.8,5.81,38.11,14.42,-4.5,10.8,-41.5,-4.82,31.0,-81.96,24.38,1010.06,654.7,0,0.0,0.0,0.0,0.0,0.0,0.0,0
69206,0.51,-0.12,0.8,5.81,38.11,14.42,-4.5,10.8,-41.5,-4.82,31.0,-81.96,24.38,1010.06,654.69,0,0.0,0.0,0.0,0.0,0.0,0.0,0
69307,0.48,0.01,0.87,-8.45,42.08,0.2,-0.4,11.1,-42.0,-5.7,24.86,-82.82,24.38,1010.06,654.68,0,0.0,0.0,0.0,0.0,0.0,0.0,0
69476,0.48,0.01,0.87,-8.45,42.08,0.2,-0.4,11.1,-42.0,-5.7,24.86,-82.82,24.37,1010.07,654.62,0,0.0,0.0,0.0,0.0,0.0,0.0,0
69547,0.48,0.01,0.87,-8.45,42.08,0.2,-0.4,11.1,-42.0,-5.7,24.86,-82.82,24.38,1010.07,654.63,0,0.0,0.0,0.0,0.0,0.0,0.0,0
69652,0.13,-0.23,0.97,-32.16,54.07,3.34,6.6,13.9,-40.9,-10.08,9.56,-80.24,24.38,1010.07,654.65,0,0.0,0.0,0.0,0.0,0.0,0.0,0
69746,0.13,-0.23,0.97,-32.16,54.07,3.34,6.6,13.9,-40.9,-10.08,9.56,-80.24,24.39,1010.07,654.64,0,0.0,0.0,0.0,0.0,0.0,0.0,0
69815,0.0,-0.3,1.0,-33.58,44.85,17.82,11.6,16.8,-35.5,-17.01,-0.4,-79.92,24.4,1010.07,654.67,0,0.0,0.0,0.0,0.0,0.0,0.0,0
69927,0.0,-0.3,1.0,-33.58,44.85,17.82,11.6,16.8,-35.5,-17.01,-0.4,-79.92,24.4,1010.06,654.68,0,0.0,0.0,0.0,0.0,0.0,0.0,0
70028,-0.19,-0.33,0.97,-30.85,73.6,31.28,15.7,17.3,3173.0,-19.9,-7.14,-80.62,24.4,1010.06,654.68,0,0.0,0.0,0.0,0.0,0.0,0.0,0
70187,-0.42,-0.34,0.79,7.58,49.13,6.6,25.2,50.2,16.2,-21.12,-22.41,-80.51,24.39,1010.07,654.61,0,0.0,0.0,0.0,0.0,0.0,0.0,0
70281,-0.42,-0.34,0.79,7.58,49.13,6.6,25.2,50.2,16.2,-21.12,-22.41,-80.51,24.39,1010.07,654.61,0,0.0,0.0,0.0,0.0,0.0,0.0,0
70332,-0.42,-0.34,0.79,7.58,49.13,6.6,25.2,50.2,16.2,-21.12,-22.41,-80.51,24.4,1010.07,654.61,0,0.0,0.0,0.0,0.0,0.0,0.0,0
70428,-0.71,-0.13,0.78,62.81,29.47,24.59,37.1,11.4,-26.6,-9.13,-43.42,-84.15,24.39,1010.07,654.6,0,0.0,0.0,0.0,0.0,0.0,0.0,0
70583,-0.75,0.04,0.63,67.08,36.11,24.62,40.8,7.1,-26.5,2.29,-49.0,-88.54,24.38,1010.08,654.58,0,0.0,0.0,0.0,0.0,0.0,0.0,0
70676,-0.75,0.04,0.63,67.08,36.11,24.62,40.8,7.1,-26.5,2.29,-49.0,-88.54,24.38,1010.07,654.62,0,0.0,0.0,0.0,0.0,0.0,0.0,0
70790,-0.77,0.14,0.6,69.87,34.4,21.21,42.5,4.5,-27.0,9.49,-51.26,-91.48,24.38,1010.06,654.67,0,0.0,0.0,0.0,0.0,0.0,0.0,0
70877,-0.82,0.26,0.48,83.54,29.95,21.43,45.4,-1.4,-28.0,29.56,-55.0,-99.61,24.39,1010.06,654.74,0,0.0,0.0,0.0,0.0,0.0,0.0,0
70997,-0.82,0.26,0.48,83.54,29.95,21.43,45.4,-1.4,-28.0,29.56,-55.0,-99.61,24.39,1010.05,654.8,0,0.0,0.0,0.0,0.0,0.0,0.0,0
71113,-0.84,0.49,0.0,129.88,-6.1,25.05,-0.7,0.6,0.2,54.98,-55.26,-107.81,24.39,1010.05,654.8,0,0.0,0.0,0.0,0.0,0.0,0.0,0
71209,-0.68,0.65,0.2,80.92,-59.07,37.93,44.2,-18.7,-33.6,68.32,-46.42,-101.81,24.39,1010.04,654.85,0,0.0,0.0,0.0,0.0,0.0,0.0,0
71277,-0.68,0.65,0.2,80.92,-59.07,37.93,44.2,-18.7,-33.6,68.32,-46.42,-101.81,24.4,1010.04,654.91,0,0.0,0.0,0.0,0.0,0.0,0.0,0
71369,-0.61,0.73,0.26,17.92,-55.21,51.7,41.1,-23.0,-22.8,70.66,-40.23,-96.6,24.41,1010.03,654.96,0,0.0,0.0,0.0,0.0,0.0,0.0,0
71519,-0.61,0.73,0.26,17.92,-55.21,51.7,41.1,-23.0,-22.8,70.66,-40.23,-96.6,24.4,1010.03,654.93,0,0.0,0.0,0.0,0.0,0.0,0.0,0
71591,-0.34,0.87,0.39,-8.92,-72.94,69.56,23.5,-32.7,-45.1,69.33,-15.75,-79.67,24.4,1010.03,654.94,0,0.0,0.0,0.0,0.0,0.0,0.0,0
71680,-0.34,0.87,0.39,-8.92,-72.94,69.56,23.5,-32.7,-45.1,69.33,-15.75,-79.67,24.41,1010.03,654.97,0,0.0,0.0,0.0,0.0,0.0,0.0,0
71794,-0.34,0.87,0.39,-8.92,-72.94,69.56,23.5,-32.7,-45.1,69.33,-15.75,-79.67,24.41,1010.03,654.98,0,0.0,0.0,0.0,0.0,0.0,0.0,0
71891,-0.34,0.87,0.39,-8.92,-72.94,69.56,23.5,-32.7,-45.1,69.33,-15.75,-79.67,24.41,1010.03,654.98,0,0.0,0.0,0.0,0.0,0.0,0.0,0
71936,0.14,0.84,0.44,-56.23,-86.56,72.78,7.9,-29.2,-52.4,59.4,4.67,-69.29,24.41,1010.03,654.97,0,0.0,0.0,0.0,0.0,0.0,0.0,0
72074,0.14,0.84,0.44,-56.23,-86.56,72.78,7.9,-29.2,-52.4,59.4,4.67,-69.29,24.39,1010.04,654.88,0,0.0,0.0,0.0,0.0,0.0,0.0,0
72164,0.37,0.72,0.64,-61.59,-50.33,57.94,-2.6,-21.5,-54.2,50.25,21.26,-66.94,24.39,1010.04,654.88,0,0.0,0.0,0.0,0.0,0.0,0.0,0
72223,0.37,0.72,0.64,-61.59,-50.33,57.94,-2.6,-21.5,-54.2,50.25,21.26,-66.94,24.39,1010.05,654.83,0,0.0,0.0,0.0,0.0,0.0,0.0,0
72301,0.37,0.72,0.64,-61.59,-50.33,57.94,-2.6,-21.5,-54.2,50.25,21.26,-66.94,24.39,1010.05,654.83,0,0.0,0.0,0.0,0.0,0.0,0.0,0
72354,0.6,0.44,0.63,-78.16,2.24,30.86,-9.6,-7.5,-52.3,30.26,35.06,-70.33,24.39,1010.05,654.79,0,0.0,0.0,0.0,0.0,0.0,0.0,0
72488,0.6,0.44,0.63,-78.16,2.24,30.86,-9.6,-7.5,-52.3,30.26,35.06,-70.33,24.39,1010.05,654.79,0,0.0,0.0,0.0,0.0,0.0,0.0,0
72538,0.54,0.29,0.74,-98.33,39.72,23.07,-8.2,-3.2,-51.5,21.24,34.59,-73.69,24.38,1010.06,654.68,0,0.0,0.0,0.0,0.0,0.0,0.0,0
72660,0.54,0.29,0.74,-98.33,39.72,23.07,-8.2,-3.2,-51.5,21.24,34.59,-73.69,24.37,1010.08,654.57,0,0.0,0.0,0.0,0.0,0.0,0.0,0
72764,0.38,-0.08,0.93,-93.65,68.33,25.24,0.3,9.8,-45.8,-3.86,23.04,-80.22,24.37,1010.08,654.54,0,0.0,0.0,0.0,0.0,0.0,0.0,0
72877,0.38,-0.08,0.93,-93.65,68.33,25.24,0.3,9.8,-45.8,-3.86,23.04,-80.22,24.37,1010.08,654.53,0,0.0,0.0,0.0,0.0,0.0,0.0,0
72995,0.15,-0.31,0.96,-58.95,68.51,17.77,7.5,15.8,-38.3,-16.7,9.43,-81.19,24.38,1010.08,654.52,0,0.0,0.0,0.0,0.0,0.0,0.0,0
73102,0.15,-0.31,0.96,-58.95,68.51,17.77,7.5,15.8,-38.3,-16.7,9.43,-81.19,24.38,1010.09,654.5,0,0.0,0.0,0.0,0.0,0.0,0.0,0
73230,-0.18,-0.5,0.6,-16.94,63.68,23.49,13.8,-0.4,-0.5,-29.44,-7.35,-80.55,24.38,1010.08,654.52,0,0.0,0.0,0.0,0.0,0.0,0.0,0
73382,-0.41,-0.51,0.75,40.25,51.71,14.28,23.7,20.2,-21.2,-32.5,-23.25,-76.39,24.38,1010.09,654.5,0,0.0,0.0,0.0,0.0,0.0,0.0,0
73537,-0.52,-0.19,0.89,59.83,18.64,19.68,28.8,15.0,-29.5,-17.79,-31.58,-76.66,24.37,1010.08,654.55,0,0.0,0.0,0.0,0.0,0.0,0.0,0
73652,-0.52,-0.19,0.89,59.83,18.64,19.68,28.8,15.0,-29.5,-17.79,-31.58,-76.66,24.37,1010.08,654.55,0,0.0,0.0,0.0,0.0,0.0,0.0,0
73715,-0.51,-0.01,0.84,69.65,2.82,12.23,31.7,9.9,-35.1,-5.03,-33.5,-79.71,24.37,1010.08,654.58,0,0.0,0.0,0.0,0.0,0.0,0.0,0
73841,-0.52,4.92,15.64,68.98,2.21,12.72,-0.5,0.1,0.8,-4.21,-33.5,-79.87,24.36,1010.07,654.6,0,0.0,0.0,0.0,0.0,0.0,0.0,0
73998,-0.54,0.17,0.83,93.79,-4.13,14.35,33.1,2.6,-41.9,11.05,-32.79,-82.86,24.36,1010.07,654.61,0,0.0,0.0,0.0,0.0,0.0,0.0,0
74245,-0.54,0.17,0.83,93.79,-4.13,14.35,33.1,2.6,-41.9,11.05,-32.79,-82.86,24.36,1010.06,654.7,0,0.0,0.0,0.0,0.0,0.0,0.0,0
74360,-0.52,0.46,0.73,99.17,-12.64,1.68,33.6,-8.6,-49.9,31.8,-31.44,-84.26,24.35,1010.06,654.67,0,0.0,0.0,0.0,0.0,0.0,0.0,0
74557,-0.52,0.46,0.73,99.17,-12.64,1.68,33.6,-8.6,-49.9,31.8,-31.44,-84.26,24.34,1010.07,654.65,0,0.0,0.0,0.0,0.0,0.0,0.0,0
74628,-0.17,0.78,0.5,46.94,-81.42,56.55,17.2,-27.7,-52.3,57.98,-8.52,-71.33,24.35,1010.07,654.66,0,0.0,0.0,0.0,0.0,0.0,0.0,0
74765,-0.17,0.78,0.5,46.94,-81.42,56.55,17.2,-27.7,-52.3,57.98,-8.52,-71.33,24.36,1010.06,654.72,0,0.0,0.0,0.0,0.0,0.0,0.0,0
74845,0.37,0.79,0.41,-43.06,-22.52,60.39,-4.6,-27.0,-50.8,61.03,20.52,-61.16,24.37,1010.06,654.73,0,0.0,0.0,0.0,0.0,0.0,0.0,0
74977,0.37,0.79,0.41,-43.06,-22.52,60.39,-4.6,-27.0,-50.8,61.03,20.52,-61.16,24.37,1010.06,654.74,0,0.0,0.0,0.0,0.0,0.0,0.0,0
75040,0.44,0.69,0.48,-83.48,-4.96,62.43,-6.7,-22.9,-51.8,54.34,25.38,-63.17,24.38,1010.05,654.77,0,0.0,0.0,0.0,0.0,0.0,0.0,0
75139,0.44,0.69,0.48,-83.48,-4.96,62.43,-6.7,-22.9,-51.8,54.34,25.38,-63.17,24.38,1010.05,654.77,0,0.0,0.0,0.0,0.0,0.0,0.0,0
75211,0.46,0.37,0.75,-98.21,41.2,21.24,-5.2,-7.5,-53.6,28.15,28.88,-73.14,24.39,1010.05,654.83,0,0.0,0.0,0.0,0.0,0.0,0.0,0
75335,0.46,0.37,0.75,-98.21,41.2,21.24,-5.2,-7.5,-53.6,28.15,28.88,-73.14,24.39,1010.05,654.83,0,0.0,0.0,0.0,0.0,0.0,0.0,0
75384,0.34,0.22,0.93,-65.54,80.33,30.19,0.6,0.1,-53.3,13.47,22.12,-79.83,24.38,1010.06,654.72,0,0.0,0.0,0.0,0.0,0.0,0.0,0
75518,0.34,0.22,0.93,-65.54,80.33,30.19,0.6,0.1,-53.3,13.47,22.12,-79.83,24.37,1010.07,654.64,0,0.0,0.0,0.0,0.0,0.0,0.0,0
75595,0.34,0.22,0.93,-65.54,80.33,30.19,0.6,0.1,-53.3,13.47,22.12,-79.83,24.38,1010.06,654.67,0,0.0,0.0,0.0,0.0,0.0,0.0,0
75683,0.34,0.22,0.93,-65.54,80.33,30.19,0.6,0.1,-53.3,13.47,22.12,-79.83,24.38,1010.06,654.67,0,0.0,0.0,0.0,0.0,0.0,0.0,0
75752,0.34,0.22,0.93,-65.54,80.33,30.19,0.6,0.1,-53.3,13.47,22.12,-79.83,24.39,1010.06,654.72,0,0.0,0.0,0.0,0.0,0.0,0.0,0
75853,-0.23,-0.13,-81.36,-28.21,97.01,8.55,0.1,0.9,33.1,-6.76,-12.47,-85.14,24.38,1010.06,654.74,0,0.0,0.0,0.0,0.0,0.0,0.0,0
75968,-0.56,0.13,0.91,59.05,60.1,-8.39,33.0,5.1,-39.9,7.24,-34.03,-84.07,24.38,1010.06,654.73,0,0.0,0.0,0.0,0.0,0.0,0.0,0
76094,-0.56,0.13,0.91,59.05,60.1,-8.39,33.0,5.1,-39.9,7.24,-34.03,-84.07,24.38,1010.06,654.73,0,0.0,0.0,0.0,0.0,0.0,0.0,0
76144,-0.61,0.54,0.59,67.35,-34.3,0.06,38.0,-12.0,-43.9,41.66,-39.53,-85.05,24.38,1010.06,654.74,0,0.0,0.0,0.0,0.0,0.0,0.0,0
76216,-0.61,0.54,0.59,67.35,-34.3,0.06,38.0,-12.0,-43.9,41.66,-39.53,-85.05,24.38,1010.05,654.77,0,0.0,0.0,0.0,0.0,0.0,0.0,0
76314,-0.61,0.54,0.59,67.35,-34.3,0.06,38.0,-12.0,-43.9,41.66,-39.53,-85.05,24.38,1010.05,654.79,0,0.0,0.0,0.0,0.0,0.0,0.0,0
76413,-0.49,0.64,0.55,46.28,-77.51,44.19,30.7,-19.3,-493.0,49.26,-28.37,-78.47,24.39,1010.04,654.85,0,0.0,0.0,0.0,0.0,0.0,0.0,0
76498,-0.11,0.78,0.63,-32.39,-52.11,61.5,14.0,-25.0,-53.6,52.5,-4.52,-71.68,24.4,1010.03,654.92,0,0.0,0.0,0.0,0.0,0.0,0.0,0
76623,-0.11,0.78,0.63,-32.39,-52.11,61.5,14.0,-25.0,-53.6,52.5,-4.52,-71.68,24.4,1010.04,654.89,0,0.0,0.0,0.0,0.0,0.0,0.0,0
76718,-0.11,0.78,0.63,-32.39,-52.11,61.5,14.0,-25.0,-53.6,52.5,-4.52,-71.68,24.4,1010.04,654.88,0,0.0,0.0,0.0,0.0,0.0,0.0,0
76788,-0.11,0.78,0.63,-32.39,-52.11,61.5,14.0,-25.0,-53.6,52.5,-4.52,-71.68,24.4,1010.04,654.88,0,0.0,0.0,0.0,0.0,0.0,0.0,0
76840,0.24,0.53,0.77,-61.94,-49.63,38.38,3.2,-13.1,-56.4,33.97,12.91,-70.71,24.41,1010.03,654.96,0,0.0,0.0,0.0,0.0,0.0,0.0,0
76915,0.25,0.5,0.76,-55.6,-48.36,35.84,2.5,-12.7,-56.3,33.38,13.55,-70.74,24.41,1010.03,654.93,0,0.0,0.0,0.0,0.0,0.0,0.0,0
77037,0.25,0.5,0.76,-55.6,-48.36,35.84,2.5,-12.7,-56.3,33.38,13.55,-70.74,24.41,1010.04,654.85,0,0.0,0.0,0.0,0.0,0.0,0.0,0
77129,0.25,0.5,0.76,-55.6,-48.36,35.84,2.5,-12.7,-56.3,33.38,13.55,-70.74,24.41,1010.04,654.85,0,0.0,0.0,0.0,0.0,0.0,0.0,0
77179,0.31,0.22,0.83,-86.62,10.14,17.53,1.1,-2.2,-53.7,17.0,18.78,-75.42,24.41,1010.05,654.81,0,0.0,0.0,0.0,0.0,0.0,0.0,0
77300,0.31,0.22,0.83,-86.62,10.14,17.53,1.1,-2.2,-53.7,17.0,18.78,-75.42,24.4,1010.06,654.73,0,0.0,0.0,0.0,0.0,0.0,0.0,0
77364,0.26,-0.04,0.99,-100.94,30.76,9.85,3.5,8.8,-45.9,-3.73,15.27,-78.33,24.4,1010.06,654.7,0,0.0,0.0,0.0,0.0,0.0,0.0,0
77457,0.26,-0.04,0.99,-100.94,30.76,9.85,3.5,8.8,-45.9,-3.73,15.27,-78.33,24.41,1010.06,654.75,0,0.0,0.0,0.0,0.0,0.0,0.0,0
77533,0.19,-0.16,0.94,-46.93,57.25,15.1,6.1,13.2,-40.6,-12.12,10.13,-79.12,24.41,1010.05,654.78,0,0.0,0.0,0.0,0.0,0.0,0.0,0
77660,-77.62,4.34,81.04,-48.76,60.44,14.2,13.4,-0.2,-0.3,-12.59,9.53,-79.12,24.41,1010.06,654.75,0,0.0,0.0,0.0,0.0,0.0,0.0,0
77771,-77.62,4.34,81.04,-48.76,60.44,14.2,13.4,-0.2,-0.3,-12.59,9.53,-79.12,24.41,1010.05,654.79,0,0.0,0.0,0.0,0.0,0.0,0.0,0
77857,-77.62,4.34,81.04,-48.76,60.44,14.2,13.4,-0.2,-0.3,-12.59,9.53,-79.12,24.41,1010.05,654.8,0,0.0,0.0,0.0,0.0,0.0,0.0,0
77969,-77.62,4.34,81.04,-48.76,60.44,14.2,13.4,-0.2,-0.3,-12.59,9.53,-79.12,24.41,1010.05,654.8,0,0.0,0.0,0.0,0.0,0.0,0.0,0
78020,-77.62,4.34,81.04,-48.76,60.44,14.2,13.4,-0.2,-0.3,-12.59,9.53,-79.12,24.42,1010.05,654.83,0,0.0,0.0,0.0,0.0,0.0,0.0,0
78076,-0.41,0.31,0.85,113.13,-11.42,2.44,28.0,-2.0,-48.1,19.95,-26.29,-78.4,24.41,1010.04,654.85,0,0.0,0.0,0.0,0.0,0.0,0.0,0
78216,-0.41,0.31,0.85,113.13,-11.42,2.44,28.0,-2.0,-48.1,19.95,-26.29,-78.4,24.41,1010.04,654.85,0,0.0,0.0,0.0,0.0,0.0,0.0,0
78275,-0.36,0.55,0.73,85.64,-46.67,4.89,26.4,-11.6,-51.6,34.82,-22.4,-76.94,24.41,1010.04,654.85,0,0.0,0.0,0.0,0.0,0.0,0.0,0
78329,-0.36,0.55,0.73,85.64,-46.67,4.89,26.4,-11.6,-51.6,34.82,-22.4,-76.94,24.41,1010.04,654.88,0,0.0,0.0,0.0,0.0,0.0,0.0,0
78459,-0.36,0.55,0.73,85.64,-46.67,4.89,26.4,-11.6,-51.6,34.82,-22.4,-76.94,24.4,1010.04,654.85,0,0.0,0.0,0.0,0.0,0.0,0.0,0
78556,-0.19,0.66,0.69,32.68,-76.56,34.25,17.7,-19.8,-13.6,45.05,-9.87,-71.37,24.4,1010.05,654.82,0,0.0,0.0,0.0,0.0,0.0,0.0,0
78755,0.24,0.68,64.66,-69.33,-54.56,54.9,-65.4,-33.4,36.0,46.16,14.41,-64.87,24.39,1010.06,654.72,0,0.0,0.0,0.0,0.0,0.0,0.0,0
78916,0.24,0.68,64.66,-69.33,-54.56,54.9,-65.4,-33.4,36.0,46.16,14.41,-64.87,24.39,1010.06,654.72,0,0.0,0.0,0.0,0.0,0.0,0.0,0
78979,0.42,0.44,0.76,-75.05,-2.3,34.73,-5.0,-8.7,-53.1,29.19,24.96,-68.16,24.38,1010.06,654.67,0,0.0,0.0,0.0,0.0,0.0,0.0,0
79102,0.42,0.44,0.76,-75.05,-2.3,34.73,-5.0,-8.7,-53.1,29.19,24.96,-68.16,24.37,1010.07,654.64,0,0.0,0.0,0.0,0.0,0.0,0.0,0
79188,0.41,0.28,0.84,-79.19,34.06,28.52,-3.5,-2.4,-52.0,18.16,24.78,-72.61,24.37,1010.07,654.66,0,0.0,0.0,0.0,0.0,0.0,0.0,0
79317,0.41,0.28,0.84,-79.19,34.06,28.52,-3.5,-2.4,-52.0,18.16,24.78,-72.61,24.38,1010.06,654.68,0,0.0,0.0,0.0,0.0,0.0,0.0,0
79421,0.41,0.28,0.84,-79.19,34.06,28.52,-3.5,-2.4,-52.0,18.16,24.78,-72.61,24.38,1010.06,654.67,0,0.0,0.0,0.0,0.0,0.0,0.0,0
79521,0.41,0.28,0.84,-79.19,34.06,28.52,-3.5,-2.4,-52.0,18.16,24.78,-72.61,24.39,1010.06,654.74,0,0.0,0.0,0.0,0.0,0.0,0.0,0
79613,0.41,0.28,0.84,-79.19,34.06,28.52,-3.5,-2.4,-52.0,18.16,24.78,-72.61,24.39,1010.05,654.77,0,0.0,0.0,0.0,0.0,0.0,0.0,0
79707,-0.03,-0.06,0.97,12.59,56.23,-1.13,13.4,10.5,-42.2,-5.87,-3.21,-78.53,24.39,1010.05,654.77,0,0.0,0.0,0.0,0.0,0.0,0.0,0
79758,-0.03,-0.06,0.97,12.59,56.23,-1.13,13.4,10.5,-42.2,-5.87,-3.21,-78.53,24.4,1010.04,654.88,0,0.0,0.0,0.0,0.0,0.0,0.0,0
79843,-0.03,-0.06,0.97,12.59,56.23,-1.13,13.4,10.5,-42.2,-5.87,-3.21,-78.53,24.4,1010.05,654.82,0,0.0,0.0,0.0,0.0,0.0,0.0,0
79959,-0.36,-0.03,0.99,67.82,65.22,-1.61,21.2,8.0,-0.4,-0.28,-19.41,-76.24,24.4,1010.04,654.86,0,0.0,0.0,0.0,0.0,0.0,0.0,0
80023,-0.44,0.48,0.73,130.46,-28.77,-10.09,27.5,-8.5,-49.9,30.44,-28.5,-73.66,24.4,1010.04,654.88,0,0.0,0.0,0.0,0.0,0.0,0.0,0
80095,-0.44,0.48,0.73,130.46,-28.77,-10.09,27.5,-8.5,-49.9,30.44,-28.5,-73.66,24.4,1010.04,654.88,0,0.0,0.0,0.0,0.0,0.0,0.0,0
80160,-0.41,0.52,0.73,90.33,-47.68,9.33,25.7,-13.7,-51.7,38.09,-25.53,-71.56,24.42,1010.03,654.93,0,0.0,0.0,0.0,0.0,0.0,0.0,0
80300,-0.41,0.52,0.73,90.33,-47.68,9.33,25.7,-13.7,-51.7,38.09,-25.53,-71.56,24.4,1010.04,654.87,0,0.0,0.0,0.0,0.0,0.0,0.0,0
80369,-0.31,0.65,0.64,59.16,-66.58,20.25,19.0,-22.2,-53.1,49.09,-16.95,-66.37,24.4,1010.04,654.86,0,0.0,0.0,0.0,0.0,0.0,0.0,0
80443,-0.31,0.65,0.64,59.16,-66.58,20.25,19.0,-22.2,-53.1,49.09,-16.95,-66.37,24.41,1010.04,654.88,0,0.0,0.0,0.0,0.0,0.0,0.0,0
80582,-0.31,0.65,0.64,59.16,-66.58,20.25,19.0,-22.2,-53.1,49.09,-16.95,-66.37,24.41,1010.04,654.92,0,0.0,0.0,0.0,0.0,0.0,0.0,0
80716,-0.12,0.83,0.5,43.27,-67.86,72.17,53.8,0.2,0.8,57.16,-7.27,-63.01,24.4,1010.04,654.9,0,0.0,0.0,0.0,0.0,0.0,0.0,0
80866,0.26,0.79,0.53,-45.92,-42.01,54.32,-2.0,-24.6,-52.7,54.63,15.39,-60.86,24.39,1010.05,654.8,0,0.0,0.0,0.0,0.0,0.0,0.0,0
80976,0.26,0.79,0.53,-45.92,-42.01,54.32,-2.0,-24.6,-52.7,54.63,15.39,-60.86,24.39,1010.05,654.8,0,0.0,0.0,0.0,0.0,0.0,0.0,0
81028,0.55,0.61,0.73,-77.44,4.25,59.96,-8.7,-13.7,-52.1,41.33,31.02,-66.17,24.39,1010.05,654.8,0,0.0,0.0,0.0,0.0,0.0,0.0,0
81112,0.55,0.61,0.73,-77.44,4.25,59.96,-8.7,-13.7,-52.1,41.33,31.02,-66.17,24.39,1010.05,654.8,0,0.0,0.0,0.0,0.0,0.0,0.0,0
81171,0.42,0.25,0.68,-91.26,57.79,17.31,-5.0,-4.2,-52.2,22.84,29.21,-74.44,24.39,1010.06,654.75,0,0.0,0.0,0.0,0.0,0.0,0.0,0
81270,0.42,0.25,0.68,-91.26,57.79,17.31,-5.0,-4.2,-52.2,22.84,29.21,-74.44,24.39,1010.06,654.72,0,0.0,0.0,0.0,0.0,0.0,0.0,0
81365,0.36,0.2,1.06,-44.9,78.05,-10.33,0.8,2.0,-51.1,11.8,19.81,-77.69,24.39,1010.06,654.69,0,0.0,0.0,0.0,0.0,0.0,0.0,0
81442,0.36,0.2,1.06,-44.9,78.05,-10.33,0.8,2.0,-51.1,11.8,19.81,-77.69,24.39,1010.06,654.69,0,0.0,0.0,0.0,0.0,0.0,0.0,0
81520,0.21,0.13,0.99,-51.87,72.86,10.1,7.7,4.4,-50.4,6.19,9.77,-79.82,24.4,1010.06,654.69,0,0.0,0.0,0.0,0.0,0.0,0.0,0
81593,0.21,0.13,0.99,-51.87,72.86,10.1,7.7,4.4,-50.4,6.19,9.77,-79.82,24.4,1010.06,654.69,0,0.0,0.0,0.0,0.0,0.0,0.0,0
81649,-0.05,-0.01,0.97,-22.84,84.43,3.27,14.8,7.8,-47.0,0.63,-1.22,-81.53,24.39,1010.06,654.68,0,0.0,0.0,0.0,0.0,0.0,0.0,0
81782,-0.05,-0.01,0.97,-22.84,84.43,3.27,14.8,7.8,-47.0,0.63,-1.22,-81.53,24.38,1010.07,654.63,0,0.0,0.0,0.0,0.0,0.0,0.0,0
81872,-0.05,-0.01,0.97,-22.84,84.43,3.27,14.8,7.8,-47.0,0.63,-1.22,-81.53,24.38,1010.07,654.63,0,0.0,0.0,0.0,0.0,0.0,0.0,0
81928,-0.34,-0.02,0.98,-8.14,85.37,-13.99,22.9,8.8,-42.7,-2.08,-17.14,-80.71,24.39,1010.07,654.63,0,0.0,0.0,0.0,0.0,0.0,0.0,0
82028,-0.34,-0.02,0.98,-8.14,85.37,-13.99,22.9,8.8,-42.7,-2.08,-17.14,-80.71,24.38,1010.07,654.65,0,0.0,0.0,0.0,0.0,0.0,0.0,0
82102,-0.45,-0.01,0.89,79.23,34.16,-5.13,27.0,8.9,-40.0,-0.55,-25.69,-79.03,24.39,1010.06,654.72,0,0.0,0.0,0.0,0.0,0.0,0.0,0
82238,-0.45,-0.01,0.89,79.23,34.16,-5.13,27.0,8.9,-40.0,-0.55,-25.69,-79.03,24.39,1010.05,654.78,0,0.0,0.0,0.0,0.0,0.0,0.0,0
82353,-0.34,0.34,0.1,155.82,2.48,-18.36,0.6,0.6,23.3,17.2,-27.53,-77.55,24.39,1010.05,654.77,0,0.0,0.0,0.0,0.0,0.0,0.0,0
82501,-0.32,0.65,0.69,49.47,-44.53,11.92,22.7,-17.2,-53.0,42.26,-20.8,-71.12,24.38,1010.05,654.79,0,0.0,0.0,0.0,0.0,0.0,0.0,0
82590,-0.32,0.65,0.69,49.47,-44.53,11.92,22.7,-17.2,-53.0,42.26,-20.8,-71.12,24.39,1010.05,654.78,0,0.0,0.0,0.0,0.0,0.0,0.0,0
82658,-0.2,0.66,0.72,-19.07,-54.64,27.73,16.5,-20.3,-54.6,45.11,-11.48,-67.24,24.4,1010.05,654.81,0,0.0,0.0,0.0,0.0,0.0,0.0,0
82768,-0.2,0.66,0.72,-19.07,-54.64,27.73,16.5,-20.3,-54.6,45.11,-11.48,-67.24,24.41,1010.04,654.86,0,0.0,0.0,0.0,0.0,0.0,0.0,0
82852,-0.2,0.66,0.72,-19.07,-54.64,27.73,16.5,-20.3,-54.6,45.11,-11.48,-67.24,24.41,1010.04,654.86,0,0.0,0.0,0.0,0.0,0.0,0.0,0
82912,0.11,0.72,0.7,2.25,-72.9,62.97,3.1,-19.0,-55.4,43.74,7.81,-63.52,24.41,1010.04,654.91,0,0.0,0.0,0.0,0.0,0.0,0.0,0
83004,0.11,0.72,0.7,2.25,-72.9,62.97,3.1,-19.0,-55.4,43.74,7.81,-63.52,24.41,1010.04,654.87,0,0.0,0.0,0.0,0.0,0.0,0.0,0
83071,0.37,0.6,0.58,-27.99,-43.52,48.39,-4.1,-16.6,-53.9,42.22,20.82,-63.64,24.41,1010.04,654.87,0,0.0,0.0,0.0,0.0,0.0,0.0,0
83131,0.37,0.6,0.58,-27.99,-43.52,48.39,-4.1,-16.6,-53.9,42.22,20.82,-63.64,24.41,1010.04,654.84,0,0.0,0.0,0.0,0.0,0.0,0.0,0
83213,0.43,0.42,0.74,-78.83,8.85,42.35,-5.7,-9.6,-52.9,31.51,26.36,-67.58,24.41,1010.04,654.84,0,0.0,0.0,0.0,0.0,0.0,0.0,0
83262,0.43,0.42,0.74,-78.83,8.85,42.35,-5.7,-9.6,-52.9,31.51,26.36,-67.58,24.41,1010.05,654.82,0,0.0,0.0,0.0,0.0,0.0,0.0,0
83342,0.3,0.08,0.95,-69.42,74.06,4.06,1.6,4.5,-49.0,6.06,18.62,-77.69,24.4,1010.05,654.76,0,0.0,0.0,0.0,0.0,0.0,0.0,0
83417,0.3,0.08,0.95,-69.42,74.06,4.06,1.6,4.5,-49.0,6.06,18.62,-77.69,24.4,1010.05,654.76,0,0.0,0.0,0.0,0.0,0.0,0.0,0
83493,0.11,0.0,1.01,-46.99,84.03,5.98,8.4,8.4,-45.6,-2.54,7.09,-78.18,24.41,1010.06,654.74,0,0.0,0.0,0.0,0.0,0.0,0.0,0
83614,0.11,0.0,1.01,-46.99,84.03,5.98,8.4,8.4,-45.6,-2.54,7.09,-78.18,24.39,1010.07,654.66,0,0.0,0.0,0.0,0.0,0.0,0.0,0
83723,-0.08,-0.1,1.02,-22.85,73.04,12.38,13.8,10.9,-42.8,-6.54,-4.11,-78.39,24.39,1010.06,654.68,0,0.0,0.0,0.0,0.0,0.0,0.0,0
83791,-0.08,-0.1,1.02,-22.85,73.04,12.38,13.8,10.9,-42.8,-6.54,-4.11,-78.39,24.4,1010.06,654.72,0,0.0,0.0,0.0,0.0,0.0,0.0,0
83865,-0.27,-0.09,0.94,25.69,52.45,10.94,20.1,11.0,-40.6,-6.97,-13.92,-79.01,24.41,1010.05,654.8,0,0.0,0.0,0.0,0.0,0.0,0.0,0
83967,-0.27,-0.09,0.94,25.69,52.45,10.94,20.1,11.0,-40.6,-6.97,-13.92,-79.01,24.42,1010.04,654.91,0,0.0,0.0,0.0,0.0,0.0,0.0,0
84038,-0.3,-0.1,0.99,12.65,30.83,-0.82,23.6,9.7,-41.1,-3.92,-19.16,-78.33,24.43,1010.03,654.94,0,0.0,0.0,0.0,0.0,0.0,0.0,0
84157,-0.3,-0.1,0.99,12.65,30.83,-0.82,23.6,9.7,-41.1,-3.92,-19.16,-78.33,24.43,1010.03,654.94,0,0.0,0.0,0.0,0.0,0.0,0.0,0
84219,-0.49,0.0,0.89,42.76,50.39,6.11,28.9,7.8,-39.3,-0.13,-30.05,-79.19,24.42,1010.03,654.94,0,0.0,0.0,0.0,0.0,0.0,0.0,0
84286,-0.49,0.0,0.89,42.76,50.39,6.11,28.9,7.8,-39.3,-0.13,-30.05,-79.19,24.42,1010.04,654.89,0,0.0,0.0,0.0,0.0,0.0,0.0,0
84380,-0.49,0.0,0.89,42.76,50.39,6.11,28.9,7.8,-39.3,-0.13,-30.05,-79.19,24.42,1010.04,654.89,0,0.0,0.0,0.0,0.0,0.0,0.0,0
84440,-0.54,0.24,0.82,135.45,-5.03,-0.71,31.9,1.2,-43.1,15.46,-33.65,-79.87,24.42,1010.04,654.9,0,0.0,0.0,0.0,0.0,0.0,0.0,0
84580,-0.54,0.24,0.82,135.45,-5.03,-0.71,31.9,1.2,-43.1,15.46,-33.65,-79.87,24.4,1010.05,654.83,0,0.0,0.0,0.0,0.0,0.0,0.0,0
84637,-0.54,0.24,0.82,135.45,-5.03,-0.71,31.9,1.2,-43.1,15.46,-33.65,-79.87,24.4,1010.04,654.85,0,0.0,0.0,0.0,0.0,0.0,0.0,0
84724,-0.36,0.64,0.67,28.62,-49.07,20.59,24.0,-19.8,-52.5,46.74,-21.03,-72.71,24.41,1010.03,654.93,0,0.0,0.0,0.0,0.0,0.0,0.0,0
84825,-0.36,0.64,0.67,28.62,-49.07,20.59,24.0,-19.8,-52.5,46.74,-21.03,-72.71,24.41,1010.03,654.96,0,0.0,0.0,0.0,0.0,0.0,0.0,0
84894,-0.26,0.72,0.61,6.85,-37.2,22.46,19.9,-21.6,-53.2,48.12,-15.52,-70.53,24.42,1010.02,655.01,0,0.0,0.0,0.0,0.0,0.0,0.0,0
85027,-0.26,0.72,0.61,6.85,-37.2,22.46,19.9,-21.6,-53.2,48.12,-15.52,-70.53,24.42,1010.02,655.03,0,0.0,0.0,0.0,0.0,0.0,0.0,0
85123,-0.07,0.76,0.64,19.52,-51.62,41.13,11.7,-23.9,-54.2,50.73,-3.57,-67.11,24.42,1010.03,654.97,0,0.0,0.0,0.0,0.0,0.0,0.0,0
85241,-0.07,0.76,0.64,19.52,-51.62,41.13,11.7,-23.9,-54.2,50.73,-3.57,-67.11,24.42,1010.03,654.96,0,0.0,0.0,0.0,0.0,0.0,0.0,0
85307,0.06,0.77,0.61,6.7,-42.43,58.71,5.1,-24.8,-53.6,53.6,7.35,-65.49,24.42,1010.03,654.99,0,0.0,0.0,0.0,0.0,0.0,0.0,0
85422,88.99,0.35,0.66,3.83,-41.39,-31.87,0.5,-3.9,-20.6,53.63,8.04,-65.51,24.42,1010.03,654.95,0,0.0,0.0,0.0,0.0,0.0,0.0,0
85538,88.99,0.35,0.66,3.83,-41.39,-31.87,0.5,-3.9,-20.6,53.63,8.04,-65.51,24.42,1010.04,654.91,0,0.0,0.0,0.0,0.0,0.0,0.0,0
85648,88.99,0.35,0.66,3.83,-41.39,-31.87,0.5,-3.9,-20.6,53.63,8.04,-65.51,24.42,1010.04,654.91,0,0.0,0.0,0.0,0.0,0.0,0.0,0
85715,0.57,0.41,0.63,-46.4,13.23,42.5,-7.6,-10.6,-52.6,35.61,36.91,-78.25,24.41,1010.04,654.89,0,0.0,0.0,0.0,0.0,0.0,0.0,0
85816,0.57,0.41,0.63,-46.4,13.23,42.5,-7.6,-10.6,-52.6,35.61,36.91,-78.25,24.4,1010.05,654.79,0,0.0,0.0,0.0,0.0,0.0,0.0,0
85922,0.57,0.41,0.63,-46.4,13.23,42.5,-7.6,-10.6,-52.6,35.61,36.91,-78.25,24.4,1010.05,654.77,0,0.0,0.0,0.0,0.0,0.0,0.0,0
86011,0.51,0.27,0.86,-35.5,54.56,-21.81,0.0,-1.5,-53.5,17.7,27.71,-86.72,24.41,1010.05,654.79,0,0.0,0.0,0.0,0.0,0.0,0.0,0
86135,0.51,0.27,0.86,-35.5,54.56,-21.81,0.0,-1.5,-53.5,17.7,27.71,-86.72,24.4,1010.05,654.81,0,0.0,0.0,0.0,0.0,0.0,0.0,0
86228,0.51,0.27,0.86,-35.5,54.56,-21.81,0.0,-1.5,-53.5,17.7,27.71,-86.72,24.41,1010.04,654.85,0,0.0,0.0,0.0,0.0,0.0,0.0,0
86321,0.51,0.27,0.86,-35.5,54.56,-21.81,0.0,-1.5,-53.5,17.7,27.71,-86.72,24.41,1010.04,654.86,0,0.0,0.0,0.0,0.0,0.0,0.0,0
86398,0.09,0.1,1.02,-10.62,53.76,-27.94,9.9,5.0,-51.1,6.67,8.1,-83.5,24.42,1010.04,654.89,0,0.0,0.0,0.0,0.0,0.0,0.0,0
86530,0.09,0.1,1.02,-10.62,53.76,-27.94,9.9,5.0,-51.1,6.67,8.1,-83.5,24.42,1010.04,654.89,0,0.0,0.0,0.0,0.0,0.0,0.0,0
86636,0.09,0.1,1.02,-10.62,53.76,-27.94,9.9,5.0,-51.1,6.67,8.1,-83.5,24.42,1010.04,654.84,0,0.0,0.0,0.0,0.0,0.0,0.0,0
86723,0.08,0.11,0.97,19.26,13.16,-28.34,13.7,4.8,-50.6,8.18,-4.94,-74.64,24.42,1010.05,654.83,0,0.0,0.0,0.0,0.0,0.0,0.0,0
86822,0.08,0.11,0.97,19.26,13.16,-28.34,13.7,4.8,-50.6,8.18,-4.94,-74.64,24.42,1010.05,654.8,0,0.0,0.0,0.0,0.0,0.0,0.0,0
86896,-0.17,0.15,0.96,17.85,-4.78,-15.81,12.7,4.1,-50.5,8.77,-8.14,-71.66,24.43,1010.05,654.83,0,0.0,0.0,0.0,0.0,0.0,0.0,0
87032,-0.17,0.15,0.96,17.85,-4.78,-15.81,12.7,4.1,-50.5,8.77,-8.14,-71.66,24.43,1010.05,654.82,0,0.0,0.0,0.0,0.0,0.0,0.0,0
87124,-0.17,0.15,0.96,17.85,-4.78,-15.81,12.7,4.1,-50.5,8.77,-8.14,-71.66,24.43,1010.05,654.82,0,0.0,0.0,0.0,0.0,0.0,0.0,0
87182,-0.02,0.13,0.93,-19.79,-28.57,15.43,7.3,3.4,-50.6,10.01,-1.25,-70.65,24.42,1010.05,654.81,0,0.0,0.0,0.0,0.0,0.0,0.0,0
87318,-0.02,0.13,0.93,-19.79,-28.57,15.43,7.3,3.4,-50.6,10.01,-1.25,-70.65,24.42,1010.05,654.81,0,0.0,0.0,0.0,0.0,0.0,0.0,0
87367,0.1,0.11,0.96,-36.91,-15.53,8.77,1.6,7.2,-46.8,5.34,5.01,-72.9,24.41,1010.06,654.73,0,0.0,0.0,0.0,0.0,0.0,0.0,0
87466,0.1,0.11,0.96,-36.91,-15.53,8.77,1.6,7.2,-46.8,5.34,5.01,-72.9,24.4,1010.07,654.65,0,0.0,0.0,0.0,0.0,0.0,0.0,0
87586,0.1,0.11,0.96,-36.91,-15.53,8.77,1.6,7.2,-46.8,5.34,5.01,-72.9,24.4,1010.07,654.65,0,0.0,0.0,0.0,0.0,0.0,0.0,0
87649,0.1,0.11,0.96,-36.91,-15.53,8.77,1.6,7.2,-46.8,5.34,5.01,-72.9,24.4,1010.07,654.61,0,0.0,0.0,0.0,0.0,0.0,0.0,0
87726,0.1,0.11,0.96,-36.91,-15.53,8.77,1.6,7.2,-46.8,5.34,5.01,-72.9,24.39,1010.07,654.59,0,0.0,0.0,0.0,0.0,0.0,0.0,0
87828,0.17,0.0,1.05,33.91,-1.09,17.56,-2.8,12.8,-42.0,-0.52,6.07,-75.93,24.39,1010.07,654.59,0,0.0,0.0,0.0,0.0,0.0,0.0,0
87993,0.11,0.07,1.06,-54.54,-1.03,3.02,-2.4,13.3,-41.8,0.55,5.12,-78.79,24.39,1010.08,654.5,0,0.0,0.0,0.0,0.0,0.0,0.0,0
89330,0.14,-0.35,0.95,13.73,-5.05,20.29,1.4,16.2,-24.3,-21.61,3.35,-80.06,24.39,1010.08,654.57,0,0.0,0.0,0.0,0.0,0.0,0.0,0
89460,0.14,-0.35,0.95,13.73,-5.05,20.29,1.4,16.2,-24.3,-21.61,3.35,-80.06,24.4,1010.08,654.56,0,0.0,0.0,0.0,0.0,0.0,0.0,0
89552,0.14,-0.35,0.95,13.73,-5.05,20.29,1.4,16.2,-24.3,-21.61,3.35,-80.06,24.4,1010.07,654.6,0,0.0,0.0,0.0,0.0,0.0,0.0,0
89663,0.08,-0.37,0.92,-1.19,-9.24,2.71,3.6,17.2,-23.5,-23.42,3.5,-81.81,24.4,1010.08,654.56,0,0.0,0.0,0.0,0.0,0.0,0.0,0
89778,0.08,-0.37,0.92,-1.19,-9.24,2.71,3.6,17.2,-23.5,-23.42,3.5,-81.81,24.41,1010.08,654.56,0,0.0,0.0,0.0,0.0,0.0,0.0,0
89848,0.12,-0.29,0.86,-16.68,-34.12,-57.92,1.8,17.3,-23.4,-22.47,7.75,-81.51,24.41,1010.08,654.57,0,0.0,0.0,0.0,0.0,0.0,0.0,0
89972,0.12,-0.29,0.86,-16.68,-34.12,-57.92,1.8,17.3,-23.4,-22.47,7.75,-81.51,24.42,1010.07,654.59,0,0.0,0.0,0.0,0.0,0.0,0.0,0
90035,0.02,-0.37,1.02,78.73,1.01,-54.96,-2.4,17.4,-25.3,-18.2,7.03,-73.76,24.42,1010.07,654.64,0,0.0,0.0,0.0,0.0,0.0,0.0,0
90150,0.02,-0.37,1.02,78.73,1.01,-54.96,-2.4,17.4,-25.3,-18.2,7.03,-73.76,24.42,1010.07,654.65,0,0.0,0.0,0.0,0.0,0.0,0.0,0
90249,0.12,-0.21,0.95,18.78,4.86,38.91,-4.2,16.1,-34.5,-9.27,7.86,-72.94,24.43,1010.06,654.67,0,0.0,0.0,0.0,0.0,0.0,0.0,0
90357,0.12,-0.21,0.95,18.78,4.86,38.91,-4.2,16.1,-34.5,-9.27,7.86,-72.94,24.43,1010.06,654.67,0,0.0,0.0,0.0,0.0,0.0,0.0,0
90469,0.08,0.2,1.19,11.16,26.18,30.36,-0.6,13.5,-43.6,0.02,7.63,-82.81,24.43,1010.07,654.64,0,0.0,0.0,0.0,0.0,0.0,0.0,0
90557,0.08,0.2,1.19,11.16,26.18,30.36,-0.6,13.5,-43.6,0.02,7.63,-82.81,24.43,1010.07,654.63,0,0.0,0.0,0.0,0.0,0.0,0.0,0
90637,0.11,0.05,0.96,-3.39,6.45,5.44,0.8,14.3,-44.3,-0.16,5.07,-84.0,24.43,1010.07,654.61,0,0.0,0.0,0.0,0.0,0.0,0.0,0
90766,-14.48,21.84,0.17,-62.04,2.62,-83.92,0.0,0.0,0.7,-0.2,4.98,-84.05,24.43,1010.07,654.64,0,0.0,0.0,0.0,0.0,0.0,0.0,0
90901,-14.48,21.84,0.17,-62.04,2.62,-83.92,0.0,0.0,0.7,-0.2,4.98,-84.05,24.42,1010.08,654.58,0,0.0,0.0,0.0,0.0,0.0,0.0,0
90987,0.04,0.01,0.89,-6.38,8.85,17.52,3.3,16.7,-41.9,-2.51,1.59,-84.7,24.43,1010.08,654.57,0,0.0,0.0,0.0,0.0,0.0,0.0,0
91109,-0.01,-0.04,1.12,-7.54,1.0,15.25,6.5,15.9,-45.0,-2.55,1.48,-84.88,24.42,1010.08,654.57,0,0.0,0.0,0.0,0.0,0.0,0.0,0
92274,-0.01,0.0,0.99,0.0,0.0,0.0,7.0,14.7,-45.4,0.63,-0.56,-89.95,24.44,1010.07,654.65,0,0.0,0.0,0.0,0.0,0.0,0.0,0
92321,-0.01,0.0,0.99,0.0,0.0,0.0,7.0,15.0,-45.1,0.62,-0.58,-89.95,24.45,1010.06,654.67,0,0.0,0.0,0.0,0.0,0.0,0.0,0
92444,-0.01,0.0,0.99,0.0,0.0,0.0,7.0,15.0,-45.1,0.62,-0.58,-89.95,24.45,1010.06,654.67,0,0.0,0.0,0.0,0.0,0.0,0.0,0
92502,-0.01,0.0,0.99,0.0,0.0,0.0,6.9,15.4,-45.2,0.61,-0.6,-89.95,24.44,1010.08,654.58,0,0.0,0.0,0.0,0.0,0.0,0.0,0
92572,-0.01,0.0,0.99,0.0,0.0,0.0,6.9,15.4,-45.2,0.61,-0.6,-89.95,24.43,1010.08,654.55,0,0.0,0.0,0.0,0.0,0.0,0.0,0
92678,-0.01,0.0,0.99,0.0,0.0,0.0,6.9,15.4,-45.2,0.61,-0.6,-89.95,24.43,1010.08,654.55,0,0.0,0.0,0.0,0.0,0.0,0.0,0
92751,-0.01,0.0,0.99,0.0,0.0,0.0,6.8,14.6,-45.2,0.58,-0.61,-89.95,24.42,1010.08,654.54,0,0.0,0.0,0.0,0.0,0.0,0.0,0
93965,-0.01,0.0,0.99,0.0,0.0,0.0,7.1,14.7,-45.1,0.56,-0.66,-89.95,24.39,1010.09,654.49,0,0.0,0.0,0.0,0.0,0.0,0.0,0
94072,-0.01,0.0,0.99,0.0,0.0,0.0,7.1,14.7,-45.1,0.56,-0.66,-89.95,24.39,1010.09,654.49,0,0.0,0.0,0.0,0.0,0.0,0.0,0
95361,-0.01,0.01,0.98,0.0,0.0,0.0,6.7,14.6,-44.9,0.55,-0.67,-89.95,24.41,1010.07,654.61,0,0.0,0.0,0.0,0.0,0.0,0.0,0
95561,-0.01,0.01,1.0,0.0,0.0,0.0,6.6,14.7,-44.8,0.56,-0.67,-89.95,24.41,1010.07,654.61,0,0.0,0.0,0.0,0.0,0.0,0.0,0
95693,-0.01,0.01,1.0,0.0,0.0,0.0,6.6,14.7,-44.8,0.56,-0.67,-89.95,24.39,1010.09,654.47,0,0.0,0.0,0.0,0.0,0.0,0.0,0
95777,-0.01,0.01,0.98,0.0,0.0,0.0,6.9,14.5,-45.3,0.55,-0.67,-89.95,24.39,1010.09,654.46,0,0.0,0.0,0.0,0.0,0.0,0.0,0
95896,-0.01,0.01,0.98,0.0,0.0,0.0,6.9,14.5,-45.3,0.55,-0.67,-89.95,24.39,1010.09,654.46,0,0.0,0.0,0.0,0.0,0.0,0.0,0
95965,-0.01,0.0,0.99,0.0,0.0,0.0,7.4,14.6,-46.0,0.55,-0.68,-89.95,24.39,1010.09,654.44,0,0.0,0.0,0.0,0.0,0.0,0.0,0
96056,-0.01,0.0,0.99,0.0,0.0,0.0,7.4,14.6,-46.0,0.55,-0.68,-89.95,24.38,1010.09,654.45,0,0.0,0.0,0.0,0.0,0.0,0.0,0
96166,-0.01,0.0,0.99,0.0,0.0,0.0,6.7,3.0,0.0,0.55,-0.68,-89.95,24.39,1010.09,654.47,0,0.0,0.0,0.0,0.0,0.0,0.0,0
96316,-0.01,0.0,0.99,0.0,0.0,0.0,6.7,3.0,0.0,0.55,-0.68,-89.95,24.39,1010.09,654.48,0,0.0,0.0,0.0,0.0,0.0,0.0,0
96374,-0.01,0.01,0.99,0.0,0.0,0.0,6.9,15.0,-45.3,0.55,-0.68,-89.95,24.4,1010.08,654.53,0,0.0,0.0,0.0,0.0,0.0,0.0,0
96489,-0.01,0.01,0.99,0.0,0.0,0.0,6.9,15.0,-45.3,0.55,-0.68,-89.95,24.4,1010.07,654.59,0,0.0,0.0,0.0,0.0,0.0,0.0,0
96562,-0.01,0.01,0.99,0.0,0.0,0.0,6.8,14.6,-45.6,0.55,-0.68,-89.95,24.41,1010.07,654.63,0,0.0,0.0,0.0,0.0,0.0,0.0,0
96673,-0.01,0.01,0.99,0.0,0.0,0.0,6.8,14.6,-45.6,0.55,-0.68,-89.95,24.42,1010.07,654.65,0,0.0,0.0,0.0,0.0,0.0,0.0,0
97889,-0.01,0.0,0.98,0.0,0.0,0.0,7.1,15.0,-45.8,0.56,-0.67,-89.95,24.45,1010.05,654.77,0,0.0,0.0,0.0,0.0,0.0,0.0,0
98022,-0.01,0.0,0.98,0.0,0.0,0.0,7.1,15.0,-45.8,0.56,-0.67,-89.95,24.45,1010.05,654.77,0,0.0,0.0,0.0,0.0,0.0,0.0,0
98071,-0.01,0.0,0.98,0.0,0.0,0.0,7.1,15.0,-45.8,0.56,-0.67,-89.95,24.44,1010.06,654.71,0,0.0,0.0,0.0,0.0,0.0,0.0,0
98129,-0.01,0.0,0.99,0.0,0.0,0.0,6.9,14.9,-45.4,0.56,-0.67,-89.95,24.43,1010.06,654.7,0,0.0,0.0,0.0,0.0,0.0,0.0,0
98263,-0.01,0.0,0.99,0.0,0.0,0.0,6.9,14.9,-45.4,0.56,-0.67,-89.95,24.43,1010.06,654.7,0,0.0,0.0,0.0,0.0,0.0,0.0,0
98312,-0.01,0.0,0.99,0.0,0.0,0.0,7.0,14.7,-45.3,0.56,-0.67,-89.95,24.42,1010.07,654.63,0,0.0,0.0,0.0,0.0,0.0,0.0,0
98430,-0.01,0.0,0.99,0.0,0.0,0.0,7.0,14.7,-45.3,0.56,-0.67,-89.95,24.41,1010.08,654.56,0,0.0,0.0,0.0,0.0,0.0,0.0,0
98527,-0.01,0.0,0.99,0.0,0.0,0.0,7.0,14.7,-45.3,0.56,-0.67,-89.95,24.41,1010.08,654.56,0,0.0,0.0,0.0,0.0,0.0,0.0,0
98633,-0.01,0.0,0.99,0.0,0.0,0.0,7.0,14.7,-45.3,0.56,-0.67,-89.95,24.41,1010.08,654.57,0,0.0,0.0,0.0,0.0,0.0,0.0,0
98748,-0.01,0.0,0.99,0.0,0.0,0.0,7.0,14.7,-45.3,0.56,-0.67,-89.95,24.41,1010.07,654.61,0,0.0,0.0,0.0,0.0,0.0,0.0,0
98851,-0.01,0.01,0.99,0.0,0.0,0.0,7.1,15.0,-45.4,0.55,-0.67,-89.95,24.41,1010.07,654.59,0,0.0,0.0,0.0,0.0,0.0,0.0,0
98984,-0.01,0.01,0.99,0.0,0.0,0.0,7.1,15.0,-45.4,0.55,-0.67,-89.95,24.41,1010.07,654.62,0,0.0,0.0,0.0,0.0,0.0,0.0,0
99091,-0.01,0.0,0.99,0.0,0.0,0.0,7.1,15.3,-45.7,0.55,-0.67,-89.95,24.41,1010.07,654.61,0,0.0,0.0,0.0,0.0,0.0,0.0,0
99219,-0.01,0.0,0.99,0.0,0.0,0.0,7.1,15.3,-45.7,0.55,-0.67,-89.95,24.41,1010.07,654.61,0,0.0,0.0,0.0,0.0,0.0,0.0,0
100373,-0.01,0.0,0.99,0.0,0.0,0.0,7.0,15.3,-45.3,0.55,-0.67,-89.95,24.4,1010.08,654.58,0,0.0,0.0,0.0,0.0,0.0,0.0,0
101592,-0.01,0.01,0.99,0.0,0.0,0.0,7.1,15.1,-45.8,0.55,-0.68,-89.95,24.41,1010.06,654.67,0,0.0,0.0,0.0,0.0,0.0,0.0,0
101655,-0.01,0.01,0.99,0.0,0.0,0.0,6.6,15.3,-46.0,0.55,-0.68,-89.95,24.41,1010.06,654.72,0,0.0,0.0,0.0,0.0,0.0,0.0,0
101755,-0.01,0.01,0.99,0.0,0.0,0.0,6.6,15.3,-46.0,0.55,-0.68,-89.95,24.41,1010.05,654.81,0,0.0,0.0,0.0,0.0,0.0,0.0,0
101857,-0.01,0.0,0.99,0.0,0.0,0.0,6.7,15.8,-46.0,0.55,-0.67,-89.95,24.41,1010.05,654.83,0,0.0,0.0,0.0,0.0,0.0,0.0,0
101989,-0.01,0.0,0.99,0.0,0.0,0.0,6.7,15.8,-46.0,0.55,-0.67,-89.95,24.41,1010.05,654.82,0,0.0,0.0,0.0,0.0,0.0,0.0,0
102105,-0.01,0.0,0.99,0.0,0.0,0.0,6.7,15.8,-46.0,0.55,-0.67,-89.95,24.41,1010.05,654.81,0,0.0,0.0,0.0,0.0,0.0,0.0,0
102206,-0.01,0.01,0.99,0.0,0.0,0.0,6.9,15.3,-45.9,0.55,-0.68,-89.95,24.41,1010.05,654.82,0,0.0,0.0,0.0,0.0,0.0,0.0,0
103535,-0.01,0.01,0.99,0.0,0.0,0.0,7.0,15.2,-45.4,0.55,-0.68,-89.95,24.39,1010.07,654.62,0,0.0,0.0,0.0,0.0,0.0,0.0,0
103630,-0.01,0.01,0.99,0.0,0.0,0.0,7.0,15.2,-45.4,0.55,-0.68,-89.95,24.4,1010.07,654.62,0,0.0,0.0,0.0,0.0,0.0,0.0,0
103737,-0.01,0.0,0.99,0.0,0.0,0.0,7.2,15.1,-45.6,0.55,-0.68,-89.95,24.4,1010.07,654.62,0,0.0,0.0,0.0,0.0,0.0,0.0,0
103849,-0.01,0.0,0.99,0.0,0.0,0.0,7.2,15.1,-45.6,0.55,-0.68,-89.95,24.4,1010.07,654.62,0,0.0,0.0,0.0,0.0,0.0,0.0,0
104937,-0.01,0.0,0.99,0.0,0.0,0.0,7.2,15.3,-45.7,0.55,-0.68,-89.95,24.42,1010.07,654.65,0,0.0,0.0,0.0,0.0,0.0,0.0,0
105071,-0.01,0.0,0.99,0.0,0.0,0.0,7.2,15.3,-45.7,0.55,-0.68,-89.95,24.42,1010.07,654.65,0,0.0,0.0,0.0,0.0,0.0,0.0,0
105119,-0.01,0.01,0.99,0.0,0.0,0.0,6.6,15.2,-45.4,0.54,-0.66,-89.95,24.41,1010.07,654.59,0,0.0,0.0,0.0,0.0,0.0,0.0,0
105206,-0.01,0.01,0.99,0.0,0.0,0.0,6.6,15.2,-45.4,0.54,-0.66,-89.95,24.4,1010.08,654.57,0,0.0,0.0,0.0,0.0,0.0,0.0,0
105305,-0.01,0.01,0.99,0.0,0.0,0.0,6.6,15.2,-45.4,0.54,-0.66,-89.95,24.4,1010.08,654.54,0,0.0,0.0,0.0,0.0,0.0,0.0,0
105395,-0.01,0.01,0.99,0.0,0.0,0.0,6.6,15.2,-45.4,0.54,-0.66,-89.95,24.4,1010.08,654.54,0,0.0,0.0,0.0,0.0,0.0,0.0,0
105473,-0.01,0.01,0.99,0.0,0.0,0.0,7.0,15.4,-45.7,0.54,-0.67,-89.95,24.41,1010.07,654.6,0,0.0,0.0,0.0,0.0,0.0,0.0,0
106722,-0.01,0.01,0.99,0.0,0.0,0.0,6.6,15.6,-45.3,0.55,-0.68,-89.95,24.41,1010.08,654.58,0,0.0,0.0,0.0,0.0,0.0,0.0,0
106783,-0.01,0.01,0.99,0.0,0.0,0.0,7.2,15.4,-45.7,0.55,-0.68,-89.95,24.41,1010.08,654.54,0,0.0,0.0,0.0,0.0,0.0,0.0,0
106877,-0.01,0.01,0.99,0.0,0.0,0.0,7.2,15.4,-45.7,0.55,-0.68,-89.95,24.41,1010.08,654.54,0,0.0,0.0,0.0,0.0,0.0,0.0,0
106995,-0.01,0.0,0.99,0.0,0.0,0.0,6.8,15.3,-45.9,0.55,-0.68,-89.95,24.42,1010.07,654.59,0,0.0,0.0,0.0,0.0,0.0,0.0,0
107112,-0.01,0.0,0.99,0.0,0.0,0.0,6.8,15.3,-45.9,0.55,-0.68,-89.95,24.41,1010.08,654.57,0,0.0,0.0,0.0,0.0,0.0,0.0,0
107214,-0.01,0.0,0.99,0.0,0.0,0.0,6.7,15.6,-45.4,0.55,-0.68,-89.95,24.42,1010.08,654.58,0,0.0,0.0,0.0,0.0,0.0,0.0,0
107331,-0.01,0.0,0.99,0.0,0.0,0.0,6.7,15.6,-45.4,0.55,-0.68,-89.95,24.42,1010.08,654.58,0,0.0,0.0,0.0,0.0,0.0,0.0,0
108507,-0.01,0.0,0.99,0.0,0.0,0.0,6.8,15.3,-45.9,0.55,-0.68,-89.95,24.43,1010.07,654.65,0,0.0,0.0,0.0,0.0,0.0,0.0,0
108573,-0.01,0.0,0.99,0.0,0.0,0.0,6.8,15.3,-45.9,0.55,-0.68,-89.95,24.43,1010.07,654.65,0,0.0,0.0,0.0,0.0,0.0,0.0,0
108634,-0.01,0.0,0.99,0.0,0.0,0.0,6.5,15.2,-45.3,0.55,-0.68,-89.95,24.43,1010.08,654.58,0,0.0,0.0,0.0,0.0,0.0,0.0,0
108763,-0.01,0.0,0.99,0.0,0.0,0.0,6.5,15.2,-45.3,0.55,-0.68,-89.95,24.41,1010.08,654.52,0,0.0,0.0,0.0,0.0,0.0,0.0,0
108867,-0.01,0.01,0.99,0.0,0.0,0.0,6.5,15.8,-45.4,0.55,-0.68,-89.95,24.41,1010.08,654.53,0,0.0,0.0,0.0,0.0,0.0,0.0,0
109000,-0.01,0.01,0.99,0.0,0.0,0.0,6.5,15.8,-45.4,0.55,-0.68,-89.95,24.41,1010.08,654.51,0,0.0,0.0,0.0,0.0,0.0,0.0,0
109073,-0.01,0.01,0.99,0.0,0.0,0.0,6.6,15.5,-46.0,0.55,-0.68,-89.95,24.42,1010.08,654.53,0,0.0,0.0,0.0,0.0,0.0,0.0,0
109165,-0.01,0.01,0.99,0.0,0.0,0.0,6.6,15.5,-46.0,0.55,-0.68,-89.95,24.42,1010.08,654.56,0,0.0,0.0,0.0,0.0,0.0,0.0,0
109281,-0.01,0.0,0.99,0.0,0.0,0.0,6.6,15.9,-45.9,0.55,-0.69,-89.95,24.43,1010.08,654.57,0,0.0,0.0,0.0,0.0,0.0,0.0,0
109402,-0.01,0.0,0.99,0.0,0.0,0.0,6.6,15.9,-45.9,0.55,-0.69,-89.95,24.43,1010.08,654.58,0,0.0,0.0,0.0,0.0,0.0,0.0,0
