timestamp,ax,ay,az,gx,gy,gz,mx,my,mz,roll,pitch,yaw,T,P,P_alt,fix,lon,lat,alt,velN,velE,velD,ejection
0,-0.01,0.01,0.99,0.0,0.0,0.0,-5.1,13.6,-48.0,0.63,-1.03,-63.89,24.34,1009.94,0.01,0,0.0,0.0,0.0,0.0,0.0,0.0,0
73,-0.01,0.0,0.99,0.0,0.0,0.0,-5.1,13.7,-48.3,0.62,-1.03,-63.89,24.34,1009.94,0.01,0,0.0,0.0,0.0,0.0,0.0,0.0,0
607,-0.01,0.01,0.99,0.0,0.0,0.0,-6.0,13.8,-47.9,0.63,-1.04,-64.11,24.23,1009.99,654.96,0,0.0,0.0,0.0,0.0,0.0,0.0,0
637,-0.01,0.01,0.99,0.0,0.0,0.0,-6.0,13.8,-47.9,0.63,-1.04,-64.11,24.23,1009.99,654.96,0,0.0,0.0,0.0,0.0,0.0,0.0,0
777,-0.01,0.01,0.99,0.0,0.0,0.0,-5.7,13.9,-48.1,0.63,-1.04,-64.11,24.24,1010.0,654.95,0,0.0,0.0,0.0,0.0,0.0,0.0,0
1532,-0.02,0.01,0.99,0.0,0.0,0.0,-5.5,14.1,-47.9,0.63,-1.03,-64.11,24.2,1010.01,654.79,0,0.0,0.0,0.0,0.0,0.0,0.0,0
1625,-0.02,0.01,0.99,0.0,0.0,0.0,-5.5,14.1,-47.9,0.63,-1.03,-64.11,24.2,1010.01,654.79,0,0.0,0.0,0.0,0.0,0.0,0.0,0
1650,-0.01,0.01,0.99,0.0,0.0,0.0,-5.7,13.6,-48.1,0.63,-1.03,-64.11,24.21,1010.02,654.78,0,0.0,0.0,0.0,0.0,0.0,0.0,0
1714,-0.01,0.01,0.99,0.0,0.0,0.0,-5.7,13.6,-48.1,0.63,-1.03,-64.11,24.21,1010.02,654.78,0,0.0,0.0,0.0,0.0,0.0,0.0,0
1774,-0.01,0.01,0.99,0.0,0.0,0.0,-5.7,13.9,-400.0,0.63,-1.04,-64.11,24.22,1010.01,654.8,0,0.0,0.0,0.0,0.0,0.0,0.0,0
2332,-0.02,0.01,1.0,0.0,0.0,0.0,-5.2,14.1,-47.7,0.63,-1.03,-64.11,24.25,1010.0,654.92,0,0.0,0.0,0.0,0.0,0.0,0.0,0
2402,-0.02,0.01,1.0,0.0,0.0,0.0,-5.2,14.1,-47.7,0.63,-1.03,-64.11,24.25,1010.0,654.92,0,0.0,0.0,0.0,0.0,0.0,0.0,0
3037,-0.01,0.01,0.99,0.0,0.0,0.0,-5.9,13.8,-48.0,0.64,-1.03,-64.12,24.26,1009.99,654.97,0,0.0,0.0,0.0,0.0,0.0,0.0,0
3051,-0.01,0.0,0.99,0.0,0.0,0.0,-5.7,13.7,-47.8,0.64,-1.03,-64.12,24.27,1009.99,655.02,0,0.0,0.0,0.0,0.0,0.0,0.0,0
3143,-0.01,0.0,0.99,0.0,0.0,0.0,-5.7,13.7,-47.8,0.64,-1.03,-64.12,24.27,1009.99,655.02,0,0.0,0.0,0.0,0.0,0.0,0.0,0
3165,-0.01,0.01,0.99,0.0,0.0,0.0,-6.0,13.7,-48.0,0.64,-1.03,-64.12,24.27,1009.99,655.02,0,0.0,0.0,0.0,0.0,0.0,0.0,0
3203,-0.01,0.01,0.99,0.0,0.0,0.0,-6.0,13.7,-48.0,0.64,-1.03,-64.12,24.27,1009.99,655.02,0,0.0,0.0,0.0,0.0,0.0,0.0,0
3217,-0.01,0.01,0.99,0.0,0.0,0.0,-6.1,13.6,-47.6,0.64,-1.04,-64.12,24.27,1009.99,655.02,0,0.0,0.0,0.0,0.0,0.0,0.0,0
4008,-0.01,0.01,0.99,0.0,0.0,0.0,-5.2,13.7,-47.9,0.63,-1.04,-64.12,24.25,1010.0,654.89,0,0.0,0.0,0.0,0.0,0.0,0.0,0
4102,-0.01,0.01,0.99,0.0,0.0,0.0,-5.2,13.7,-47.9,0.63,-1.04,-64.12,24.25,1010.0,654.89,0,0.0,0.0,0.0,0.0,0.0,0.0,0
4115,-0.01,0.01,0.99,0.0,0.0,0.0,-5.5,14.1,-48.2,0.63,-1.04,-64.12,24.25,1010.0,654.87,0,0.0,0.0,0.0,0.0,0.0,0.0,0
4196,-0.01,0.01,0.99,0.0,0.0,0.0,-5.5,14.1,-48.2,0.63,-1.04,-64.12,24.25,1010.0,654.87,0,0.0,0.0,0.0,0.0,0.0,0.0,0
4213,-0.01,0.01,0.99,0.0,0.0,0.0,-5.5,13.9,-47.7,0.63,-1.04,-64.12,24.25,1010.01,654.85,0,0.0,0.0,0.0,0.0,0.0,0.0,0
4915,-0.01,0.01,0.99,0.0,0.0,0.0,-5.7,14.1,-47.8,0.63,-1.03,-64.12,24.23,1010.02,654.78,0,0.0,0.0,0.0,0.0,0.0,0.0,0
4944,-0.01,0.01,0.99,0.0,0.0,0.0,-5.7,13.4,-48.2,0.63,-1.03,-64.12,24.24,1010.01,654.81,0,0.0,0.0,0.0,0.0,0.0,0.0,0
5024,0.0,-0.01,0.01,0.0,0.0,0.0,0.9,-6.0,13.8,0.63,-1.03,-64.12,24.24,1010.01,654.81,0,0.0,0.0,0.0,0.0,0.0,0.0,0
5114,-0.02,0.01,0.99,0.0,0.0,0.0,-6.2,13.7,-47.9,0.64,-1.04,-64.12,24.24,1010.01,654.81,0,0.0,0.0,0.0,0.0,0.0,0.0,0
5168,-0.01,0.01,0.9,0.0,0.0,0.0,-64.1,0.0,0.0,0.64,-1.04,-64.12,24.24,1010.01,654.84,0,0.0,0.0,0.0,0.0,0.0,0.0,0
5290,-0.01,0.01,0.9,0.0,0.0,0.0,-64.1,0.0,0.0,0.64,-1.04,-64.12,24.24,1010.01,654.84,0,0.0,0.0,0.0,0.0,0.0,0.0,0
5341,-0.01,0.01,0.99,0.0,0.0,0.0,-5.9,13.8,-48.1,0.64,-1.03,-64.12,24.23,1010.01,654.8,0,0.0,0.0,0.0,0.0,0.0,0.0,0
6109,-0.01,0.01,0.99,0.0,0.0,0.0,-6.1,13.6,-47.8,0.64,-1.03,-64.12,24.24,1010.02,654.72,0,0.0,0.0,0.0,0.0,0.0,0.0,0
6189,-0.01,0.01,0.99,0.0,0.0,0.0,-6.1,13.6,-47.8,0.64,-1.03,-64.12,24.24,1010.02,654.72,0,0.0,0.0,0.0,0.0,0.0,0.0,0
6202,-0.02,0.01,0.99,0.0,0.0,0.0,-6.0,13.9,-47.5,0.64,-1.03,-64.12,24.24,1010.02,654.72,0,0.0,0.0,0.0,0.0,0.0,0.0,0
6246,-0.02,0.01,0.99,0.0,0.0,0.0,-6.0,13.9,-47.5,0.64,-1.03,-64.12,24.25,1010.02,654.78,0,0.0,0.0,0.0,0.0,0.0,0.0,0
6325,-0.02,0.01,0.99,0.0,0.0,0.0,-6.0,13.9,-47.5,0.64,-1.03,-64.12,24.25,1010.02,654.78,0,0.0,0.0,0.0,0.0,0.0,0.0,0
7006,-0.01,0.01,0.99,0.0,0.0,0.0,-5.5,13.7,-47.5,0.63,-1.04,-64.12,24.24,1010.02,654.77,0,0.0,0.0,0.0,0.0,0.0,0.0,0
7099,-0.01,0.01,0.99,0.0,0.0,0.0,-5.5,13.7,-47.5,0.63,-1.04,-64.12,24.24,1010.02,654.77,0,0.0,0.0,0.0,0.0,0.0,0.0,0
7150,-0.01,0.01,0.99,0.0,0.0,0.0,-6.2,13.6,-48.2,0.64,-1.04,-64.12,24.24,1010.02,654.75,0,0.0,0.0,0.0,0.0,0.0,0.0,0
7231,-0.01,0.01,0.99,0.0,0.0,0.0,-6.2,13.6,-48.2,0.64,-1.04,-64.12,24.24,1010.02,654.75,0,0.0,0.0,0.0,0.0,0.0,0.0,0
7245,-0.01,0.01,0.99,0.0,0.0,0.0,-6.0,13.9,-48.0,0.64,-1.04,-64.12,24.24,1010.02,654.75,0,0.0,0.0,0.0,0.0,0.0,0.0,0
7268,-0.01,0.01,0.99,0.0,0.0,0.0,-6.0,13.9,-48.0,0.64,-1.04,-64.12,24.24,1010.02,654.77,0,0.0,0.0,0.0,0.0,0.0,0.0,0
7954,-0.01,0.01,0.99,0.0,0.0,0.0,-6.0,13.8,-48.1,0.64,-1.04,-64.12,24.25,1010.01,654.82,0,0.0,0.0,0.0,0.0,0.0,0.0,0
8015,-0.01,0.01,0.99,0.0,0.0,0.0,-6.1,13.8,-47.3,0.64,-1.03,-64.12,24.25,1010.01,654.84,0,0.0,0.0,0.0,0.0,0.0,0.0,0
8109,-0.01,0.01,0.99,0.0,0.0,0.0,-6.1,13.8,-47.3,0.64,-1.03,-64.12,24.25,1010.01,654.84,0,0.0,0.0,0.0,0.0,0.0,0.0,0
8148,-0.01,0.01,0.99,0.0,0.0,0.0,-6.1,13.8,-47.3,0.64,-1.03,-64.12,24.25,1010.01,654.82,0,0.0,0.0,0.0,0.0,0.0,0.0,0
8181,-0.01,0.01,0.99,0.0,0.0,0.0,-5.9,13.8,-48.0,0.64,-1.03,-64.12,24.25,1010.01,654.81,0,0.0,0.0,0.0,0.0,0.0,0.0,0
8872,-0.01,0.01,0.99,0.0,0.0,0.0,-5.7,13.6,-47.5,0.63,-1.04,-64.12,24.26,1010.0,654.88,0,0.0,0.0,0.0,0.0,0.0,0.0,0
8952,-0.01,0.01,0.99,0.0,0.0,0.0,-5.7,13.6,-47.5,0.63,-1.04,-64.12,24.26,1010.0,654.88,0,0.0,0.0,0.0,0.0,0.0,0.0,0
8980,-0.02,0.01,0.99,0.0,0.0,0.0,-5.7,13.7,-47.9,0.63,-1.04,-64.12,24.26,1010.01,654.85,0,0.0,0.0,0.0,0.0,0.0,0.0,0
9043,-0.02,0.01,0.99,0.0,0.0,0.0,-5.7,13.7,-47.9,0.63,-1.04,-64.12,24.26,1010.01,654.85,0,0.0,0.0,0.0,0.0,0.0,0.0,0
9107,-0.01,0.0,0.99,0.0,0.0,0.0,-6.2,13.7,-48.1,0.64,-1.04,-64.12,24.26,1010.01,654.84,0,0.0,0.0,0.0,0.0,0.0,0.0,0
10385,-0.01,0.01,0.99,0.0,0.0,0.0,-6.1,13.8,-47.9,0.64,-1.04,-64.12,24.25,1010.02,654.77,0,0.0,0.0,0.0,0.0,0.0,0.0,0
10434,-0.01,0.01,0.99,0.0,0.0,0.0,-6.1,13.8,-47.9,0.64,-1.04,-64.12,24.25,1010.02,654.77,0,0.0,0.0,0.0,0.0,0.0,0.0,0
10494,-0.01,0.0,0.99,0.0,0.0,0.0,-5.9,13.8,-47.7,0.64,-1.04,-64.12,24.25,1010.01,654.8,0,0.0,0.0,0.0,0.0,0.0,0.0,0
10543,-0.01,0.0,0.99,0.0,0.0,0.0,-5.9,13.8,-47.7,0.64,-1.04,-64.12,24.25,1010.01,654.8,0,0.0,0.0,0.0,0.0,0.0,0.0,0
10579,-0.01,0.0,0.99,0.0,0.0,0.0,-5.9,13.8,-47.7,0.64,-1.04,-64.12,24.25,1010.01,654.8,0,0.0,0.0,0.0,0.0,0.0,0.0,0
10596,-0.01,0.01,0.99,0.0,0.0,0.0,-5.7,13.8,-47.9,0.64,-1.04,-64.12,24.26,1010.01,654.82,0,0.0,0.0,0.0,0.0,0.0,0.0,0
11252,-0.01,0.01,0.99,0.0,0.0,0.0,-5.7,13.7,-48.2,0.64,-1.04,-64.12,24.25,1010.02,654.73,0,0.0,0.0,0.0,0.0,0.0,0.0,0
11274,-0.01,0.01,0.99,0.0,0.0,0.0,-5.7,13.7,-48.2,0.64,-1.04,-64.12,24.25,1010.02,654.73,0,0.0,0.0,0.0,0.0,0.0,0.0,0
11291,-0.01,0.01,0.99,0.0,0.0,0.0,-5.2,13.9,-48.1,0.64,-1.04,-64.12,24.26,1010.02,654.75,0,0.0,0.0,0.0,0.0,0.0,0.0,0
11343,-0.01,0.01,0.99,0.0,0.0,0.0,-5.2,13.9,-48.1,0.64,-1.04,-64.12,24.27,1010.01,654.82,0,0.0,0.0,0.0,0.0,0.0,0.0,0
12000,-0.01,0.01,0.99,0.0,0.0,0.0,-5.5,13.9,-48.3,0.64,-1.04,-64.12,24.27,1010.01,654.85,0,0.0,0.0,0.0,0.0,0.0,0.0,0
12087,-0.01,0.01,0.99,0.0,0.0,0.0,-5.5,13.9,-48.3,0.64,-1.04,-64.12,24.27,1010.01,654.85,0,0.0,0.0,0.0,0.0,0.0,0.0,0
12117,-0.01,0.01,0.99,0.0,0.0,0.0,-5.5,13.8,-47.9,0.64,-1.04,-64.12,24.28,1010.01,654.86,0,0.0,0.0,0.0,0.0,0.0,0.0,0
12198,-0.01,0.01,0.99,0.0,0.0,0.0,-6.0,14.1,-47.8,0.64,-1.04,-64.12,24.27,1010.0,654.87,0,0.0,0.0,0.0,0.0,0.0,0.0,0
12279,-0.01,0.01,0.99,0.0,0.0,0.0,-6.0,14.1,-47.8,0.64,-1.04,-64.12,24.27,1010.0,654.87,0,0.0,0.0,0.0,0.0,0.0,0.0,0
12319,-0.01,0.01,0.99,0.0,0.0,0.0,-5.3,13.8,-47.9,0.64,-1.04,-64.12,24.27,1010.01,654.87,0,0.0,0.0,0.0,0.0,0.0,0.0,0
12400,-0.01,0.01,0.99,0.0,0.0,0.0,-5.3,13.8,-47.9,0.64,-1.04,-64.12,24.27,1010.01,654.87,0,0.0,0.0,0.0,0.0,0.0,0.0,0
12439,-0.01,0.01,0.99,0.0,0.0,0.0,-5.9,14.1,-47.6,0.64,-1.04,-64.12,24.27,1010.01,654.87,0,0.0,0.0,0.0,0.0,0.0,0.0,0
12465,-0.01,0.01,0.99,0.0,0.0,0.0,-5.9,14.1,-47.6,0.64,-1.04,-64.12,24.27,1010.0,654.87,0,0.0,0.0,0.0,0.0,0.0,0.0,0
12483,-0.01,0.01,0.99,0.0,0.0,0.0,-6.0,13.8,-48.2,0.64,-1.04,-64.12,24.27,1010.01,654.84,0,0.0,0.0,0.0,0.0,0.0,0.0,0
12572,-0.01,0.01,0.99,0.0,0.0,0.0,-6.0,13.8,-48.2,0.64,-1.04,-64.12,24.27,1010.01,654.84,0,0.0,0.0,0.0,0.0,0.0,0.0,0
12622,-0.01,0.0,0.99,0.0,0.0,0.0,-5.4,13.9,-48.0,0.64,-1.04,-64.12,24.28,1010.01,654.86,0,0.0,0.0,0.0,0.0,0.0,0.0,0
12703,-0.01,0.0,0.99,0.0,0.0,0.0,-5.4,13.9,-48.0,0.64,-1.04,-64.12,24.28,1010.01,654.86,0,0.0,0.0,0.0,0.0,0.0,0.0,0
12727,-0.01,0.01,0.99,0.0,0.0,0.0,-5.7,13.8,-47.9,0.64,-1.04,-64.12,24.28,1010.01,654.86,0,0.0,0.0,0.0,0.0,0.0,0.0,0
13490,-0.01,0.01,0.99,0.0,0.0,0.0,-5.5,1.0,-5.5,0.64,-1.04,-64.14,24.26,1010.02,654.76,0,0.0,0.0,0.0,0.0,0.0,0.0,0
13555,-0.01,0.01,0.99,0.0,0.0,0.0,-5.5,13.6,-47.7,0.64,-1.04,-64.14,24.27,1010.01,654.81,0,0.0,0.0,0.0,0.0,0.0,0.0,0
13649,-0.01,0.01,0.99,0.0,0.0,0.0,-5.5,13.6,-47.7,0.64,-1.04,-64.14,24.27,1010.01,654.81,0,0.0,0.0,0.0,0.0,0.0,0.0,0
13666,-0.01,0.01,0.99,0.0,0.0,0.0,-5.5,13.6,-47.7,0.64,-1.04,-64.14,24.27,1010.01,654.81,0,0.0,0.0,0.0,0.0,0.0,0.0,0
13684,-0.01,0.01,0.99,0.0,0.0,0.0,-5.6,13.5,-48.2,0.64,-1.04,-64.14,24.27,1010.01,654.81,0,0.0,0.0,0.0,0.0,0.0,0.0,0
13818,-0.01,0.01,0.99,0.0,0.0,0.0,-5.6,13.5,-48.2,0.64,-1.04,-64.14,24.27,1010.01,654.8,0,0.0,0.0,0.0,0.0,0.0,0.0,0
13882,-0.01,0.0,0.99,0.0,0.0,0.0,-5.7,13.7,-47.7,0.64,-1.04,-64.14,24.25,1010.02,654.72,0,0.0,0.0,0.0,0.0,0.0,0.0,0
13942,-0.01,0.0,0.99,0.0,0.0,0.0,-5.7,13.7,-47.7,0.64,-1.04,-64.14,24.25,1010.02,654.72,0,0.0,0.0,0.0,0.0,0.0,0.0,0
13956,-0.01,0.01,0.99,0.0,0.0,0.0,-5.6,13.7,-47.9,0.64,-1.03,-64.14,24.25,1010.02,654.72,0,0.0,0.0,0.0,0.0,0.0,0.0,0
13989,-0.01,0.01,0.99,0.0,0.0,0.0,-5.6,13.7,-47.9,0.64,-1.03,-64.14,24.25,1010.02,654.72,0,0.0,0.0,0.0,0.0,0.0,0.0,0
14007,-0.01,0.01,0.99,0.0,0.0,0.0,-5.7,13.7,-48.2,0.64,-1.03,-64.14,24.25,1010.03,654.7,0,0.0,0.0,0.0,0.0,0.0,0.0,0
14100,-0.01,0.01,0.99,0.0,0.0,0.0,-5.7,13.7,-48.2,0.64,-1.03,-64.14,24.25,1010.03,654.7,0,0.0,0.0,0.0,0.0,0.0,0.0,0
14113,-0.01,0.01,0.99,0.0,0.0,0.0,-5.7,13.7,-47.5,0.64,-1.03,-64.14,24.24,1010.02,654.72,0,0.0,0.0,0.0,0.0,0.0,0.0,0
14194,-0.01,0.01,0.99,0.0,0.0,0.0,-5.7,13.7,-47.5,0.64,-1.03,-64.14,24.24,1010.02,654.72,0,0.0,0.0,0.0,0.0,0.0,0.0,0
14251,-0.01,0.01,0.99,0.0,0.0,0.0,-5.7,13.7,-47.5,0.64,-1.03,-64.14,24.24,1010.02,654.72,0,0.0,0.0,0.0,0.0,0.0,0.0,0
14977,0.0,-0.01,0.01,0.0,0.0,0.0,0.9,-5.3,13.8,0.64,-1.04,-64.14,24.29,1010.0,654.89,0,0.0,0.0,0.0,0.0,0.0,0.0,0
15078,-0.01,0.01,0.99,0.0,0.0,0.0,-5.4,14.1,-47.5,0.64,-1.03,-64.14,24.29,1010.0,654.89,0,0.0,0.0,0.0,0.0,0.0,0.0,0
15090,-0.01,0.01,0.99,0.0,0.0,0.0,-5.4,14.1,-47.5,0.64,-1.03,-64.14,24.29,1010.0,654.89,0,0.0,0.0,0.0,0.0,0.0,0.0,0
15097,-0.01,0.01,0.99,0.0,0.0,0.0,-5.4,14.3,-47.8,0.64,-1.03,-64.14,24.29,1010.0,654.89,0,0.0,0.0,0.0,0.0,0.0,0.0,0
15242,-0.01,0.01,0.99,0.0,0.0,0.0,-5.4,14.3,-47.8,0.64,-1.03,-64.14,24.29,1010.0,654.93,0,0.0,0.0,0.0,0.0,0.0,0.0,0
15279,-0.01,0.01,0.99,0.0,0.0,0.0,-5.9,13.8,-48.1,0.64,-1.03,-64.14,24.27,1010.01,654.84,0,0.0,0.0,0.0,0.0,0.0,0.0,0
15372,-0.01,0.01,0.99,0.0,0.0,0.0,-5.9,13.8,-48.1,0.64,-1.03,-64.14,24.27,1010.01,654.84,0,0.0,0.0,0.0,0.0,0.0,0.0,0
15396,-0.01,0.01,0.99,0.0,0.0,0.0,-5.9,13.8,-47.9,0.64,-1.03,-64.14,24.27,1010.01,654.84,0,0.0,0.0,0.0,0.0,0.0,0.0,0
15418,-0.01,0.01,0.99,0.0,0.0,0.0,-5.9,13.8,-47.9,0.64,-1.03,-64.14,24.27,1010.01,654.84,0,0.0,0.0,0.0,0.0,0.0,0.0,0
15440,-0.01,0.01,0.99,0.0,0.0,0.0,-5.9,13.8,-48.0,0.64,-1.03,-64.14,24.27,1010.01,654.84,0,0.0,0.0,0.0,0.0,0.0,0.0,0
15484,-0.01,0.01,0.99,0.0,0.0,0.0,-5.9,13.8,-48.0,0.64,-1.03,-64.14,24.27,1010.01,654.84,0,0.0,0.0,0.0,0.0,0.0,0.0,0
15620,-0.02,0.01,0.99,0.0,0.0,0.0,-5.4,13.7,-48.1,0.64,-1.03,-64.14,24.27,1010.01,654.87,0,0.0,0.0,0.0,0.0,0.0,0.0,0
15709,-0.02,0.0,0.01,0.0,0.0,0.0,0.9,-5.6,14.1,0.64,-1.04,-64.14,24.25,1010.02,654.77,0,0.0,0.0,0.0,0.0,0.0,0.0,0
15797,-0.01,0.01,0.99,0.0,0.0,0.0,-5.7,14.3,-48.2,0.64,-1.04,-64.14,24.25,1010.02,654.77,0,0.0,0.0,0.0,0.0,0.0,0.0,0
15885,-0.01,0.01,0.99,0.0,0.0,0.0,-5.7,14.3,-48.2,0.64,-1.04,-64.14,24.25,1010.02,654.77,0,0.0,0.0,0.0,0.0,0.0,0.0,0
15924,-0.02,0.01,0.99,0.0,0.0,0.0,-5.7,13.5,-47.9,0.64,-1.04,-64.14,24.25,1010.01,654.79,0,0.0,0.0,0.0,0.0,0.0,0.0,0
15990,-0.02,0.01,0.99,0.0,0.0,0.0,-5.7,13.5,-47.9,0.64,-1.04,-64.14,24.25,1010.01,654.79,0,0.0,0.0,0.0,0.0,0.0,0.0,0
16036,-0.02,0.01,0.99,0.0,0.0,0.0,-5.3,13.7,-48.4,0.64,-1.04,-64.14,24.25,1010.01,654.8,0,0.0,0.0,0.0,0.0,0.0,0.0,0
16125,-0.02,0.01,0.99,0.0,0.0,0.0,-5.3,13.7,-48.4,0.64,-1.04,-64.14,24.25,1010.01,654.8,0,0.0,0.0,0.0,0.0,0.0,0.0,0
16817,-0.02,0.01,0.99,0.0,0.0,0.0,-5.4,13.7,-48.2,0.64,-1.04,-64.15,24.29,1010.0,654.92,0,0.0,0.0,0.0,0.0,0.0,0.0,0
16872,-0.01,0.01,0.99,0.0,0.0,0.0,-5.5,13.6,-48.1,0.64,-1.03,-64.15,24.29,1010.0,654.92,0,0.0,0.0,0.0,0.0,0.0,0.0,0
16926,-0.01,0.01,0.99,0.0,0.0,0.0,-5.5,13.6,-48.1,0.64,-1.03,-64.15,24.28,1010.0,654.89,0,0.0,0.0,0.0,0.0,0.0,0.0,0
16981,0.0,0.0,0.99,0.0,0.0,0.0,-5.5,14.2,-47.5,0.64,-1.04,-64.15,24.28,1010.0,654.88,0,0.0,0.0,0.0,0.0,0.0,0.0,0
17074,0.0,0.0,0.99,0.0,0.0,0.0,-5.5,14.2,-47.5,0.64,-1.04,-64.15,24.28,1010.0,654.91,0,0.0,0.0,0.0,0.0,0.0,0.0,0
17150,0.0,0.0,0.99,0.0,0.0,0.0,-5.5,14.2,-47.5,0.64,-1.04,-64.15,24.29,1010.0,654.91,0,0.0,0.0,0.0,0.0,0.0,0.0,0
17227,-0.01,0.0,0.99,0.0,0.0,0.0,-5.0,13.9,-48.1,0.63,-1.03,-64.15,24.29,1010.0,654.91,0,0.0,0.0,0.0,0.0,0.0,0.0,0
17275,-0.01,0.0,0.99,0.0,0.0,0.0,-5.0,13.9,-48.1,0.63,-1.03,-64.15,24.29,1010.0,654.94,0,0.0,0.0,0.0,0.0,0.0,0.0,0
17332,-0.02,0.01,0.99,0.0,0.0,0.0,-5.2,13.4,-48.3,0.64,-1.04,-64.15,24.29,1009.99,654.97,0,0.0,0.0,0.0,0.0,0.0,0.0,0
17401,-0.02,0.01,0.99,0.0,0.0,0.0,-5.2,13.4,-48.3,0.64,-1.04,-64.15,24.3,1009.99,655.0,0,0.0,0.0,0.0,0.0,0.0,0.0,0
18220,-0.01,0.01,0.99,0.0,0.0,0.0,-5.4,13.7,-48.4,0.64,-1.04,-64.15,24.3,1009.99,654.98,0,0.0,0.0,0.0,0.0,0.0,0.0,0
18281,-0.02,0.01,0.99,0.0,0.0,0.0,-5.5,13.7,-44.0,0.64,-1.04,-64.15,24.3,1009.99,654.98,0,0.0,0.0,0.0,0.0,0.0,0.0,0
18430,-0.01,0.01,0.99,0.0,0.0,0.0,-5.2,130.0,0.0,0.64,-1.04,-64.15,24.28,1010.0,654.9,0,0.0,0.0,0.0,0.0,0.0,0.0,0
18543,-0.01,0.01,0.99,0.0,0.0,0.0,-5.1,13.8,-48.6,0.64,-1.04,-64.15,24.26,1010.01,654.85,0,0.0,0.0,0.0,0.0,0.0,0.0,0
18637,-0.01,0.01,0.99,0.0,0.0,0.0,-5.1,13.8,-48.6,0.64,-1.04,-64.15,24.27,1010.01,654.84,0,0.0,0.0,0.0,0.0,0.0,0.0,0
18702,-0.01,0.01,0.99,0.0,0.0,0.0,-5.2,14.1,-48.4,0.63,-1.04,-64.15,24.27,1010.01,654.84,0,0.0,0.0,0.0,0.0,0.0,0.0,0
18717,-0.01,0.01,0.99,0.0,0.0,0.0,-5.2,14.1,-48.4,0.63,-1.04,-64.15,24.27,1010.01,654.84,0,0.0,0.0,0.0,0.0,0.0,0.0,0
18731,-0.01,0.01,0.99,0.0,0.0,0.0,-5.6,13.9,-48.3,0.64,-1.04,-64.15,24.27,1010.01,654.86,0,0.0,0.0,0.0,0.0,0.0,0.0,0
18802,-0.02,0.0,-0.02,0.0,0.0,0.0,0.0,0.9,-5.6,0.64,-1.04,-64.15,24.27,1010.0,654.88,0,0.0,0.0,0.0,0.0,0.0,0.0,0
18908,-0.02,0.0,-0.02,0.0,0.0,0.0,0.0,0.9,-5.6,0.64,-1.04,-64.15,24.27,1010.0,654.88,0,0.0,0.0,0.0,0.0,0.0,0.0,0
18919,-0.02,0.0,-0.02,0.0,0.0,0.0,0.0,0.9,-5.6,0.64,-1.04,-64.15,24.27,1010.0,654.88,0,0.0,0.0,0.0,0.0,0.0,0.0,0
18947,-0.01,0.01,0.99,0.0,0.0,0.0,-5.7,14.4,-48.3,0.64,-1.04,-64.21,24.28,1010.0,654.87,0,0.0,0.0,0.0,0.0,0.0,0.0,0
19011,-0.01,0.01,0.99,0.0,0.0,0.0,-5.7,14.4,-48.3,0.64,-1.04,-64.21,24.28,1010.0,654.87,0,0.0,0.0,0.0,0.0,0.0,0.0,0
19693,-0.01,0.01,0.99,0.0,0.0,0.0,-5.6,14.2,-48.2,0.64,-1.04,-64.22,24.26,1010.01,654.83,0,0.0,0.0,0.0,0.0,0.0,0.0,0
19755,-0.01,0.01,0.99,0.0,0.0,0.0,-6.2,14.6,-4.0,0.64,-1.04,-64.22,24.26,1010.01,654.81,0,0.0,0.0,0.0,0.0,0.0,0.0,0
19823,-0.01,0.01,0.99,0.0,0.0,0.0,-5.6,14.5,-48.9,0.64,-1.03,-64.22,24.26,1010.01,654.81,0,0.0,0.0,0.0,0.0,0.0,0.0,0
19835,-0.01,0.01,0.99,0.0,0.0,0.0,-5.6,14.5,-48.9,0.64,-1.03,-64.22,24.26,1010.01,654.81,0,0.0,0.0,0.0,0.0,0.0,0.0,0
19857,-0.01,0.01,0.99,0.0,0.0,0.0,-5.9,14.3,-4.0,0.64,-1.04,-64.22,24.26,1010.02,654.78,0,0.0,0.0,0.0,0.0,0.0,0.0,0
19934,-0.01,0.01,0.99,0.0,0.0,0.0,-5.6,14.2,-48.2,0.64,-1.03,-64.22,24.26,1010.02,654.78,0,0.0,0.0,0.0,0.0,0.0,0.0,0
20615,-0.01,0.01,0.99,0.0,0.0,0.0,-5.6,14.3,-47.9,0.64,-1.04,-64.22,24.25,1010.02,654.74,0,0.0,0.0,0.0,0.0,0.0,0.0,0
20748,-0.01,0.01,0.99,0.0,0.0,0.0,-5.6,14.3,-47.9,0.64,-1.04,-64.22,24.25,1010.02,654.78,0,0.0,0.0,0.0,0.0,0.0,0.0,0
22094,-0.01,0.0,0.99,0.0,0.0,0.0,-5.6,14.4,-47.9,0.64,-1.04,-64.22,24.27,1009.99,654.96,0,0.0,0.0,0.0,0.0,0.0,0.0,0
22175,-0.01,0.0,0.99,0.0,0.0,0.0,-5.6,14.4,-47.9,0.64,-1.04,-64.22,24.27,1009.99,654.96,0,0.0,0.0,0.0,0.0,0.0,0.0,0
22763,-0.01,0.01,0.99,0.0,0.0,0.0,-5.3,14.3,-48.7,0.64,-1.03,-64.22,24.27,1010.0,654.92,0,0.0,0.0,0.0,0.0,0.0,0.0,0
22774,-0.01,0.01,0.99,0.0,0.0,0.0,-5.3,14.3,-48.7,0.64,-1.03,-64.22,24.27,1010.0,654.92,0,0.0,0.0,0.0,0.0,0.0,0.0,0
22812,-0.01,0.01,0.99,0.0,0.0,0.0,-5.9,14.6,-48.3,0.64,-1.03,-64.22,24.27,1010.0,654.93,0,0.0,0.0,0.0,0.0,0.0,0.0,0
22896,-0.01,0.01,0.99,0.0,0.0,0.0,-5.9,14.6,-48.3,0.64,-1.03,-64.22,24.27,1010.0,654.93,0,0.0,0.0,0.0,0.0,0.0,0.0,0
22929,-0.01,0.01,0.99,0.0,0.0,0.0,-5.9,14.5,-48.3,0.64,-1.03,-64.22,24.27,1010.0,654.9,0,0.0,0.0,0.0,0.0,0.0,0.0,0
22998,-0.01,0.01,0.99,0.0,0.0,0.0,-5.9,14.5,-48.3,0.64,-1.03,-64.22,24.27,1010.0,654.9,0,0.0,0.0,0.0,0.0,0.0,0.0,0
23009,-0.01,0.01,0.99,0.0,0.0,0.0,-5.9,14.5,-48.3,0.64,-1.03,-64.22,24.27,1010.0,654.9,0,0.0,0.0,0.0,0.0,0.0,0.0,0
23148,-0.01,0.01,0.99,0.0,0.0,0.0,-5.6,14.1,-48.5,0.64,-1.03,-64.22,24.27,1010.0,654.88,0,0.0,0.0,0.0,0.0,0.0,0.0,0
23242,-0.01,0.01,0.99,0.0,0.0,0.0,-5.6,14.1,-48.5,0.64,-1.03,-64.22,24.27,1010.0,654.88,0,0.0,0.0,0.0,0.0,0.0,0.0,0
23874,-0.01,0.01,0.99,0.0,0.0,0.0,-5.5,14.1,-4.0,0.64,-1.04,-64.22,24.25,1010.02,654.72,0,0.0,0.0,0.0,0.0,0.0,0.0,0
23934,-0.01,0.01,0.99,0.0,0.0,0.0,-6.0,14.2,-48.4,0.64,-1.04,-64.22,24.25,1010.02,654.72,0,0.0,0.0,0.0,0.0,0.0,0.0,0
23946,-0.01,0.01,0.0,0.0,0.0,0.0,-1.0,-64.2,0.0,0.64,-1.04,-64.22,24.24,1010.02,654.72,0,0.0,0.0,0.0,0.0,0.0,0.0,0
24013,-0.01,0.01,0.99,0.0,0.0,0.0,-5.9,-5.8,14.2,0.64,-1.04,-64.22,24.24,1010.02,654.72,0,0.0,0.0,0.0,0.0,0.0,0.0,0
24047,-0.01,0.01,0.99,0.0,0.0,0.0,-5.5,14.3,-48.7,0.64,-1.03,-64.22,24.25,1010.02,654.77,0,0.0,0.0,0.0,0.0,0.0,0.0,0
24140,-0.01,0.01,0.92,0.0,0.0,0.0,0.0,0.0,0.0,0.64,-1.03,-64.22,24.25,1010.01,654.81,0,0.0,0.0,0.0,0.0,0.0,0.0,0
24252,-0.01,0.01,0.99,0.0,0.0,0.0,-5.6,14.5,-47.9,0.64,-1.03,-64.22,24.25,1010.02,654.78,0,0.0,0.0,0.0,0.0,0.0,0.0,0
24346,-0.01,0.01,0.99,0.0,0.0,0.0,-5.6,14.5,-47.9,0.64,-1.03,-64.22,24.25,1010.02,654.78,0,0.0,0.0,0.0,0.0,0.0,0.0,0
24363,-0.01,0.01,0.99,0.0,0.0,0.0,-5.3,13.8,-48.2,0.64,-1.03,-64.22,24.25,1010.01,654.79,0,0.0,0.0,0.0,0.0,0.0,0.0,0
24411,-0.01,0.01,0.99,0.0,0.0,0.0,-5.3,13.8,-48.2,0.64,-1.03,-64.22,24.25,1010.01,654.79,0,0.0,0.0,0.0,0.0,0.0,0.0,0
24451,-0.01,0.0,0.99,0.0,0.0,0.0,-5.7,14.4,-48.0,0.64,-1.03,-64.22,24.26,1010.01,654.82,0,0.0,0.0,0.0,0.0,0.0,0.0,0
25249,-0.01,0.01,0.99,0.0,0.0,0.0,-6.0,14.1,-48.7,0.64,-1.04,-64.22,24.28,1010.0,654.93,0,0.0,0.0,0.0,0.0,0.0,0.0,0
25324,-0.01,0.01,0.99,0.0,0.0,0.0,-6.0,14.1,-48.7,0.64,-1.04,-64.22,24.29,1009.99,654.98,0,0.0,0.0,0.0,0.0,0.0,0.0,0
25394,-0.01,0.01,0.99,0.0,0.0,0.0,-6.0,14.1,-48.7,0.64,-1.04,-64.22,24.29,1009.99,654.98,0,0.0,0.0,0.0,0.0,0.0,0.0,0
25448,-0.01,0.01,0.99,0.0,0.0,0.0,-5.9,13.9,-48.2,0.64,-1.04,-64.22,24.28,1010.0,654.93,0,0.0,0.0,0.0,0.0,0.0,0.0,0
25528,-0.01,0.01,0.99,0.0,0.0,0.0,-5.9,13.9,-48.2,0.64,-1.04,-64.22,24.28,1010.0,654.93,0,0.0,0.0,0.0,0.0,0.0,0.0,0
25590,-0.01,0.01,0.99,0.0,0.0,0.0,-5.9,13.9,-48.2,0.64,-1.04,-64.22,24.27,1010.01,654.87,0,0.0,0.0,0.0,0.0,0.0,0.0,0
25612,-0.01,0.01,0.99,0.0,0.0,0.0,-5.6,14.4,-48.4,0.64,-1.04,-64.22,24.27,1010.0,654.9,0,0.0,0.0,0.0,0.0,0.0,0.0,0
25693,-0.01,0.01,0.99,0.0,0.0,0.0,-5.6,14.4,-48.4,0.64,-1.04,-64.22,24.27,1010.0,654.9,0,0.0,0.0,0.0,0.0,0.0,0.0,0
26339,-0.01,0.01,0.99,0.0,0.0,0.0,-6.1,14.5,-48.3,0.64,-1.03,-64.22,24.25,1010.01,654.84,0,0.0,0.0,0.0,0.0,0.0,0.0,0
27126,-0.01,0.01,0.99,0.0,0.0,0.0,-5.4,14.1,-48.4,0.64,-1.03,-64.22,24.27,1010.01,654.86,0,0.0,0.0,0.0,0.0,0.0,0.0,0
27206,-0.01,0.01,0.99,0.0,0.0,0.0,-5.4,14.1,-48.4,0.64,-1.03,-64.22,24.27,1010.01,654.86,0,0.0,0.0,0.0,0.0,0.0,0.0,0
27254,-0.01,0.01,0.99,0.0,0.0,0.0,-5.4,14.1,-48.4,0.64,-1.03,-64.22,24.27,1010.01,654.82,0,0.0,0.0,0.0,0.0,0.0,0.0,0
27344,-0.01,0.01,0.99,0.0,0.0,0.0,-5.7,14.7,-48.8,0.64,-1.03,-64.22,24.26,1010.01,654.84,0,0.0,0.0,0.0,0.0,0.0,0.0,0
27424,-0.01,0.01,0.0,0.0,0.0,0.0,0.0,0.0,0.9,0.64,-1.03,-64.22,24.26,1010.01,654.85,0,0.0,0.0,0.0,0.0,0.0,0.0,0
27507,-0.01,0.01,0.0,0.0,0.0,0.0,0.0,0.0,0.9,0.64,-1.03,-64.22,24.26,1010.01,654.85,0,0.0,0.0,0.0,0.0,0.0,0.0,0
27536,-0.01,0.01,0.99,0.0,0.0,0.0,-5.9,14.4,-48.3,0.64,-1.03,-64.23,24.26,1010.01,654.85,0,0.0,0.0,0.0,0.0,0.0,0.0,0
27571,-0.01,0.01,0.99,0.0,0.0,0.0,-5.9,14.4,-48.3,0.64,-1.03,-64.23,24.27,1010.01,654.86,0,0.0,0.0,0.0,0.0,0.0,0.0,0
27631,-0.01,0.01,0.99,0.0,0.0,0.0,-6.1,14.2,-48.3,0.64,-1.03,-64.23,24.27,1010.01,654.86,0,0.0,0.0,0.0,0.0,0.0,0.0,0
27712,-0.01,0.01,0.99,0.0,0.0,0.0,-6.1,14.2,-48.3,0.64,-1.03,-64.23,24.27,1010.0,654.89,0,0.0,0.0,0.0,0.0,0.0,0.0,0
27788,-0.01,0.01,0.99,0.0,0.0,0.0,-6.1,14.2,-48.3,0.64,-1.03,-64.23,24.27,1010.0,654.89,0,0.0,0.0,0.0,0.0,0.0,0.0,0
29248,-0.01,0.01,0.99,0.0,0.0,0.0,-5.2,13.9,-48.8,0.64,-1.02,-64.23,24.27,1010.0,654.9,0,0.0,0.0,0.0,0.0,0.0,0.0,0
29337,-0.01,0.01,0.99,0.0,0.0,0.0,-5.2,13.9,-48.8,0.64,-1.02,-64.23,24.28,1010.0,654.93,0,0.0,0.0,0.0,0.0,0.0,0.0,0
29414,-0.01,0.01,0.99,0.0,0.0,0.0,-5.9,14.3,-48.3,0.64,-1.02,-64.23,24.28,1010.0,654.94,0,0.0,0.0,0.0,0.0,0.0,0.0,0
29493,-0.01,0.01,0.99,0.0,0.0,0.0,-5.9,14.3,-48.3,0.64,-1.02,-64.23,24.28,1010.0,654.94,0,0.0,0.0,0.0,0.0,0.0,0.0,0
29533,-0.01,0.01,0.99,0.0,0.0,0.0,-5.9,14.3,-48.3,0.64,-1.02,-64.23,24.28,1010.0,654.94,0,0.0,0.0,0.0,0.0,0.0,0.0,0
29551,-0.01,0.01,0.99,0.0,0.0,0.0,-5.7,14.3,-48.3,0.64,-1.02,-64.23,24.29,1009.99,654.98,0,0.0,0.0,0.0,0.0,0.0,0.0,0
30260,-0.01,0.01,0.99,0.0,0.0,0.0,-6.0,14.4,-48.5,0.64,-1.03,-64.23,24.28,1009.99,654.97,0,0.0,0.0,0.0,0.0,0.0,0.0,0
30352,-0.01,0.01,0.99,0.0,0.0,0.0,-6.0,14.4,-48.5,0.64,-1.03,-64.23,24.28,1009.99,654.97,0,0.0,0.0,0.0,0.0,0.0,0.0,0
30428,-0.01,0.01,0.99,0.0,0.0,0.0,-6.0,14.4,-48.0,0.64,-1.03,-64.23,24.28,1009.99,654.96,0,0.0,0.0,0.0,0.0,0.0,0.0,0
30503,-0.01,0.01,0.99,0.0,0.0,0.0,-6.0,14.4,-48.0,0.64,-1.03,-64.23,24.28,1009.99,654.96,0,0.0,0.0,0.0,0.0,0.0,0.0,0
30554,-0.01,0.01,0.99,0.0,0.0,0.0,-6.0,14.4,-48.0,0.64,-1.03,-64.23,24.28,1009.99,655.02,0,0.0,0.0,0.0,0.0,0.0,0.0,0
30589,-0.01,0.01,0.99,0.0,0.0,0.0,-6.0,14.4,-48.0,0.64,-1.03,-64.23,24.28,1009.99,655.02,0,0.0,0.0,0.0,0.0,0.0,0.0,0
30606,-0.01,0.01,0.99,0.0,0.0,0.0,-5.7,14.6,-48.2,0.64,-1.03,-64.23,24.29,1009.98,655.06,0,0.0,0.0,0.0,0.0,0.0,0.0,0
30669,-0.01,0.01,0.99,0.0,0.0,0.0,-5.7,14.6,-48.2,0.64,-1.03,-64.23,24.29,1009.98,655.06,0,0.0,0.0,0.0,0.0,0.0,0.0,0
31432,-0.01,0.01,0.99,0.0,0.0,0.0,-5.8,14.3,-48.7,0.64,-1.03,-64.23,24.26,1010.01,654.86,0,0.0,0.0,0.0,0.0,0.0,0.0,0
31493,-0.01,0.01,0.99,0.0,0.0,0.0,-5.8,14.3,-48.7,0.64,-1.03,-64.23,24.25,1010.01,654.82,0,0.0,0.0,0.0,0.0,0.0,0.0,0
31537,-0.01,0.01,0.99,0.0,0.0,0.0,-5.8,14.3,-48.7,0.64,-1.03,-64.23,24.25,1010.01,654.82,0,0.0,0.0,0.0,0.0,0.0,0.0,0
31578,-0.01,0.01,0.99,0.0,0.0,0.0,-6.1,13.9,-48.5,0.64,-1.03,-64.23,24.24,1010.01,654.8,0,0.0,0.0,0.0,0.0,0.0,0.0,0
32767,-0.01,0.01,0.99,0.0,0.0,0.0,-5.6,14.6,-48.2,0.64,-1.03,-64.23,24.27,1010.0,654.94,0,0.0,0.0,0.0,0.0,0.0,0.0,0
32773,-0.01,0.01,0.99,0.0,0.0,0.0,-5.9,14.3,-48.4,0.64,-1.03,-64.23,24.26,1010.0,654.87,0,0.0,0.0,0.0,0.0,0.0,0.0,0
32845,-0.01,0.01,0.99,0.0,0.0,0.0,-5.9,14.3,-48.4,0.64,-1.03,-64.23,24.26,1010.01,654.85,0,0.0,0.0,0.0,0.0,0.0,0.0,0
32911,-0.01,0.01,0.99,0.0,0.0,0.0,-5.6,14.2,-43.0,0.64,-1.03,-64.23,24.26,1010.01,654.85,0,0.0,0.0,0.0,0.0,0.0,0.0,0
32949,-0.01,0.0,0.99,0.0,0.0,0.0,-5.7,14.1,-48.5,0.64,-1.03,-64.23,24.26,1010.01,654.85,0,0.0,0.0,0.0,0.0,0.0,0.0,0
32956,-0.01,0.0,0.99,0.0,0.0,0.0,-5.7,14.1,-48.5,0.64,-1.03,-64.23,24.26,1010.01,654.85,0,0.0,0.0,0.0,0.0,0.0,0.0,0
33086,-0.01,0.01,0.99,0.0,0.0,0.0,-5.7,14.4,-48.3,0.64,-1.03,-64.23,24.27,1010.0,654.89,0,0.0,0.0,0.0,0.0,0.0,0.0,0
33179,-0.01,0.01,0.99,0.0,0.0,0.0,-5.7,14.4,-48.3,0.64,-1.03,-64.23,24.25,1010.01,654.79,0,0.0,0.0,0.0,0.0,0.0,0.0,0
33255,-0.01,0.01,0.99,0.0,0.0,0.0,-5.5,14.3,-48.3,0.64,-1.03,-64.23,24.25,1010.01,654.79,0,0.0,0.0,0.0,0.0,0.0,0.0,0
33278,-0.01,0.01,0.99,0.0,0.0,0.0,-5.6,14.4,-48.4,0.64,-1.04,-64.23,24.25,1010.02,654.78,0,0.0,0.0,0.0,0.0,0.0,0.0,0
33371,-0.01,0.01,0.99,0.0,0.0,0.0,-5.6,14.4,-48.4,0.64,-1.04,-64.23,24.25,1010.02,654.78,0,0.0,0.0,0.0,0.0,0.0,0.0,0
33385,-0.01,0.01,0.99,0.0,0.0,0.0,-4.8,14.4,-48.4,0.63,-1.03,-64.23,24.25,1010.02,654.78,0,0.0,0.0,0.0,0.0,0.0,0.0,0
33459,-0.01,0.01,0.99,0.0,0.0,0.0,-4.8,14.4,-48.4,0.63,-1.03,-64.23,24.25,1010.02,654.78,0,0.0,0.0,0.0,0.0,0.0,0.0,0
34222,-0.01,0.01,0.99,0.0,0.0,0.0,-5.7,14.3,-48.7,0.64,-1.04,-64.23,24.26,1010.02,654.77,0,0.0,0.0,0.0,0.0,0.0,0.0,0
34303,-0.01,0.01,0.99,0.0,0.0,0.0,-5.7,14.3,-48.7,0.64,-1.04,-64.23,24.26,1010.02,654.77,0,0.0,0.0,0.0,0.0,0.0,0.0,0
34322,-0.01,0.01,0.99,0.0,0.0,0.0,-5.7,14.3,-48.3,0.64,-1.04,-64.23,24.27,1010.01,654.8,0,0.0,0.0,0.0,0.0,0.0,0.0,0
34403,-0.01,0.01,0.99,0.0,0.0,0.0,-5.7,14.3,-48.3,0.64,-1.04,-64.23,24.27,1010.01,654.8,0,0.0,0.0,0.0,0.0,0.0,0.0,0
34426,-0.01,0.01,0.99,0.0,0.0,0.0,-5.9,14.3,-48.4,0.63,-1.03,-64.23,24.27,1010.01,654.85,0,0.0,0.0,0.0,0.0,0.0,0.0,0
35148,-0.01,0.01,0.99,0.0,0.0,0.0,-5.8,14.2,-48.8,0.64,-1.03,-64.23,24.27,1010.01,654.83,0,0.0,0.0,0.0,0.0,0.0,0.0,0
35201,-0.01,0.01,0.99,0.0,0.0,0.0,-5.8,14.2,-48.8,0.64,-1.03,-64.23,24.27,1010.01,654.83,0,0.0,0.0,0.0,0.0,0.0,0.0,0
35240,-0.01,0.01,0.99,0.0,0.0,0.0,-5.8,14.2,-48.8,0.64,-1.03,-64.23,24.27,1010.01,654.83,0,0.0,0.0,0.0,0.0,0.0,0.0,0
35258,-0.02,0.01,0.99,0.0,0.0,0.0,-5.6,14.5,-48.4,0.64,-1.03,-64.23,24.27,1010.01,654.84,0,0.0,0.0,0.0,0.0,0.0,0.0,0
35351,-0.02,0.01,0.99,0.0,0.0,0.0,-5.6,14.5,-48.4,0.64,-1.03,-64.23,24.27,1010.01,654.84,0,0.0,0.0,0.0,0.0,0.0,0.0,0
35357,-0.01,0.01,0.99,0.0,0.0,0.0,-5.6,14.6,-48.5,0.64,-1.03,-64.23,24.27,1010.01,654.84,0,0.0,0.0,0.0,0.0,0.0,0.0,0
35438,-0.01,0.01,0.99,0.0,0.0,0.0,-5.6,14.6,-48.5,0.64,-1.03,-64.23,24.27,1010.01,654.84,0,0.0,0.0,0.0,0.0,0.0,0.0,0
35452,-0.02,0.01,0.99,0.0,0.0,0.0,-5.4,14.4,-48.0,0.64,-1.03,-64.23,24.27,1010.01,654.84,0,0.0,0.0,0.0,0.0,0.0,0.0,0
36274,-0.05,-0.04,0.93,-0.86,-1.23,-29.25,-5.3,12.9,-49.3,0.75,-1.01,-64.67,24.26,1010.02,654.77,0,0.0,0.0,0.0,0.0,0.0,0.0,0
36372,-0.05,-0.04,0.93,-0.86,-1.23,-29.25,-5.3,12.9,-49.3,0.75,-1.01,-64.67,24.24,1010.03,654.7,0,0.0,0.0,0.0,0.0,0.0,0.0,0
36441,-0.01,0.04,1.11,-4.71,-5.17,-4.39,-6.4,12.1,-49.7,0.04,0.46,-61.94,24.24,1010.03,654.68,0,0.0,0.0,0.0,0.0,0.0,0.0,0
36524,-0.01,-0.01,1.09,-14.84,-2.93,-5.87,-6.7,12.0,-49.3,-0.06,0.49,-61.9,24.24,1010.03,654.68,0,0.0,0.0,0.0,0.0,0.0,0.0,0
36549,-0.01,-0.01,1.09,-14.84,-2.93,-5.87,-6.7,12.0,-49.3,-0.06,0.49,-61.9,24.24,1010.03,654.68,0,0.0,0.0,0.0,0.0,0.0,0.0,0
36576,0.02,-0.06,0.87,-14.6,-1.96,-2.99,-7.9,13.4,-48.4,-2.34,1.16,-60.48,24.24,1010.02,654.73,0,0.0,0.0,0.0,0.0,0.0,0.0,0
36623,0.02,-0.06,0.87,-14.6,-1.96,-2.99,-7.9,13.4,-48.4,-2.34,1.16,-60.48,24.24,1010.02,654.73,0,0.0,0.0,0.0,0.0,0.0,0.0,0
36643,0.03,0.0,0.99,-14.9,-4.09,-4.89,-8.0,13.3,-47.9,-3.02,1.32,-60.09,24.25,1010.02,654.76,0,0.0,0.0,0.0,0.0,0.0,0.0,0
36722,0.03,0.0,0.99,-14.9,-4.09,-4.89,-8.0,13.3,-47.9,-3.02,1.32,-60.09,24.25,1010.02,654.76,0,0.0,0.0,0.0,0.0,0.0,0.0,0
36788,0.05,-0.09,1.02,-3.86,-4.01,-19.86,-9.0,13.4,-47.1,-4.44,1.81,-58.49,24.25,1010.01,654.79,0,0.0,0.0,0.0,0.0,0.0,0.0,0
36843,0.05,-0.09,1.02,-3.86,-4.01,-19.86,-9.0,13.4,-47.1,-4.44,1.81,-58.49,24.26,1010.01,654.81,0,0.0,0.0,0.0,0.0,0.0,0.0,0
36903,0.0,-0.11,0.92,3.54,4.96,-39.0,-9.7,12.4,-47.6,-4.23,1.78,-56.57,24.26,1010.01,654.81,0,0.0,0.0,0.0,0.0,0.0,0.0,0
36938,0.06,-0.04,0.95,10.48,5.58,-33.52,-11.5,10.1,-48.9,-3.11,1.3,-53.11,24.26,1010.01,654.81,0,0.0,0.0,0.0,0.0,0.0,0.0,0
37698,0.0,0.0,0.99,0.0,0.0,0.0,-14.7,3.3,-53.6,0.34,0.1,-44.33,24.25,1010.02,654.73,0,0.0,0.0,0.0,0.0,0.0,0.0,0
37719,0.0,0.0,0.99,0.0,0.0,0.0,-14.8,3.1,-53.3,0.32,0.1,-44.33,24.25,1010.02,654.74,0,0.0,0.0,0.0,0.0,0.0,0.0,0
37783,0.0,0.0,0.99,0.0,0.0,0.0,-14.8,3.1,-53.3,0.32,0.1,-44.33,24.25,1010.02,654.74,0,0.0,0.0,0.0,0.0,0.0,0.0,0
37826,0.0,0.0,0.99,0.0,0.0,0.0,-14.8,3.2,-53.6,0.31,0.09,-44.33,24.26,1010.02,654.75,0,0.0,0.0,0.0,0.0,0.0,0.0,0
37904,0.0,0.0,0.99,0.0,0.0,0.0,-14.8,3.2,-53.6,0.31,0.09,-44.33,24.26,1010.02,654.75,0,0.0,0.0,0.0,0.0,0.0,0.0,0
37931,0.0,0.0,0.99,0.0,0.0,0.0,-14.8,3.2,-53.6,0.31,0.09,-44.33,24.26,1010.02,654.75,0,0.0,0.0,0.0,0.0,0.0,0.0,0
37952,0.0,0.0,0.99,-0.22,0.22,0.34,-14.7,3.1,-53.3,0.3,0.09,-44.33,24.26,1010.02,654.74,0,0.0,0.0,0.0,0.0,0.0,0.0,0
38628,0.0,0.01,0.99,1.46,-1.26,41.99,-3.9,15.0,-48.6,0.94,0.56,-66.11,24.28,1010.01,654.82,0,0.0,0.0,0.0,0.0,0.0,0.0,0
38692,0.0,0.01,0.99,1.46,-1.26,41.99,-3.9,15.0,-48.6,0.94,0.56,-66.11,24.28,1010.01,654.82,0,0.0,0.0,0.0,0.0,0.0,0.0,0
38730,-0.03,-0.1,1.03,-11.46,4.96,27.72,-2.5,15.5,-48.9,1.16,0.76,-68.62,24.28,1010.01,654.85,0,0.0,0.0,0.0,0.0,0.0,0.0,0
38826,-0.03,-0.1,1.03,-11.46,4.96,27.72,-2.5,15.5,-48.9,1.16,0.76,-68.62,24.28,1010.01,654.85,0,0.0,0.0,0.0,0.0,0.0,0.0,0
38836,0.01,0.0,1.01,0.2,-0.45,12.82,-0.9,16.4,-48.9,0.99,0.66,-70.93,24.28,1010.01,654.81,0,0.0,0.0,0.0,0.0,0.0,0.0,0
39593,0.01,0.01,1.0,-0.09,-0.01,-3.63,0.0,16.5,-48.2,0.78,0.57,-71.36,24.29,1010.0,654.89,0,0.0,0.0,0.0,0.0,0.0,0.0,0
40996,0.0,0.0,0.98,0.27,-0.33,0.04,-14.3,4.2,-5.0,0.32,0.07,-45.11,24.29,1010.0,654.87,0,0.0,0.0,0.0,0.0,0.0,0.0,0
41082,0.0,0.0,0.99,0.39,0.04,0.16,-14.4,4.0,-53.6,0.35,0.06,-45.12,24.28,1010.0,654.87,0,0.0,0.0,0.0,0.0,0.0,0.0,0
41161,0.0,0.0,0.99,0.39,0.04,0.16,-14.4,4.0,-53.6,0.35,0.06,-45.12,24.28,1010.0,654.87,0,0.0,0.0,0.0,0.0,0.0,0.0,0
42501,0.11,0.08,0.91,-41.67,18.61,-4.28,-12.2,9.9,-48.6,-0.68,3.3,-54.12,24.29,1010.01,654.79,0,0.0,0.0,0.0,0.0,0.0,0.0,0
42574,0.11,0.08,0.91,-41.67,18.61,-4.28,-12.2,9.9,-48.6,-0.68,3.3,-54.12,24.29,1010.01,654.79,0,0.0,0.0,0.0,0.0,0.0,0.0,0
42589,0.06,-0.06,0.99,38.68,-15.93,-1.59,-12.1,9.2,-48.2,0.14,3.86,-53.91,24.28,1010.02,654.78,0,0.0,0.0,0.0,0.0,0.0,0.0,0
42673,0.06,-0.06,0.99,38.68,-15.93,-1.59,-12.1,9.2,-48.2,0.14,3.86,-53.91,24.28,1010.02,654.78,0,0.0,0.0,0.0,0.0,0.0,0.0,0
42738,0.08,0.0,1.0,-13.45,3.01,3.74,-11.7,9.9,-47.4,-2.21,1.85,-53.34,24.28,1010.02,654.76,0,0.0,0.0,0.0,0.0,0.0,0.0,0
42833,0.08,0.0,1.0,-13.45,3.01,3.74,-11.7,9.9,-47.4,-2.21,1.85,-53.34,24.28,1010.02,654.76,0,0.0,0.0,0.0,0.0,0.0,0.0,0
42850,0.08,0.0,0.95,-0.23,0.07,19.54,-10.9,10.6,-46.3,-2.71,1.89,-54.63,24.27,1010.03,654.69,0,0.0,0.0,0.0,0.0,0.0,0.0,0
43708,-0.09,-0.16,0.89,17.76,6.81,12.81,2.0,18.1,-40.9,-12.97,-5.53,-69.51,24.27,1010.03,654.7,0,0.0,0.0,0.0,0.0,0.0,0.0,0
43770,-0.09,-0.16,0.89,17.76,6.81,12.81,2.0,18.1,-40.9,-12.97,-5.53,-69.51,24.27,1010.02,654.7,0,0.0,0.0,0.0,0.0,0.0,0.0,0
43797,-0.14,-0.13,1.0,-6.07,-4.37,7.46,3.6,16.9,-42.9,-9.5,-6.7,-71.62,24.28,1010.02,654.73,0,0.0,0.0,0.0,0.0,0.0,0.0,0
43881,-0.14,-0.13,1.0,-6.07,-4.37,7.46,3.6,16.9,-42.9,-9.5,-6.7,-71.62,24.28,1010.02,654.73,0,0.0,0.0,0.0,0.0,0.0,0.0,0
43890,-0.14,-0.13,1.0,-6.07,-4.37,7.46,3.6,16.9,-42.9,-9.5,-6.7,-71.62,24.28,1010.02,654.73,0,0.0,0.0,0.0,0.0,0.0,0.0,0
0,-0.21,-0.02,0.99,-1.01,5.17,-0.4,8.9,13.9,-47.1,0.51,-13.64,-81.95,24.35,1009.98,0.0,0,0.0,0.0,0.0,0.0,0.0,0.0,0
43,-0.2,-0.01,0.99,1.49,6.43,1.76,9.1,14.2,-46.9,0.49,-13.68,-81.94,24.35,1009.98,0.0,0,0.0,0.0,0.0,0.0,0.0,0.0,0
101,-0.19,0.0,0.98,-0.46,7.17,3.95,8.7,13.9,-47.0,0.5,-13.72,-81.96,24.29,1010.01,655.08,0,0.0,0.0,0.0,0.0,0.0,0.0,0
178,-0.19,-0.01,0.96,-1.93,6.74,5.83,9.2,14.1,-47.0,0.49,-13.77,-81.99,24.26,1010.02,655.01,0,0.0,0.0,0.0,0.0,0.0,0.0,0
251,-0.19,-0.01,0.96,-1.93,6.74,5.83,9.2,14.1,-47.0,0.49,-13.77,-81.99,24.26,1010.02,655.01,0,0.0,0.0,0.0,0.0,0.0,0.0,0
292,-0.01,0.01,0.99,0.0,0.0,0.0,11.3,17.3,-44.0,0.52,-0.64,-98.49,24.25,1010.03,654.98,0,0.0,0.0,0.0,0.0,0.0,0.0,0
1649,-0.01,0.01,0.99,0.0,0.0,0.0,11.6,17.3,-44.3,0.52,-0.65,-98.49,24.26,1010.03,654.98,0,0.0,0.0,0.0,0.0,0.0,0.0,0
1672,-0.01,0.01,0.99,0.0,0.0,0.0,11.6,17.3,-44.3,0.52,-0.65,-98.49,24.26,1010.03,654.98,0,0.0,0.0,0.0,0.0,0.0,0.0,0
1709,-0.01,0.01,0.99,0.0,0.0,0.0,11.9,17.3,-44.4,0.52,-0.64,-98.49,24.26,1010.03,654.93,0,0.0,0.0,0.0,0.0,0.0,0.0,0
2388,-0.01,0.01,0.99,0.0,0.0,0.0,11.9,17.2,-44.3,0.52,-0.64,-98.49,24.27,1010.03,654.99,0,0.0,0.0,0.0,0.0,0.0,0.0,0
2469,-0.01,0.01,0.99,0.0,0.0,0.0,11.9,17.2,-44.3,0.52,-0.64,-98.49,24.27,1010.03,654.99,0,0.0,0.0,0.0,0.0,0.0,0.0,0
2520,-0.01,0.01,0.99,0.0,0.0,0.0,11.9,17.2,-44.3,0.52,-0.64,-98.49,24.27,1010.02,655.0,0,0.0,0.0,0.0,0.0,0.0,0.0,0
2563,-0.01,0.0,0.99,0.0,0.0,0.0,12.4,17.1,-44.4,0.52,-0.64,-98.49,24.27,1010.02,655.0,0,0.0,0.0,0.0,0.0,0.0,0.0,0
3300,-0.01,0.01,0.99,0.0,0.0,0.0,11.8,17.2,-44.4,0.54,-0.64,-98.49,24.29,1010.02,655.07,0,0.0,0.0,0.0,0.0,0.0,0.0,0
3974,-0.01,0.01,0.99,0.0,0.0,0.0,11.7,17.3,-44.4,0.54,-0.64,-98.49,24.26,1010.03,654.92,0,0.0,0.0,0.0,0.0,0.0,0.0,0
4067,-0.01,0.01,0.99,0.0,0.0,0.0,11.7,17.3,-44.4,0.54,-0.64,-98.49,24.26,1010.03,654.92,0,0.0,0.0,0.0,0.0,0.0,0.0,0
4078,-0.01,0.01,0.99,0.0,0.0,0.0,11.7,17.3,-44.4,0.54,-0.64,-98.49,24.26,1010.03,654.92,0,0.0,0.0,0.0,0.0,0.0,0.0,0
4111,-0.01,0.0,0.99,0.0,0.0,0.0,11.3,17.3,-44.8,0.54,-0.64,-98.49,24.26,1010.03,654.92,0,0.0,0.0,0.0,0.0,0.0,0.0,0
4193,-0.01,0.0,0.99,0.0,0.0,0.0,11.3,17.3,-44.8,0.54,-0.64,-98.49,24.26,1010.03,654.92,0,0.0,0.0,0.0,0.0,0.0,0.0,0
4242,-0.01,0.0,0.99,0.0,0.0,0.0,11.5,17.5,-44.7,0.54,-0.64,-98.49,24.25,1010.04,654.91,0,0.0,0.0,0.0,0.0,0.0,0.0,0
4336,-0.01,0.0,0.99,0.0,0.0,0.0,11.5,17.5,-44.7,0.54,-0.64,-98.49,24.25,1010.04,654.91,0,0.0,0.0,0.0,0.0,0.0,0.0,0
4347,-0.01,0.0,0.99,0.0,0.0,0.0,11.5,17.5,-44.7,0.54,-0.64,-98.49,24.25,1010.04,654.91,0,0.0,0.0,0.0,0.0,0.0,0.0,0
5139,-0.01,0.01,0.99,0.0,0.0,0.0,11.7,17.2,-44.3,0.54,-0.64,-98.49,24.27,1010.03,654.95,0,0.0,0.0,0.0,0.0,0.0,0.0,0
5205,-0.01,0.01,0.99,0.0,0.0,0.0,11.7,17.2,-44.3,0.54,-0.64,-98.49,24.27,1010.03,654.95,0,0.0,0.0,0.0,0.0,0.0,0.0,0
5810,-0.01,0.0,0.99,0.0,0.0,0.0,11.9,17.2,-44.0,0.54,-0.64,-98.49,24.26,1010.03,654.92,0,0.0,0.0,0.0,0.0,0.0,0.0,0
5847,-0.01,0.0,0.99,0.0,0.0,0.0,11.9,17.2,-44.0,0.54,-0.64,-98.49,24.26,1010.03,654.92,0,0.0,0.0,0.0,0.0,0.0,0.0,0
5875,-0.01,0.0,0.99,0.0,0.0,0.0,11.7,17.3,-44.4,0.54,-0.64,-98.49,24.27,1010.04,654.91,0,0.0,0.0,0.0,0.0,0.0,0.0,0
5956,-0.01,0.0,0.99,0.0,0.0,0.0,11.7,17.3,-44.4,0.54,-0.64,-98.49,24.27,1010.04,654.91,0,0.0,0.0,0.0,0.0,0.0,0.0,0
6018,-0.01,0.01,0.99,0.0,0.0,0.0,11.2,17.2,2548.6,0.54,-0.64,-98.49,24.27,1010.04,654.9,0,0.0,0.0,0.0,0.0,0.0,0.0,0
6081,0.01,-0.02,0.98,0.2,-0.39,-10.91,10.9,17.6,-44.7,0.52,-0.52,-97.57,24.27,1010.04,654.9,0,0.0,0.0,0.0,0.0,0.0,0.0,0
6122,0.01,-0.02,0.98,0.2,-0.39,-10.91,10.9,17.6,-44.7,0.52,-0.52,-97.57,24.27,1010.04,654.9,0,0.0,0.0,0.0,0.0,0.0,0.0,0
6130,0.0,0.0,1.03,-0.17,0.71,-10.24,11.2,17.5,-44.2,0.47,-0.51,-96.75,24.26,1010.04,654.9,0,0.0,0.0,0.0,0.0,0.0,0.0,0
6155,-0.01,0.01,0.99,0.0,0.0,0.0,11.0,17.5,-44.6,0.52,-0.65,-96.3,24.26,1010.04,654.9,0,0.0,0.0,0.0,0.0,0.0,0.0,0
6198,-0.01,0.01,0.99,0.0,0.0,0.0,11.0,17.5,-44.6,0.52,-0.65,-96.3,24.27,1010.04,654.91,0,0.0,0.0,0.0,0.0,0.0,0.0,0
7018,-0.01,0.01,0.99,0.0,0.0,0.0,10.8,17.7,-45.0,0.54,-0.64,-96.3,24.29,1010.02,655.01,0,0.0,0.0,0.0,0.0,0.0,0.0,0
7135,-0.01,0.01,0.99,0.0,0.0,0.0,10.8,17.7,-45.0,0.54,-0.64,-96.3,24.29,1010.02,655.01,0,0.0,0.0,0.0,0.0,0.0,0.0,0
7185,-0.01,0.01,0.99,0.0,0.0,0.0,10.5,17.8,-44.1,0.54,-0.64,-96.3,24.28,1010.03,654.95,0,0.0,0.0,0.0,0.0,0.0,0.0,0
7265,-0.01,0.01,0.99,0.0,0.0,0.0,10.5,17.8,-44.1,0.54,-0.64,-96.3,24.28,1010.03,654.95,0,0.0,0.0,0.0,0.0,0.0,0.0,0
7272,-0.01,0.0,0.99,0.0,0.0,0.0,10.5,17.7,-44.2,0.54,-0.64,-96.3,24.27,1010.04,654.88,0,0.0,0.0,0.0,0.0,0.0,0.0,0
7364,-0.01,0.0,0.99,0.0,0.0,0.0,10.5,17.7,-44.2,0.54,-0.64,-96.3,24.27,1010.04,654.88,0,0.0,0.0,0.0,0.0,0.0,0.0,0
8151,0.0,0.01,0.99,0.0,0.0,0.0,10.6,17.8,-44.3,0.54,-0.64,-96.3,24.26,1010.04,654.86,0,0.0,0.0,0.0,0.0,0.0,0.0,0
8230,0.0,0.01,0.99,0.0,0.0,0.0,10.6,17.8,-44.3,0.54,-0.64,-96.3,24.26,1010.04,654.86,0,0.0,0.0,0.0,0.0,0.0,0.0,0
8265,0.0,0.01,0.99,0.0,0.0,0.0,10.6,17.9,-43.8,0.54,-0.64,-96.3,24.26,1010.04,654.86,0,0.0,0.0,0.0,0.0,0.0,0.0,0
8359,0.0,0.01,0.99,0.0,0.0,0.0,10.6,17.9,-43.8,0.54,-0.64,-96.3,24.26,1010.04,654.86,0,0.0,0.0,0.0,0.0,0.0,0.0,0
8380,-0.01,0.0,0.99,0.0,0.0,0.0,10.5,17.8,-44.5,0.54,-0.65,-96.3,24.26,1010.04,654.86,0,0.0,0.0,0.0,0.0,0.0,0.0,0
8388,-0.01,0.0,0.99,0.0,0.0,0.0,10.5,17.8,-44.5,0.54,-0.65,-96.3,24.26,1010.04,654.86,0,0.0,0.0,0.0,0.0,0.0,0.0,0
8517,-0.01,0.01,0.99,0.0,0.0,0.0,10.7,17.8,-44.5,0.54,-0.64,-96.3,24.26,1010.04,654.88,0,0.0,0.0,0.0,0.0,0.0,0.0,0
8609,-0.01,0.01,0.99,0.0,0.0,0.0,10.5,0.0,0.0,0.54,-0.64,-96.3,24.26,1010.04,654.88,0,0.0,0.0,0.0,0.0,0.0,0.0,0
8642,-0.01,0.0,0.99,0.0,0.0,0.0,10.2,17.7,-44.8,0.54,-0.64,-96.3,24.24,1010.05,654.76,0,0.0,0.0,0.0,0.0,0.0,0.0,0
8686,-0.01,0.0,0.99,0.0,0.0,0.0,10.6,17.8,-44.0,0.54,-0.64,-96.3,24.24,1010.05,654.75,0,0.0,0.0,0.0,0.0,0.0,0.0,0
9497,-0.01,0.01,0.99,0.0,0.0,0.0,10.6,18.1,-44.1,0.55,-0.64,-96.3,24.26,1010.04,654.84,0,0.0,0.0,0.0,0.0,0.0,0.0,0
9511,-0.01,0.01,0.99,0.0,0.0,0.0,10.6,17.9,-44.3,0.55,-0.64,-96.3,24.26,1010.05,654.81,0,0.0,0.0,0.0,0.0,0.0,0.0,0
9605,-0.01,0.01,0.99,0.0,0.0,0.0,10.6,17.9,-44.3,0.55,-0.64,-96.3,24.26,1010.05,654.79,0,0.0,0.0,0.0,0.0,0.0,0.0,0
9671,-0.01,0.0,0.99,0.0,0.0,0.0,10.7,17.7,-417.9,0.55,-0.64,-96.3,24.26,1010.05,654.79,0,0.0,0.0,0.0,0.0,0.0,0.0,0
10300,-0.01,0.0,0.99,0.0,0.0,0.0,10.7,17.8,-44.0,0.55,-0.64,-96.3,24.27,1010.03,654.94,0,0.0,0.0,0.0,0.0,0.0,0.0,0
10377,-0.01,0.0,0.99,0.0,0.0,0.0,10.7,17.8,-44.0,0.55,-0.64,-96.3,24.27,1010.03,654.94,0,0.0,0.0,0.0,0.0,0.0,0.0,0
10437,-0.01,0.0,0.99,0.0,0.0,0.0,10.7,17.8,-44.0,0.55,-0.64,-96.3,24.27,1010.04,654.89,0,0.0,0.0,0.0,0.0,0.0,0.0,0
10471,-0.01,0.0,0.99,0.0,0.0,0.0,10.8,17.6,-44.2,0.54,-0.64,-96.3,24.27,1010.04,654.89,0,0.0,0.0,0.0,0.0,0.0,0.0,0
10519,-0.01,0.0,0.99,0.0,0.0,0.0,10.8,17.6,-44.2,0.54,-0.64,-96.3,24.27,1010.04,654.89,0,0.0,0.0,0.0,0.0,0.0,0.0,0
10575,-0.01,0.0,0.99,0.0,0.0,0.0,10.8,17.9,-44.4,0.55,-0.64,-96.3,24.27,1010.04,654.9,0,0.0,0.0,0.0,0.0,0.0,0.0,0
10645,-0.01,0.0,0.99,0.0,0.0,0.0,10.8,17.9,-44.4,0.55,-0.64,-96.3,24.27,1010.04,654.9,0,0.0,0.0,0.0,0.0,0.0,0.0,0
10706,-0.01,0.0,0.99,0.0,0.0,0.0,10.9,17.9,-44.4,0.54,-0.64,-96.3,24.28,1010.04,654.91,0,0.0,0.0,0.0,0.0,0.0,0.0,0
11382,-0.01,0.01,0.99,0.0,0.0,0.0,10.5,17.8,-44.6,0.54,-0.64,-96.3,24.27,1010.05,654.82,0,0.0,0.0,0.0,0.0,0.0,0.0,0
12013,-0.01,0.01,0.99,0.0,0.0,0.0,10.5,17.7,-43.9,0.55,-0.64,-96.3,24.3,1010.03,654.99,0,0.0,0.0,0.0,0.0,0.0,0.0,0
12066,-0.01,0.0,0.99,0.0,0.0,0.0,10.7,17.7,-44.5,0.55,-0.64,-96.3,24.3,1010.02,655.0,0,0.0,0.0,0.0,0.0,0.0,0.0,0
12146,-0.01,0.0,0.99,0.0,0.0,0.0,10.7,17.7,-44.5,0.55,-0.64,-96.3,24.3,1010.02,655.0,0,0.0,0.0,0.0,0.0,0.0,0.0,0
12160,-0.01,0.0,0.99,0.0,0.0,0.0,10.8,17.7,-44.6,0.54,-0.64,-96.3,24.3,1010.02,655.0,0,0.0,0.0,0.0,0.0,0.0,0.0,0
12294,-0.01,0.0,0.99,0.0,0.0,0.0,10.8,17.7,-44.6,0.54,-0.64,-96.3,24.29,1010.03,654.96,0,0.0,0.0,0.0,0.0,0.0,0.0,0
12344,-0.01,0.0,0.99,0.0,0.0,0.0,10.7,17.7,-44.6,0.54,-0.64,-96.3,24.27,1010.04,654.86,0,0.0,0.0,0.0,0.0,0.0,0.0,0
12953,-0.01,0.0,0.99,0.0,0.0,0.0,10.7,17.6,-44.2,0.54,-0.64,-96.3,24.29,1010.04,654.91,0,0.0,0.0,0.0,0.0,0.0,0.0,0
13046,-0.01,0.0,0.99,0.0,0.0,0.0,10.7,17.6,-44.2,0.54,-0.64,-96.3,24.3,1010.03,654.93,0,0.0,0.0,0.0,0.0,0.0,0.0,0
13112,-0.01,0.0,0.99,0.0,0.0,0.0,10.9,17.5,-417.6,0.54,-0.65,-96.3,24.3,1010.03,654.94,0,0.0,0.0,0.0,0.0,0.0,0.0,0
13199,-0.01,0.0,0.99,0.0,0.0,0.0,10.5,17.7,-44.5,0.54,-0.65,-96.3,24.3,1010.03,654.94,0,0.0,0.0,0.0,0.0,0.0,0.0,0
13264,-0.01,0.0,0.99,0.0,0.0,0.0,10.5,17.7,-44.5,0.54,-0.65,-96.3,24.31,1010.03,654.96,0,0.0,0.0,0.0,0.0,0.0,0.0,0
13332,-0.01,0.01,0.99,0.0,0.0,0.0,10.9,17.6,-44.2,0.54,-0.65,-96.3,24.3,1010.04,654.9,0,0.0,0.0,0.0,0.0,0.0,0.0,0
13392,-0.01,0.01,0.99,0.0,0.0,0.0,10.9,17.6,-44.2,0.54,-0.65,-96.3,24.3,1010.04,654.9,0,0.0,0.0,0.0,0.0,0.0,0.0,0
13416,-0.01,0.01,0.99,0.0,0.0,0.0,10.7,17.7,-44.1,0.54,-0.64,-96.3,24.3,1010.04,654.86,0,0.0,0.0,0.0,0.0,0.0,0.0,0
14172,-0.01,0.0,0.99,0.0,0.0,0.0,10.5,17.3,-44.0,0.54,-0.64,-96.3,24.28,1010.05,654.8,0,0.0,0.0,0.0,0.0,0.0,0.0,0
14868,-0.01,0.0,0.99,0.0,0.0,0.0,10.5,17.2,-44.5,0.54,-0.64,-96.31,24.3,1010.05,654.82,0,0.0,0.0,0.0,0.0,0.0,0.0,0
14912,-0.01,0.01,0.99,0.0,0.0,0.0,10.6,17.7,-44.5,0.54,-0.65,-96.31,24.3,1010.05,654.82,0,0.0,0.0,0.0,0.0,0.0,0.0,0
14992,0.0,0.0,0.0,0.0,-0.65,-96.31,0.0,0.0,0.9,0.54,-0.65,-96.31,24.3,1010.04,654.83,0,0.0,0.0,0.0,0.0,0.0,0.0,0
15103,0.0,0.0,0.0,0.0,-0.65,-96.31,0.0,0.0,0.9,0.54,-0.65,-96.31,24.3,1010.04,654.83,0,0.0,0.0,0.0,0.0,0.0,0.0,0
15154,0.0,0.0,0.0,0.0,-0.65,-96.31,0.0,0.0,0.9,0.54,-0.65,-96.31,24.3,1010.05,654.82,0,0.0,0.0,0.0,0.0,0.0,0.0,0
15763,-0.01,0.01,0.99,0.0,0.0,0.0,10.6,17.5,-44.6,0.54,-0.65,-96.31,24.28,1010.04,654.85,0,0.0,0.0,0.0,0.0,0.0,0.0,0
15839,-0.01,0.01,0.99,0.0,0.0,0.0,10.6,17.5,-44.6,0.54,-0.65,-96.31,24.28,1010.04,654.85,0,0.0,0.0,0.0,0.0,0.0,0.0,0
15867,-0.01,0.01,0.99,0.0,0.0,0.0,10.6,17.5,-44.6,0.54,-0.65,-96.31,24.28,1010.04,654.85,0,0.0,0.0,0.0,0.0,0.0,0.0,0
15885,-0.01,0.0,0.99,0.0,0.0,0.0,10.5,17.7,-44.2,0.54,-0.65,-96.31,24.29,1010.04,654.86,0,0.0,0.0,0.0,0.0,0.0,0.0,0
16619,-0.01,0.0,0.99,0.0,0.0,0.0,10.7,17.8,-44.1,0.54,-0.65,-96.31,24.28,1010.05,654.76,0,0.0,0.0,0.0,0.0,0.0,0.0,0
16637,-0.01,0.0,0.99,0.0,0.0,0.0,10.5,17.6,-44.2,0.54,-0.65,-96.31,24.28,1010.05,654.78,0,0.0,0.0,0.0,0.0,0.0,0.0,0
16707,-0.01,0.0,0.99,0.0,0.0,0.0,10.5,17.6,-44.2,0.54,-0.65,-96.31,24.28,1010.05,654.78,0,0.0,0.0,0.0,0.0,0.0,0.0,0
16757,-0.01,0.01,0.99,0.0,0.0,0.0,10.6,17.5,-44.4,0.54,-0.65,-96.31,24.29,1010.05,654.81,0,0.0,0.0,0.0,0.0,0.0,0.0,0
16808,-0.01,0.01,0.99,0.0,0.0,0.0,10.6,17.5,-44.4,0.54,-0.65,-96.31,24.29,1010.05,654.81,0,0.0,0.0,0.0,0.0,0.0,0.0,0
16858,-0.01,0.0,0.99,0.0,0.0,0.0,10.4,17.8,-44.0,0.54,-0.65,-96.31,24.29,1010.04,654.83,0,0.0,0.0,0.0,0.0,0.0,0.0,0
16907,-0.01,0.0,0.99,0.0,0.0,0.0,10.4,17.8,-44.0,0.54,-0.65,-96.31,24.29,1010.04,654.83,0,0.0,0.0,0.0,0.0,0.0,0.0,0
16930,-0.01,0.0,0.99,0.0,0.0,0.0,10.4,17.8,-44.0,0.54,-0.65,-96.31,24.29,1010.04,654.83,0,0.0,0.0,0.0,0.0,0.0,0.0,0
16947,-0.01,0.01,0.99,0.0,0.0,0.0,10.8,17.9,-44.0,0.54,-0.65,-96.31,24.29,1010.05,654.82,0,0.0,0.0,0.0,0.0,0.0,0.0,0
17042,-0.01,0.01,0.99,0.0,0.0,0.0,10.8,17.9,-44.0,0.54,-0.65,-96.31,24.29,1010.05,654.82,0,0.0,0.0,0.0,0.0,0.0,0.0,0
0,-0.01,0.0,0.99,0.0,0.0,0.0,14.1,17.6,-45.2,0.52,-0.64,-102.13,24.42,1010.02,655.07,0,0.0,0.0,0.0,0.0,0.0,0.0,0
118,-0.01,0.0,0.99,0.0,0.0,0.0,14.3,17.6,-45.5,0.52,-0.64,-102.13,24.37,1010.04,654.91,0,0.0,0.0,0.0,0.0,0.0,0.0,0
248,-0.01,0.0,0.99,0.0,0.0,0.0,14.1,17.5,-45.4,0.52,-0.64,-102.13,24.34,1010.05,654.82,0,0.0,0.0,0.0,0.0,0.0,0.0,0
358,-0.01,0.01,0.99,0.0,0.0,0.0,14.4,17.5,-44.8,0.52,-0.64,-102.13,24.32,1010.05,654.79,0,0.0,0.0,0.0,0.0,0.0,0.0,0
488,-0.01,0.01,0.99,0.0,0.0,0.0,14.4,17.5,-44.8,0.52,-0.64,-102.13,24.31,1010.06,654.72,0,0.0,0.0,0.0,0.0,0.0,0.0,0
578,-0.01,0.01,0.99,0.0,0.0,0.0,14.4,17.5,-44.8,0.52,-0.64,-102.13,24.31,1010.07,654.63,0,0.0,0.0,0.0,0.0,0.0,0.0,0
677,-0.01,0.01,1.0,0.0,0.0,0.0,13.7,18.0,-45.3,0.52,-0.64,-102.26,24.31,1010.07,654.63,0,0.0,0.0,0.0,0.0,0.0,0.0,0
752,-0.01,0.01,1.0,0.0,0.0,0.0,13.7,18.0,-45.3,0.52,-0.64,-102.26,24.31,1010.07,654.59,0,0.0,0.0,0.0,0.0,0.0,0.0,0
1878,-0.01,0.0,0.99,0.0,0.0,0.0,14.2,17.9,-45.1,0.52,-0.64,-102.26,24.33,1010.01,655.17,0,0.0,0.0,0.0,0.0,0.0,0.0,0
1994,-0.01,0.0,0.99,0.0,0.0,0.0,13.8,17.7,-45.5,0.52,-0.63,-102.26,24.32,1010.02,655.06,0,0.0,0.0,0.0,0.0,0.0,0.0,0
2058,-0.01,0.0,0.99,0.0,0.0,0.0,13.8,17.7,-45.5,0.52,-0.63,-102.26,24.32,1010.02,655.06,0,0.0,0.0,0.0,0.0,0.0,0.0,0
2108,-0.01,0.0,0.99,0.0,0.0,0.0,13.9,18.0,-45.1,0.52,-0.64,-102.26,24.32,1010.03,654.97,0,0.0,0.0,0.0,0.0,0.0,0.0,0
2226,-0.01,0.0,0.99,0.0,0.0,0.0,13.9,18.0,-45.1,0.52,-0.64,-102.26,24.32,1010.03,654.94,0,0.0,0.0,0.0,0.0,0.0,0.0,0
2290,-0.01,0.01,0.99,0.0,0.0,0.0,13.9,17.7,-45.1,0.52,-0.64,-102.26,24.32,1010.03,654.95,0,0.0,0.0,0.0,0.0,0.0,0.0,0
2383,-0.01,0.01,0.99,0.0,0.0,0.0,13.9,17.7,-45.1,0.52,-0.64,-102.26,24.32,1010.02,655.01,0,0.0,0.0,0.0,0.0,0.0,0.0,0
2481,-0.01,0.01,0.99,0.0,0.0,0.0,13.9,17.7,-45.1,0.52,-0.64,-102.26,24.33,1010.02,655.05,0,0.0,0.0,0.0,0.0,0.0,0.0,0
3605,-0.01,0.01,0.99,0.0,0.0,0.0,14.0,18.0,-45.5,0.52,-0.64,-102.26,24.33,1010.01,655.11,0,0.0,0.0,0.0,0.0,0.0,0.0,0
3668,-0.01,0.01,0.99,0.0,0.0,0.0,14.0,18.0,-45.5,0.52,-0.64,-102.26,24.33,1010.02,655.06,0,0.0,0.0,0.0,0.0,0.0,0.0,0
3793,-0.01,0.01,0.99,0.0,0.0,0.0,14.0,18.0,-45.5,0.52,-0.64,-102.26,24.33,1010.02,655.05,0,0.0,0.0,0.0,0.0,0.0,0.0,0
3881,-0.01,0.01,0.99,0.0,0.0,0.0,14.0,18.0,-45.5,0.52,-0.64,-102.26,24.33,1010.02,655.06,0,0.0,0.0,0.0,0.0,0.0,0.0,0
3967,-0.01,0.0,0.99,0.0,0.0,0.0,13.7,18.0,-45.2,0.52,-0.64,-102.26,24.33,1010.01,655.11,0,0.0,0.0,0.0,0.0,0.0,0.0,0
4068,-0.01,0.0,0.99,0.0,0.0,0.0,13.7,18.0,-45.2,0.52,-0.64,-102.26,24.33,1010.01,655.1,0,0.0,0.0,0.0,0.0,0.0,0.0,0
4183,-0.01,0.0,0.99,0.0,0.0,0.0,13.7,18.0,-45.2,0.52,-0.64,-102.26,24.33,1010.02,655.08,0,0.0,0.0,0.0,0.0,0.0,0.0,0
4281,-0.01,0.01,0.99,0.0,0.0,0.0,14.0,17.7,-45.1,0.52,-0.64,-102.26,24.33,1010.01,655.11,0,0.0,0.0,0.0,0.0,0.0,0.0,0
4400,-0.01,0.01,0.99,0.0,0.0,0.0,14.0,17.7,-45.1,0.52,-0.64,-102.26,24.32,1010.02,655.08,0,0.0,0.0,0.0,0.0,0.0,0.0,0
4512,-0.01,0.0,0.99,0.0,0.0,0.0,14.1,18.0,-45.3,0.52,-0.64,-102.26,24.32,1010.01,655.09,0,0.0,0.0,0.0,0.0,0.0,0.0,0
5888,-0.01,0.0,0.99,0.0,0.0,0.0,13.7,18.1,-45.3,0.52,-0.64,-102.26,24.32,1010.02,655.04,0,0.0,0.0,0.0,0.0,0.0,0.0,0
5934,-0.01,0.0,0.99,0.0,0.0,0.0,13.7,18.1,-45.3,0.52,-0.64,-102.26,24.32,1010.03,655.0,0,0.0,0.0,0.0,0.0,0.0,0.0,0
6026,-0.01,0.01,0.99,0.0,0.0,0.0,10.9,13.6,17.7,0.52,-0.64,-102.26,24.31,1010.02,655.01,0,0.0,0.0,0.0,0.0,0.0,0.0,0
6150,-0.01,0.0,0.99,0.0,0.0,0.0,13.6,18.0,-45.5,0.52,-0.63,-102.26,24.31,1010.03,654.96,0,0.0,0.0,0.0,0.0,0.0,0.0,0
6261,-0.01,0.0,0.99,0.0,0.0,0.0,13.6,18.0,-45.5,0.52,-0.63,-102.26,24.31,1010.03,654.96,0,0.0,0.0,0.0,0.0,0.0,0.0,0
6302,-0.01,0.0,0.99,0.0,0.0,0.0,13.6,18.0,-45.1,0.52,-0.63,-102.26,24.31,1010.03,654.97,0,0.0,0.0,0.0,0.0,0.0,0.0,0
6406,-0.01,0.0,0.99,0.0,0.0,0.0,13.6,18.0,-45.1,0.52,-0.63,-102.26,24.3,1010.03,654.93,0,0.0,0.0,0.0,0.0,0.0,0.0,0
6505,-0.01,0.0,0.99,0.0,0.0,0.0,14.2,18.1,-45.5,0.52,-0.63,-102.26,24.3,1010.03,654.94,0,0.0,0.0,0.0,0.0,0.0,0.0,0
6620,-0.01,0.0,0.99,0.0,0.0,0.0,14.2,18.1,-45.5,0.52,-0.63,-102.26,24.3,1010.03,654.94,0,0.0,0.0,0.0,0.0,0.0,0.0,0
6683,-0.01,0.0,0.99,0.0,0.0,0.0,14.2,18.1,-45.5,0.52,-0.63,-102.26,24.3,1010.03,654.95,0,0.0,0.0,0.0,0.0,0.0,0.0,0
6775,-0.01,0.0,0.99,0.0,0.0,0.0,14.1,17.9,-45.2,0.52,-0.63,-102.26,24.3,1010.04,654.89,0,0.0,0.0,0.0,0.0,0.0,0.0,0
6893,-0.01,0.0,0.99,0.0,0.0,0.0,14.1,17.9,-45.2,0.52,-0.63,-102.26,24.3,1010.04,654.9,0,0.0,0.0,0.0,0.0,0.0,0.0,0
7011,-0.01,0.0,0.99,0.0,0.0,0.0,14.1,17.9,-45.2,0.52,-0.63,-102.26,24.3,1010.03,654.92,0,0.0,0.0,0.0,0.0,0.0,0.0,0
8071,-0.01,0.0,0.99,0.0,0.0,0.0,14.3,17.5,-45.3,0.52,-0.64,-102.26,24.31,1010.03,654.97,0,0.0,0.0,0.0,0.0,0.0,0.0,0
8201,-0.01,0.0,0.64,0.0,0.0,0.0,-102.2,0.0,0.0,0.52,-0.64,-102.26,24.3,1010.03,654.94,0,0.0,0.0,0.0,0.0,0.0,0.0,0
8361,-0.01,0.0,0.64,0.0,0.0,0.0,-102.2,0.0,0.0,0.52,-0.64,-102.26,24.29,1010.04,654.89,0,0.0,0.0,0.0,0.0,0.0,0.0,0
9644,-0.01,0.0,0.99,0.0,0.0,0.0,14.0,18.0,-45.4,0.52,-0.64,-102.27,24.27,1010.04,654.9,0,0.0,0.0,0.0,0.0,0.0,0.0,0
9773,-0.01,0.0,0.99,0.0,0.0,0.0,14.0,18.0,-45.4,0.52,-0.64,-102.27,24.28,1010.04,654.9,0,0.0,0.0,0.0,0.0,0.0,0.0,0
9864,-0.01,0.0,0.99,0.0,0.0,0.0,14.1,18.0,-45.3,0.52,-0.64,-102.27,24.28,1010.03,654.93,0,0.0,0.0,0.0,0.0,0.0,0.0,0
9954,-0.01,0.0,0.99,0.0,0.0,0.0,13.7,18.2,-45.3,0.52,-0.66,-102.27,24.3,1010.03,654.94,0,0.0,0.0,0.0,0.0,0.0,0.0,0
10073,-0.01,0.01,0.99,0.0,0.0,0.0,14.0,17.8,-45.7,0.52,-0.64,-102.27,24.3,1010.04,654.9,0,0.0,0.0,0.0,0.0,0.0,0.0,0
10207,-0.01,0.01,0.99,0.0,0.0,0.0,14.0,18.0,-45.2,0.52,-0.64,-102.27,24.29,1010.04,654.89,0,0.0,0.0,0.0,0.0,0.0,0.0,0
10324,-0.01,0.01,0.99,0.0,0.0,0.0,14.0,18.0,-45.2,0.52,-0.64,-102.27,24.29,1010.04,654.87,0,0.0,0.0,0.0,0.0,0.0,0.0,0
10420,-0.01,0.01,0.99,0.0,0.0,0.0,13.9,172.2,0.0,0.52,-0.64,-102.27,24.29,1010.05,654.84,0,0.0,0.0,0.0,0.0,0.0,0.0,0
10595,-0.01,0.0,0.99,0.0,0.0,0.0,14.0,18.2,-45.5,0.52,-0.64,-102.27,24.29,1010.05,654.81,0,0.0,0.0,0.0,0.0,0.0,0.0,0
10705,-0.01,0.0,0.99,0.0,0.0,0.0,14.0,18.2,-45.5,0.52,-0.64,-102.27,24.29,1010.05,654.77,0,0.0,0.0,0.0,0.0,0.0,0.0,0
11987,-0.01,0.01,0.99,0.0,0.0,0.0,13.7,18.0,-45.1,0.52,-0.64,-102.27,24.28,1010.09,654.42,0,0.0,0.0,0.0,0.0,0.0,0.0,0
12082,-0.01,0.01,0.99,0.0,0.0,0.0,13.5,17.8,-44.8,0.52,-0.64,-102.27,24.28,1010.11,654.29,0,0.0,0.0,0.0,0.0,0.0,0.0,0
12159,-0.01,0.0,0.0,0.0,0.0,0.0,0.0,0.0,0.9,0.52,-0.64,-102.27,24.29,1010.11,654.3,0,0.0,0.0,0.0,0.0,0.0,0.0,0
12309,-0.01,0.0,0.99,0.0,0.0,0.0,14.0,17.9,-45.3,0.52,-0.64,-102.27,24.29,1010.09,654.45,0,0.0,0.0,0.0,0.0,0.0,0.0,0
12428,-0.01,0.0,0.99,0.0,0.0,0.0,14.0,17.9,-45.3,0.52,-0.64,-102.27,24.29,1010.09,654.45,0,0.0,0.0,0.0,0.0,0.0,0.0,0
12497,-0.01,0.0,0.99,0.0,0.0,0.0,14.0,17.9,-45.3,0.52,-0.64,-102.27,24.29,1010.09,654.5,0,0.0,0.0,0.0,0.0,0.0,0.0,0
12585,-0.01,0.01,0.99,0.0,0.0,0.0,10.9,13.9,18.0,0.52,-0.64,-102.27,24.29,1010.09,654.5,0,0.0,0.0,0.0,0.0,0.0,0.0,0
12646,-0.01,0.0,0.99,0.0,0.0,0.0,13.9,17.7,-45.2,0.52,-0.64,-102.27,24.28,1010.08,654.56,0,0.0,0.0,0.0,0.0,0.0,0.0,0
12779,-0.01,0.0,0.99,0.0,0.0,0.0,13.9,17.7,-45.2,0.52,-0.64,-102.27,24.28,1010.08,654.56,0,0.0,0.0,0.0,0.0,0.0,0.0,0
12822,-0.01,0.0,0.99,0.0,0.0,0.0,14.0,18.0,-45.3,0.52,-0.64,-102.27,24.27,1010.08,654.58,0,0.0,0.0,0.0,0.0,0.0,0.0,0
12953,-0.01,0.0,0.99,0.0,0.0,0.0,14.0,18.0,-45.3,0.52,-0.64,-102.27,24.26,1010.07,654.62,0,0.0,0.0,0.0,0.0,0.0,0.0,0
14272,-0.01,0.0,0.99,0.0,0.0,0.0,13.7,18.2,-45.2,0.52,-0.64,-102.27,24.31,1010.01,655.13,0,0.0,0.0,0.0,0.0,0.0,0.0,0
14343,-0.01,0.0,0.99,0.0,0.0,0.0,13.7,18.2,-45.2,0.52,-0.64,-102.27,24.3,1010.02,655.07,0,0.0,0.0,0.0,0.0,0.0,0.0,0
15563,-0.01,0.01,0.99,0.0,0.0,0.0,13.7,18.0,-45.2,0.52,-0.63,-102.27,24.31,1009.98,0.03,0,0.0,0.0,0.0,0.0,0.0,0.0,0
15640,-0.01,0.01,0.99,0.0,0.0,0.0,13.7,18.0,-45.2,0.52,-0.63,-102.27,24.31,1009.99,655.33,0,0.0,0.0,0.0,0.0,0.0,0.0,0
15726,-0.01,0.01,0.99,0.0,0.0,0.0,13.7,18.0,-45.2,0.52,-0.63,-102.27,24.32,1010.0,655.25,0,0.0,0.0,0.0,0.0,0.0,0.0,0
15793,-0.01,0.0,0.99,0.0,0.0,0.0,14.0,18.1,-45.4,0.52,-0.63,-102.27,24.33,1010.0,655.21,0,0.0,0.0,0.0,0.0,0.0,0.0,0
15911,-0.01,0.0,0.99,0.0,0.0,0.0,14.0,18.1,-45.4,0.52,-0.63,-102.27,24.33,1010.0,655.21,0,0.0,0.0,0.0,0.0,0.0,0.0,0
15981,-0.01,0.0,0.99,0.0,0.0,0.0,14.0,18.1,-45.4,0.52,-0.63,-102.27,24.33,1010.01,655.13,0,0.0,0.0,0.0,0.0,0.0,0.0,0
16040,-0.01,0.0,0.99,0.0,0.0,0.0,14.0,17.9,-45.2,0.52,-0.64,-102.27,24.32,1010.02,655.02,0,0.0,0.0,0.0,0.0,0.0,0.0,0
16161,-0.01,0.0,0.99,0.0,0.0,0.0,14.0,17.9,-45.2,0.52,-0.64,-102.27,24.32,1010.03,654.93,0,0.0,0.0,0.0,0.0,0.0,0.0,0
16256,-0.01,0.0,0.99,0.0,0.0,0.0,14.0,17.9,-45.2,0.52,-0.64,-102.27,24.32,1010.03,654.95,0,0.0,0.0,0.0,0.0,0.0,0.0,0
16322,-0.01,0.0,0.99,0.0,0.0,0.0,13.7,17.9,-45.3,0.52,-0.64,-102.27,24.32,1010.03,654.98,0,0.0,0.0,0.0,0.0,0.0,0.0,0
16395,-102.27,0.0,0.0,0.0,0.0,-0.64,0.0,0.0,0.0,0.52,-0.64,-102.27,24.33,1010.02,655.02,0,0.0,0.0,0.0,0.0,0.0,0.0,0
16551,-0.01,0.01,0.99,0.0,0.0,0.0,14.0,17.7,-45.2,0.52,-0.64,-102.27,24.33,1010.03,654.99,0,0.0,0.0,0.0,0.0,0.0,0.0,0
16669,-0.01,0.01,0.99,0.0,0.0,0.0,14.0,17.7,-45.2,0.52,-0.64,-102.27,24.32,1010.03,654.99,0,0.0,0.0,0.0,0.0,0.0,0.0,0
16769,-0.01,0.01,0.99,0.0,0.0,0.0,14.0,17.7,-45.2,0.52,-0.64,-102.27,24.32,1010.02,655.07,0,0.0,0.0,0.0,0.0,0.0,0.0,0
16854,-0.01,0.01,0.99,0.0,0.0,0.0,14.1,17.7,-45.0,0.52,-0.64,-102.27,24.32,1010.02,655.07,0,0.0,0.0,0.0,0.0,0.0,0.0,0
16992,-0.01,0.01,0.99,0.0,0.0,0.0,13.7,17.9,-45.1,0.52,-0.64,-102.27,24.31,1010.03,654.96,0,0.0,0.0,0.0,0.0,0.0,0.0,0
17109,-0.01,0.01,0.99,0.0,0.0,0.0,13.7,17.9,-45.1,0.52,-0.64,-102.27,24.31,1010.03,654.96,0,0.0,0.0,0.0,0.0,0.0,0.0,0
17171,-0.01,0.0,0.99,0.0,0.0,0.0,14.1,18.0,-45.3,0.52,-0.64,-102.27,24.31,1010.04,654.9,0,0.0,0.0,0.0,0.0,0.0,0.0,0
17295,-0.01,0.0,0.99,0.0,0.0,0.0,14.1,18.0,-45.3,0.52,-0.64,-102.27,24.3,1010.04,654.87,0,0.0,0.0,0.0,0.0,0.0,0.0,0
17400,-0.01,0.0,0.99,0.0,0.0,0.0,13.6,188.4,-45.1,0.52,-0.64,-102.27,24.29,1010.04,654.85,0,0.0,0.0,0.0,0.0,0.0,0.0,0
18635,-0.01,0.01,0.99,0.0,0.0,0.0,13.8,18.0,-45.5,0.52,-0.64,-102.27,24.28,1010.06,654.71,0,0.0,0.0,0.0,0.0,0.0,0.0,0
18703,-0.01,0.01,0.99,0.0,0.0,0.0,14.0,18.1,-45.5,0.52,-0.64,-102.27,24.29,1010.06,654.71,0,0.0,0.0,0.0,0.0,0.0,0.0,0
18820,-0.01,0.01,0.99,0.0,0.0,0.0,14.0,18.1,-45.5,0.52,-0.64,-102.27,24.28,1010.06,654.67,0,0.0,0.0,0.0,0.0,0.0,0.0,0
18917,-0.01,0.01,0.99,0.0,0.0,0.0,14.0,18.1,-45.5,0.52,-0.64,-102.27,24.28,1010.06,654.72,0,0.0,0.0,0.0,0.0,0.0,0.0,0
20092,0.0,0.0,0.99,0.0,0.0,0.0,13.5,18.0,-45.2,0.52,-0.63,-102.28,24.3,1010.05,654.83,0,0.0,0.0,0.0,0.0,0.0,0.0,0
20169,0.0,0.0,0.99,0.0,0.0,0.0,13.5,18.0,-45.2,0.52,-0.63,-102.28,24.29,1010.05,654.83,0,0.0,0.0,0.0,0.0,0.0,0.0,0
20259,0.0,0.0,0.99,0.0,0.0,0.0,13.5,18.0,-45.2,0.52,-0.63,-102.28,24.3,1010.05,654.83,0,0.0,0.0,0.0,0.0,0.0,0.0,0
20320,-0.01,0.01,0.99,0.0,0.0,0.0,13.6,18.0,-45.1,0.52,-0.63,-102.28,24.31,1010.04,654.85,0,0.0,0.0,0.0,0.0,0.0,0.0,0
21526,-0.01,0.0,0.99,0.0,0.0,0.0,14.4,17.8,-45.4,0.52,-0.64,-102.28,24.32,1010.04,654.9,0,0.0,0.0,0.0,0.0,0.0,0.0,0
21606,-0.01,0.0,0.99,0.0,0.0,0.0,14.4,17.8,-45.4,0.52,-0.64,-102.28,24.32,1010.04,654.9,0,0.0,0.0,0.0,0.0,0.0,0.0,0
21668,-0.01,0.0,0.99,0.0,0.0,0.0,14.0,17.9,-45.2,0.52,-0.63,-102.28,24.32,1010.04,654.9,0,0.0,0.0,0.0,0.0,0.0,0.0,0
21766,-0.01,0.0,0.99,0.0,0.0,0.0,14.0,17.9,-45.2,0.52,-0.63,-102.28,24.32,1010.04,654.88,0,0.0,0.0,0.0,0.0,0.0,0.0,0
21835,-0.01,0.0,0.99,0.0,0.0,0.0,13.9,17.8,-45.3,0.52,-0.63,-102.28,24.32,1010.04,654.87,0,0.0,0.0,0.0,0.0,0.0,0.0,0
