timestamp,ax,ay,az,gx,gy,gz,mx,my,mz,roll,pitch,yaw,T,P,P_alt,fix,lon,lat,alt,velN,velE,velD,ejection
30064,-0.01,0.01,0.99,0.0,0.0,0.0,13.9,14.9,-39.8,0.57,-0.63,-131.45,24.06,1009.98,654.95,0,0.0,0.0,0.0,0.0,0.0,0.0,0
30090,-0.01,0.01,0.99,0.0,0.0,0.0,13.9,14.9,-39.8,0.57,-0.63,-131.45,24.06,1009.98,654.95,0,0.0,0.0,0.0,0.0,0.0,0.0,0
30110,-0.01,0.0,0.99,0.0,0.0,0.0,13.9,14.9,-39.5,0.57,-0.63,-131.45,24.05,1009.98,654.91,0,0.0,0.0,0.0,0.0,0.0,0.0,0
30192,-0.01,0.01,0.01,0.0,0.0,0.0,0.9,13.8,14.9,0.57,-0.63,-131.45,24.04,1009.99,654.88,0,0.0,0.0,0.0,0.0,0.0,0.0,0
30292,-0.01,0.01,0.01,0.0,0.0,0.0,0.9,13.8,14.9,0.57,-0.63,-131.45,24.04,1009.99,654.88,0,0.0,0.0,0.0,0.0,0.0,0.0,0
30311,-0.01,0.01,0.99,0.0,0.0,0.0,14.0,14.9,-39.4,0.57,-0.63,-131.45,24.04,1009.99,654.88,0,0.0,0.0,0.0,0.0,0.0,0.0,0
30393,-0.01,0.01,0.99,0.0,0.0,0.0,14.0,14.9,-39.4,0.57,-0.63,-131.45,24.04,1009.98,654.89,0,0.0,0.0,0.0,0.0,0.0,0.0,0
30468,-0.01,0.01,0.99,0.0,0.0,0.0,14.0,15.0,0.0,0.57,-0.63,-131.45,24.04,1009.98,654.93,0,0.0,0.0,0.0,0.0,0.0,0.0,0
30595,-0.01,0.01,0.99,0.0,0.0,0.0,14.0,15.0,0.0,0.57,-0.63,-131.45,24.04,1009.98,654.93,0,0.0,0.0,0.0,0.0,0.0,0.0,0
30627,-0.01,0.01,0.99,0.0,0.0,0.0,14.0,15.0,0.0,0.57,-0.63,-131.45,24.04,1009.98,654.95,0,0.0,0.0,0.0,0.0,0.0,0.0,0
31427,-0.01,0.01,0.45,0.0,0.0,0.0,0.0,0.0,0.0,0.57,-0.63,-131.45,24.05,1009.97,655.03,0,0.0,0.0,0.0,0.0,0.0,0.0,0
31554,0.0,0.0,0.99,0.0,0.0,0.0,13.8,15.1,-39.2,0.58,-0.63,-131.45,24.04,1009.97,654.98,0,0.0,0.0,0.0,0.0,0.0,0.0,0
31635,0.0,0.0,0.99,0.0,0.0,0.0,13.8,15.1,-39.2,0.58,-0.63,-131.45,24.04,1009.97,654.98,0,0.0,0.0,0.0,0.0,0.0,0.0,0
31693,0.0,0.0,0.99,0.0,0.0,0.0,13.8,15.1,-39.2,0.58,-0.63,-131.45,24.04,1009.98,654.96,0,0.0,0.0,0.0,0.0,0.0,0.0,0
31756,0.0,0.0,0.99,0.0,0.0,0.0,13.8,15.1,-39.2,0.58,-0.63,-131.45,24.04,1009.98,654.96,0,0.0,0.0,0.0,0.0,0.0,0.0,0
31788,-0.01,0.0,0.99,0.0,0.0,0.0,13.9,15.1,-39.5,0.57,-0.62,-131.45,24.04,1009.98,654.97,0,0.0,0.0,0.0,0.0,0.0,0.0,0
31819,-0.01,0.0,0.99,0.0,0.0,0.0,13.9,15.1,-39.5,0.57,-0.62,-131.45,24.04,1009.98,654.97,0,0.0,0.0,0.0,0.0,0.0,0.0,0
31834,-0.01,0.01,0.99,0.0,0.0,0.0,13.5,14.8,-39.5,0.57,-0.62,-131.45,24.04,1009.97,654.99,0,0.0,0.0,0.0,0.0,0.0,0.0,0
31916,-0.01,0.01,0.99,0.0,0.0,0.0,13.5,14.8,-39.5,0.57,-0.62,-131.45,24.04,1009.97,654.99,0,0.0,0.0,0.0,0.0,0.0,0.0,0
31975,0.0,0.0,0.99,0.0,0.0,0.0,13.9,15.1,-39.4,0.57,-0.63,-131.45,24.04,1009.97,655.02,0,0.0,0.0,0.0,0.0,0.0,0.0,0
32028,0.0,0.0,0.99,0.0,0.0,0.0,13.9,15.1,-39.4,0.57,-0.63,-131.45,24.04,1009.97,655.02,0,0.0,0.0,0.0,0.0,0.0,0.0,0
32068,-0.01,0.01,0.99,0.0,0.0,0.0,13.9,14.9,-39.7,0.57,-0.63,-131.45,24.04,1009.97,655.03,0,0.0,0.0,0.0,0.0,0.0,0.0,0
32098,-0.01,0.01,0.99,0.0,0.0,0.0,13.9,14.9,-39.7,0.57,-0.63,-131.45,24.04,1009.97,655.03,0,0.0,0.0,0.0,0.0,0.0,0.0,0
32144,-0.01,0.0,0.99,0.0,0.0,0.0,14.2,14.9,-39.7,0.57,-0.63,-131.45,24.04,1009.97,655.05,0,0.0,0.0,0.0,0.0,0.0,0.0,0
32226,-0.01,0.0,0.99,0.0,0.0,0.0,14.2,14.9,-39.7,0.57,-0.63,-131.45,24.04,1009.97,655.05,0,0.0,0.0,0.0,0.0,0.0,0.0,0
32936,-0.01,0.01,0.99,0.0,0.0,0.0,13.7,14.9,-39.4,0.58,-0.63,-131.45,24.01,1009.99,654.87,0,0.0,0.0,0.0,0.0,0.0,0.0,0
33029,-0.01,0.0,0.99,0.0,0.0,0.0,13.9,15.0,-39.5,0.58,-0.63,-131.45,24.02,1009.98,654.92,0,0.0,0.0,0.0,0.0,0.0,0.0,0
33095,-0.01,0.0,0.99,0.0,0.0,0.0,13.9,15.0,-39.5,0.58,-0.63,-131.45,24.02,1009.98,654.92,0,0.0,0.0,0.0,0.0,0.0,0.0,0
33109,-0.01,0.01,0.99,0.0,0.0,0.0,13.8,15.1,-39.6,0.58,-0.63,-131.45,24.03,1009.97,655.0,0,0.0,0.0,0.0,0.0,0.0,0.0,0
33192,-0.01,0.01,0.99,0.0,0.0,0.0,13.8,15.1,-39.6,0.58,-0.63,-131.45,24.03,1009.97,655.0,0,0.0,0.0,0.0,0.0,0.0,0.0,0
33258,-0.01,0.0,0.99,0.0,0.0,0.0,13.9,14.8,-39.2,0.58,-0.63,-131.45,24.04,1009.97,655.05,0,0.0,0.0,0.0,0.0,0.0,0.0,0
33340,0.0,0.0,0.0,0.0,0.0,0.0,0.0,0.0,0.0,0.58,-0.63,-131.45,24.04,1009.97,655.05,0,0.0,0.0,0.0,0.0,0.0,0.0,0
33357,-0.01,0.01,0.99,0.0,0.0,0.0,14.0,14.8,-39.0,0.58,-0.63,-131.45,24.03,1009.97,655.01,0,0.0,0.0,0.0,0.0,0.0,0.0,0
33458,-0.01,0.01,0.99,0.0,0.0,0.0,14.0,14.8,-39.0,0.58,-0.63,-131.45,24.03,1009.97,655.01,0,0.0,0.0,0.0,0.0,0.0,0.0,0
33478,-0.01,0.01,0.99,0.0,0.0,0.0,14.4,14.9,-39.5,0.57,-0.63,-131.45,24.03,1009.97,655.01,0,0.0,0.0,0.0,0.0,0.0,0.0,0
33488,-0.01,0.01,0.99,0.0,0.0,0.0,14.4,14.9,-39.5,0.57,-0.63,-131.45,24.02,1009.97,654.98,0,0.0,0.0,0.0,0.0,0.0,0.0,0
33576,0.0,0.0,0.99,0.0,0.0,0.0,1.0,0.0,0.0,0.58,-0.63,-131.45,24.02,1009.97,654.98,0,0.0,0.0,0.0,0.0,0.0,0.0,0
33683,0.0,0.0,0.99,0.0,0.0,0.0,1.0,0.0,0.0,0.58,-0.63,-131.45,24.02,1009.97,654.98,0,0.0,0.0,0.0,0.0,0.0,0.0,0
33716,0.0,0.0,0.99,0.0,0.0,0.0,1.0,0.0,0.0,0.58,-0.63,-131.45,24.02,1009.97,654.98,0,0.0,0.0,0.0,0.0,0.0,0.0,0
33761,-0.01,0.0,0.99,0.0,0.0,0.0,14.0,15.1,-39.6,0.57,-0.63,-131.45,24.02,1009.98,654.96,0,0.0,0.0,0.0,0.0,0.0,0.0,0
33842,-0.01,0.0,0.99,0.0,0.0,0.0,14.0,15.1,-39.6,0.57,-0.63,-131.45,24.02,1009.98,654.96,0,0.0,0.0,0.0,0.0,0.0,0.0,0
33861,-0.01,0.0,0.99,0.0,0.0,0.0,14.0,14.9,-39.0,0.57,-0.63,-131.45,24.01,1009.98,654.9,0,0.0,0.0,0.0,0.0,0.0,0.0,0
33942,-0.01,0.0,0.99,0.0,0.0,0.0,14.0,14.9,-39.0,0.57,-0.63,-131.45,24.01,1009.98,654.91,0,0.0,0.0,0.0,0.0,0.0,0.0,0
34643,-0.01,0.01,0.99,0.0,0.0,0.0,13.9,15.2,-39.5,0.57,-0.63,-131.45,24.04,1009.97,655.03,0,0.0,0.0,0.0,0.0,0.0,0.0,0
34683,-0.01,0.01,0.99,0.0,0.0,0.0,13.9,15.2,-39.5,0.57,-0.63,-131.45,24.04,1009.97,655.03,0,0.0,0.0,0.0,0.0,0.0,0.0,0
34722,-0.01,0.01,0.99,0.0,0.0,0.0,13.9,14.8,-39.5,0.57,-0.63,-131.45,24.04,1009.97,655.01,0,0.0,0.0,0.0,0.0,0.0,0.0,0
34816,-0.01,0.01,0.99,0.0,0.0,0.0,13.9,14.8,-39.5,0.57,-0.63,-131.45,24.04,1009.97,655.01,0,0.0,0.0,0.0,0.0,0.0,0.0,0
34839,0.0,0.0,1.0,0.0,0.0,0.0,13.7,14.8,-39.0,0.57,-0.63,-131.45,24.03,1009.97,655.0,0,0.0,0.0,0.0,0.0,0.0,0.0,0
34880,0.0,0.0,1.0,0.0,0.0,0.0,13.7,14.8,-39.0,0.57,-0.63,-131.45,24.03,1009.97,655.0,0,0.0,0.0,0.0,0.0,0.0,0.0,0
34926,-0.01,0.01,0.99,0.0,0.0,0.0,14.1,15.0,-39.7,0.57,-0.63,-131.45,24.04,1009.97,655.01,0,0.0,0.0,0.0,0.0,0.0,0.0,0
35017,-0.01,0.01,0.99,0.0,0.0,0.0,14.1,15.0,-39.7,0.57,-0.63,-131.45,24.03,1009.97,655.0,0,0.0,0.0,0.0,0.0,0.0,0.0,0
35081,-0.01,0.01,0.99,0.0,0.0,0.0,14.1,15.0,-39.7,0.57,-0.63,-131.45,24.03,1009.97,655.0,0,0.0,0.0,0.0,0.0,0.0,0.0,0
35116,-0.01,0.01,0.99,0.0,0.0,0.0,14.1,15.0,-39.7,0.57,-0.63,-131.45,24.03,1009.97,655.0,0,0.0,0.0,0.0,0.0,0.0,0.0,0
35136,-0.01,0.01,0.98,0.0,0.0,0.0,14.1,15.0,-39.3,0.57,-0.63,-131.45,24.04,1009.97,655.04,0,0.0,0.0,0.0,0.0,0.0,0.0,0
35218,-0.01,0.01,0.98,0.0,0.0,0.0,14.1,15.0,-39.3,0.57,-0.63,-131.45,24.03,1009.97,655.02,0,0.0,0.0,0.0,0.0,0.0,0.0,0
35859,-0.01,0.01,0.99,0.0,0.0,0.0,13.8,14.7,-39.0,0.58,-0.63,-131.45,24.05,1009.96,655.08,0,0.0,0.0,0.0,0.0,0.0,0.0,0
35885,-0.01,0.01,0.99,0.0,0.0,0.0,13.8,14.7,-39.0,0.58,-0.63,-131.45,24.05,1009.96,655.08,0,0.0,0.0,0.0,0.0,0.0,0.0,0
35904,-0.01,0.01,0.99,0.0,0.0,0.0,14.0,14.9,-39.5,0.58,-0.63,-131.45,24.05,1009.97,655.05,0,0.0,0.0,0.0,0.0,0.0,0.0,0
35986,-0.01,0.01,0.99,0.0,0.0,0.0,14.0,14.9,-39.5,0.58,-0.63,-131.45,24.05,1009.97,655.05,0,0.0,0.0,0.0,0.0,0.0,0.0,0
36026,-0.01,0.01,0.99,0.0,0.0,0.0,14.0,14.9,-39.5,0.58,-0.63,-131.45,24.05,1009.97,655.05,0,0.0,0.0,0.0,0.0,0.0,0.0,0
36045,0.0,0.01,0.99,0.0,0.0,0.0,13.9,14.9,-39.7,0.58,-0.63,-131.45,24.04,1009.97,654.98,0,0.0,0.0,0.0,0.0,0.0,0.0,0
36111,0.0,0.01,0.99,0.0,0.0,0.0,13.9,14.9,-39.7,0.58,-0.63,-131.45,24.03,1009.98,654.94,0,0.0,0.0,0.0,0.0,0.0,0.0,0
36187,-0.01,0.01,0.99,0.0,0.0,0.0,1.0,0.0,0.9,0.57,-0.63,-131.45,24.03,1009.98,654.95,0,0.0,0.0,0.0,0.0,0.0,0.0,0
36301,-0.01,0.0,0.99,0.0,0.0,0.0,13.8,15.0,-39.6,0.58,-0.64,-131.45,24.03,1009.98,654.95,0,0.0,0.0,0.0,0.0,0.0,0.0,0
36336,-0.01,0.01,0.99,0.0,0.0,0.0,14.0,15.1,-39.4,0.58,-0.64,0.0,24.03,1009.97,654.97,0,0.0,0.0,0.0,0.0,0.0,0.0,0
36413,-0.01,0.01,0.99,0.0,0.0,0.0,14.0,14.6,-39.0,0.57,-0.63,-131.45,24.03,1009.98,654.96,0,0.0,0.0,0.0,0.0,0.0,0.0,0
36512,0.0,0.01,0.99,0.0,0.0,0.0,13.6,15.0,-39.6,0.57,-0.63,-131.45,24.03,1009.97,654.98,0,0.0,0.0,0.0,0.0,0.0,0.0,0
36593,0.0,0.01,0.99,0.0,0.0,0.0,13.6,15.0,-39.6,0.57,-0.63,-131.45,24.03,1009.97,655.02,0,0.0,0.0,0.0,0.0,0.0,0.0,0
36669,0.0,0.01,0.99,0.0,0.0,0.0,13.6,15.0,-39.6,0.57,-0.63,-131.45,24.03,1009.97,655.02,0,0.0,0.0,0.0,0.0,0.0,0.0,0
36678,-0.01,0.01,0.99,0.0,0.0,0.0,13.6,14.7,-39.2,0.57,-0.63,-131.45,24.03,1009.97,655.02,0,0.0,0.0,0.0,0.0,0.0,0.0,0
36686,-0.01,0.01,0.99,0.0,0.0,0.0,13.6,14.7,-39.2,0.57,-0.63,-131.45,24.03,1009.97,655.02,0,0.0,0.0,0.0,0.0,0.0,0.0,0
36816,0.0,0.0,0.99,0.0,0.0,0.0,14.5,14.9,-39.9,0.57,-0.63,-131.45,24.04,1009.96,655.07,0,0.0,0.0,0.0,0.0,0.0,0.0,0
36910,0.0,0.0,0.99,0.0,0.0,0.0,14.5,14.9,-39.9,0.57,-0.63,-131.45,24.04,1009.96,655.07,0,0.0,0.0,0.0,0.0,0.0,0.0,0
36949,-0.01,0.01,0.99,0.0,0.0,0.0,13.7,15.0,-39.7,0.57,-0.62,-131.45,24.04,1009.96,655.07,0,0.0,0.0,0.0,0.0,0.0,0.0,0
37720,0.0,0.0,0.99,0.0,0.0,0.0,13.8,15.0,-39.6,0.57,-0.63,-131.45,24.0,1009.99,654.83,0,0.0,0.0,0.0,0.0,0.0,0.0,0
37785,0.0,0.0,0.99,0.0,0.0,0.0,13.8,15.0,-39.6,0.57,-0.63,-131.45,24.0,1009.99,654.83,0,0.0,0.0,0.0,0.0,0.0,0.0,0
37824,0.01,0.0,0.99,0.0,0.0,0.0,14.2,15.0,-39.8,0.56,-0.61,-131.45,24.0,1009.99,654.85,0,0.0,0.0,0.0,0.0,0.0,0.0,0
37893,0.01,0.0,0.99,0.0,0.0,0.0,14.2,15.0,-39.8,0.56,-0.61,-131.45,24.0,1009.99,654.85,0,0.0,0.0,0.0,0.0,0.0,0.0,0
37926,-0.02,0.02,0.99,0.0,0.0,0.0,13.7,14.6,-39.6,0.58,-0.63,-131.45,24.0,1009.99,654.88,0,0.0,0.0,0.0,0.0,0.0,0.0,0
38006,-131.45,0.0,0.0,0.0,0.0,-0.64,0.0,0.0,0.0,0.58,-0.64,-131.45,24.0,1009.98,654.92,0,0.0,0.0,0.0,0.0,0.0,0.0,0
38109,0.0,0.0,0.99,0.0,0.0,0.0,8.0,0.9,13.6,0.58,-0.63,-131.45,24.01,1009.98,654.93,0,0.0,0.0,0.0,0.0,0.0,0.0,0
38198,-0.01,0.01,0.99,0.0,0.0,0.0,13.5,15.1,-39.7,0.58,-0.64,-131.45,24.01,1009.98,654.96,0,0.0,0.0,0.0,0.0,0.0,0.0,0
38291,-0.01,0.01,0.99,0.0,0.0,0.0,13.5,15.1,-39.7,0.58,-0.64,-131.45,24.02,1009.97,655.0,0,0.0,0.0,0.0,0.0,0.0,0.0,0
38367,-0.01,0.01,0.99,0.0,0.0,0.0,13.5,15.1,-39.7,0.58,-0.64,-131.45,24.02,1009.97,655.0,0,0.0,0.0,0.0,0.0,0.0,0.0,0
38412,0.0,0.0,0.99,0.0,0.0,0.0,13.3,15.1,-39.6,0.56,-0.62,-131.45,24.03,1009.97,655.05,0,0.0,0.0,0.0,0.0,0.0,0.0,0
38506,0.0,0.0,0.99,0.0,0.0,0.0,13.3,15.1,-39.6,0.56,-0.62,-131.45,24.03,1009.97,655.05,0,0.0,0.0,0.0,0.0,0.0,0.0,0
38520,-0.01,0.0,0.99,0.0,0.0,0.0,13.5,14.8,-39.5,0.57,-0.62,-131.45,24.03,1009.97,655.03,0,0.0,0.0,0.0,0.0,0.0,0.0,0
38573,-0.01,0.0,0.99,0.0,0.0,0.0,13.5,14.8,-39.5,0.57,-0.62,-131.45,24.03,1009.97,655.03,0,0.0,0.0,0.0,0.0,0.0,0.0,0
38632,0.0,0.0,0.99,0.0,0.0,0.0,13.2,15.0,-39.5,0.58,-0.63,-131.45,24.03,1009.97,655.02,0,0.0,0.0,0.0,0.0,0.0,0.0,0
38653,0.0,0.0,0.99,0.0,0.0,0.0,13.2,15.0,-39.5,0.58,-0.63,-131.45,24.03,1009.97,655.02,0,0.0,0.0,0.0,0.0,0.0,0.0,0
39479,0.0,0.0,0.99,0.0,0.0,0.0,13.6,14.9,-39.2,0.57,-0.63,-131.45,24.02,1009.97,655.02,0,0.0,0.0,0.0,0.0,0.0,0.0,0
39563,0.0,0.0,0.99,0.0,0.0,0.0,10.9,14.1,14.6,0.57,-0.63,-131.45,24.02,1009.97,655.02,0,0.0,0.0,0.0,0.0,0.0,0.0,0
39580,0.0,0.0,0.99,0.0,0.0,0.0,14.6,14.8,-39.6,0.58,-0.63,-131.45,24.02,1009.97,655.02,0,0.0,0.0,0.0,0.0,0.0,0.0,0
39587,0.0,0.0,0.99,0.0,0.0,0.0,14.6,14.8,-39.6,0.58,-0.63,-131.45,24.02,1009.97,655.02,0,0.0,0.0,0.0,0.0,0.0,0.0,0
39716,0.0,0.0,0.99,0.0,0.0,0.0,14.0,14.8,-39.1,0.57,-0.63,-131.45,24.02,1009.97,655.01,0,0.0,0.0,0.0,0.0,0.0,0.0,0
39810,0.0,0.0,0.99,0.0,0.0,0.0,14.0,14.8,-39.1,0.57,-0.63,-131.45,24.02,1009.97,655.01,0,0.0,0.0,0.0,0.0,0.0,0.0,0
39842,0.0,0.0,0.99,0.0,0.0,0.0,14.0,14.8,-39.1,0.57,-0.63,-131.45,24.02,1009.97,655.01,0,0.0,0.0,0.0,0.0,0.0,0.0,0
39862,0.0,0.0,0.99,0.0,0.0,0.0,14.0,14.8,-39.1,0.57,-0.63,-131.45,24.0,1009.99,654.89,0,0.0,0.0,0.0,0.0,0.0,0.0,0
39882,-0.01,0.0,0.99,0.0,0.0,0.0,14.0,15.0,-39.1,0.58,-0.63,-131.45,24.0,1009.99,654.89,0,0.0,0.0,0.0,0.0,0.0,0.0,0
40021,-0.01,0.0,0.99,0.0,0.0,0.0,14.1,14.6,-39.8,0.58,-0.63,-131.45,24.0,1009.99,654.87,0,0.0,0.0,0.0,0.0,0.0,0.0,0
40073,-0.01,0.0,0.99,0.0,0.0,0.0,14.1,14.6,-39.8,0.58,-0.63,-131.45,24.0,1009.99,654.87,0,0.0,0.0,0.0,0.0,0.0,0.0,0
40100,0.0,0.0,0.99,0.0,0.0,0.0,13.8,14.9,-39.9,0.57,-0.63,-131.45,23.99,1009.99,654.83,0,0.0,0.0,0.0,0.0,0.0,0.0,0
40854,-0.01,0.0,0.99,0.0,0.0,0.0,23.4,14.5,-39.6,0.48,-0.6,-146.58,24.02,1009.98,654.97,0,0.0,0.0,0.0,0.0,0.0,0.0,0
40897,-0.01,0.0,0.99,0.0,0.0,0.0,23.4,14.5,-39.6,0.48,-0.6,-146.58,24.01,1009.98,654.93,0,0.0,0.0,0.0,0.0,0.0,0.0,0
40934,-0.01,0.0,0.99,0.0,0.0,0.0,23.4,14.5,-39.6,0.48,-0.6,-146.58,24.01,1009.98,654.93,0,0.0,0.0,0.0,0.0,0.0,0.0,0
40967,-0.01,0.01,0.99,0.0,0.0,0.0,22.9,14.5,-39.6,0.48,-0.6,-146.58,24.02,1009.98,654.97,0,0.0,0.0,0.0,0.0,0.0,0.0,0
41022,-0.01,0.01,0.99,0.0,0.0,0.0,22.9,14.5,-39.6,0.48,-0.6,-146.58,24.02,1009.98,654.97,0,0.0,0.0,0.0,0.0,0.0,0.0,0
41054,-0.01,0.0,0.99,0.0,0.0,0.0,23.0,14.1,-39.5,0.49,-0.6,-146.58,24.03,1009.97,654.98,0,0.0,0.0,0.0,0.0,0.0,0.0,0
41094,-0.01,0.0,0.99,0.0,0.0,0.0,23.0,14.1,-39.5,0.49,-0.6,-146.58,24.03,1009.97,654.98,0,0.0,0.0,0.0,0.0,0.0,0.0,0
41233,-0.01,0.0,0.99,0.0,0.0,0.0,20.9,23.1,14.5,0.49,-0.6,-146.58,24.04,1009.97,655.01,0,0.0,0.0,0.0,0.0,0.0,0.0,0
41334,-0.01,0.0,0.99,0.0,0.0,0.0,23.0,14.4,-39.5,0.49,-0.61,-146.58,24.02,1009.98,654.93,0,0.0,0.0,0.0,0.0,0.0,0.0,0
42078,-0.01,0.01,0.99,0.0,0.0,0.0,23.0,14.1,-39.2,0.5,-0.61,-146.58,24.03,1009.97,655.01,0,0.0,0.0,0.0,0.0,0.0,0.0,0
42720,0.0,-0.02,1.01,-0.31,0.62,20.88,25.4,14.5,-39.8,0.58,-0.74,-150.89,24.03,1009.97,655.04,0,0.0,0.0,0.0,0.0,0.0,0.0,0
42783,0.0,-0.02,1.01,-0.31,0.62,20.88,25.4,14.5,-39.8,0.58,-0.74,-150.89,24.03,1009.97,655.01,0,0.0,0.0,0.0,0.0,0.0,0.0,0
42810,-0.02,0.0,1.05,0.37,0.02,17.95,26.9,14.9,-39.3,0.55,-0.71,-152.89,24.03,1009.97,655.0,0,0.0,0.0,0.0,0.0,0.0,0.0,0
43100,-0.04,0.0,0.99,0.12,-0.05,19.95,28.3,14.2,0.2,0.54,-0.75,-154.56,24.04,1009.96,655.06,0,0.0,0.0,0.0,0.0,0.0,0.0,0
43828,-0.01,0.0,0.99,0.0,0.0,0.0,32.5,11.2,-38.6,0.39,-0.58,-162.05,24.04,1009.96,655.06,0,0.0,0.0,0.0,0.0,0.0,0.0,0
43910,-0.01,0.0,0.99,0.0,0.0,0.0,32.5,11.2,-38.6,0.39,-0.58,-162.05,24.04,1009.96,655.06,0,0.0,0.0,0.0,0.0,0.0,0.0,0
43969,-0.01,0.0,0.99,0.0,0.0,0.0,32.2,11.4,-38.6,0.39,-0.58,-162.05,24.04,1009.96,655.07,0,0.0,0.0,0.0,0.0,0.0,0.0,0
44063,-0.01,0.0,0.99,0.0,0.0,0.0,32.2,11.4,-38.6,0.39,-0.58,-162.05,24.04,1009.96,655.07,0,0.0,0.0,0.0,0.0,0.0,0.0,0
44095,-0.01,0.0,0.99,0.0,0.0,0.0,32.5,11.0,-38.9,0.39,-0.58,-162.05,24.03,1009.97,655.02,0,0.0,0.0,0.0,0.0,0.0,0.0,0
44161,-0.01,0.0,0.99,0.0,0.0,0.0,32.5,11.0,-38.9,0.39,-0.58,-162.05,24.03,1009.97,655.02,0,0.0,0.0,0.0,0.0,0.0,0.0,0
44174,-0.01,0.0,0.99,0.0,0.0,0.0,32.2,11.5,-38.2,0.4,-0.58,-162.05,24.02,1009.97,654.98,0,0.0,0.0,0.0,0.0,0.0,0.0,0
44269,-0.01,0.0,0.0,0.0,0.0,0.0,0.0,0.0,0.0,0.4,-0.58,-162.05,24.02,1009.97,654.98,0,0.0,0.0,0.0,0.0,0.0,0.0,0
44976,-0.01,0.0,0.99,0.0,0.0,0.0,32.7,11.4,-38.8,0.42,-0.61,-162.05,24.02,1009.98,654.92,0,0.0,0.0,0.0,0.0,0.0,0.0,0
45065,-0.01,0.0,0.99,0.0,0.0,0.0,32.5,11.2,-38.1,0.43,-0.61,-162.05,24.02,1009.98,654.92,0,0.0,0.0,0.0,0.0,0.0,0.0,0
45081,-0.01,0.0,0.99,0.0,0.0,0.0,32.5,11.2,-38.1,0.43,-0.61,-162.05,24.02,1009.98,654.92,0,0.0,0.0,0.0,0.0,0.0,0.0,0
45112,-0.01,0.0,0.99,0.0,0.0,0.0,32.2,11.2,-38.6,0.43,-0.61,-162.05,24.01,1009.98,654.92,0,0.0,0.0,0.0,0.0,0.0,0.0,0
45130,-0.01,0.0,0.99,0.0,0.0,0.0,32.2,11.2,-38.6,0.43,-0.61,-162.05,24.01,1009.98,654.92,0,0.0,0.0,0.0,0.0,0.0,0.0,0
45161,-0.01,0.0,0.99,0.0,0.0,0.0,32.3,11.3,-38.3,0.43,-0.61,-162.05,24.01,1009.98,654.92,0,0.0,0.0,0.0,0.0,0.0,0.0,0
45296,-0.01,0.0,0.99,0.0,0.0,0.0,32.3,11.3,-38.3,0.43,-0.61,-162.05,24.02,1009.98,654.95,0,0.0,0.0,0.0,0.0,0.0,0.0,0
45327,-0.01,0.0,0.99,0.0,0.0,0.0,32.7,11.2,-38.7,0.43,-0.62,-162.05,24.01,1009.98,654.9,0,0.0,0.0,0.0,0.0,0.0,0.0,0
46005,-0.03,0.0,0.98,1.2,-0.9,-34.68,31.1,11.8,-38.6,0.33,-0.54,-158.81,24.04,1009.97,655.02,0,0.0,0.0,0.0,0.0,0.0,0.0,0
46016,-0.02,0.02,0.89,-1.48,0.72,-40.21,29.0,12.8,-38.9,0.4,-0.51,-155.47,24.04,1009.97,655.02,0,0.0,0.0,0.0,0.0,0.0,0.0,0
46075,-0.02,0.02,0.89,-1.48,0.72,-40.21,29.0,12.8,-38.9,0.4,-0.51,-155.47,24.04,1009.97,655.02,0,0.0,0.0,0.0,0.0,0.0,0.0,0
46137,-0.02,0.02,0.89,-1.48,0.72,-40.21,29.0,12.8,-38.9,0.4,-0.51,-155.47,24.04,1009.97,655.05,0,0.0,0.0,0.0,0.0,0.0,0.0,0
46205,-0.02,0.02,0.89,-1.48,0.72,-40.21,29.0,12.8,-38.9,0.4,-0.51,-155.47,24.04,1009.97,655.05,0,0.0,0.0,0.0,0.0,0.0,0.0,0
46883,-0.05,0.04,0.95,0.78,0.51,-37.2,5.0,-113.7,1.2,0.52,-0.71,-115.74,24.02,1009.98,654.91,0,0.0,0.0,0.0,0.0,0.0,0.0,0
46903,0.0,-0.02,1.04,0.09,-0.52,-21.06,2.1,16.1,-42.7,0.58,-0.74,-111.54,24.03,1009.98,654.95,0,0.0,0.0,0.0,0.0,0.0,0.0,0
47601,-0.01,0.01,0.99,0.0,0.0,0.0,-3.2,15.1,-43.5,0.64,-0.7,-103.06,24.04,1009.98,654.97,0,0.0,0.0,0.0,0.0,0.0,0.0,0
48362,0.0,0.01,0.99,0.0,0.0,0.0,-3.0,15.1,-43.0,0.63,-0.69,-103.05,24.08,1009.96,655.11,0,0.0,0.0,0.0,0.0,0.0,0.0,0
48438,-0.01,0.01,0.99,0.0,0.0,0.0,-3.2,10.0,0.0,0.63,-0.69,-103.05,24.08,1009.96,655.13,0,0.0,0.0,0.0,0.0,0.0,0.0,0
48535,-0.01,0.01,0.99,0.0,0.0,0.0,-3.2,15.1,-43.2,0.63,-0.69,-103.05,24.08,1009.95,655.15,0,0.0,0.0,0.0,0.0,0.0,0.0,0
48605,-0.01,0.01,0.99,0.0,0.0,0.0,-3.2,15.1,-43.2,0.63,-0.69,-103.05,24.08,1009.95,655.15,0,0.0,0.0,0.0,0.0,0.0,0.0,0
48615,-0.01,0.0,0.99,0.0,0.0,0.0,-3.6,15.2,-43.3,0.63,-0.69,-103.05,24.08,1009.95,655.16,0,0.0,0.0,0.0,0.0,0.0,0.0,0
48697,-0.01,0.01,0.0,0.0,0.0,0.0,0.0,0.0,0.9,0.63,-0.69,-103.05,24.08,1009.95,655.16,0,0.0,0.0,0.0,0.0,0.0,0.0,0
48762,-0.01,0.01,0.99,0.0,0.0,0.0,-3.0,15.3,-43.0,0.63,-0.69,-103.05,24.08,1009.95,655.16,0,0.0,0.0,0.0,0.0,0.0,0.0,0
48843,-0.01,0.01,0.99,0.0,0.0,0.0,-3.0,15.3,-43.0,0.63,-0.69,-103.05,24.08,1009.95,655.16,0,0.0,0.0,0.0,0.0,0.0,0.0,0
49460,-0.01,0.01,0.99,0.0,0.0,0.0,-3.2,15.1,-43.2,0.62,-0.68,-103.11,24.04,1009.97,654.99,0,0.0,0.0,0.0,0.0,0.0,0.0,0
49534,-0.01,0.01,0.99,0.0,0.0,0.0,-3.2,15.1,-43.2,0.62,-0.68,-103.11,24.04,1009.97,655.0,0,0.0,0.0,0.0,0.0,0.0,0.0,0
49596,-0.01,0.01,0.99,0.0,0.0,0.0,-3.2,15.1,-43.2,0.62,-0.68,-103.11,24.04,1009.97,655.0,0,0.0,0.0,0.0,0.0,0.0,0.0,0
49642,-0.01,0.01,0.99,0.0,0.0,0.0,-3.3,15.0,-43.4,0.61,-0.68,-103.12,24.04,1009.98,654.96,0,0.0,0.0,0.0,0.0,0.0,0.0,0
49713,-0.01,0.01,0.99,0.0,0.0,0.0,-3.3,15.0,-43.4,0.61,-0.68,-103.12,24.04,1009.98,654.96,0,0.0,0.0,0.0,0.0,0.0,0.0,0
49758,-0.01,0.01,0.99,0.0,0.0,0.0,-3.0,15.3,-43.2,0.62,-0.68,-103.12,24.03,1009.98,654.93,0,0.0,0.0,0.0,0.0,0.0,0.0,0
49840,-0.01,0.01,0.99,0.0,0.0,0.0,-3.0,15.3,-43.2,0.62,-0.68,-103.12,24.03,1009.98,654.93,0,0.0,0.0,0.0,0.0,0.0,0.0,0
49859,-0.01,0.01,0.99,0.0,0.0,0.0,-3.1,15.4,-43.6,0.62,-0.68,-103.12,24.03,1009.98,654.93,0,0.0,0.0,0.0,0.0,0.0,0.0,0
49898,-0.01,0.01,0.99,0.0,0.0,0.0,-3.1,15.4,-43.6,0.62,-0.68,-103.12,24.03,1009.99,654.88,0,0.0,0.0,0.0,0.0,0.0,0.0,0
49929,-0.01,0.01,0.99,0.0,0.0,0.0,-2.7,15.1,-43.4,0.61,-0.68,-103.12,24.03,1009.98,654.93,0,0.0,0.0,0.0,0.0,0.0,0.0,0
50015,-0.01,-0.68,-103.28,0.0,0.0,0.0,0.0,0.0,0.0,0.61,-0.68,-103.12,24.04,1009.97,654.98,0,0.0,0.0,0.0,0.0,0.0,0.0,0
50120,-0.01,-0.68,-103.28,0.0,0.0,0.0,0.0,0.0,0.0,0.61,-0.68,-103.12,24.04,1009.97,654.98,0,0.0,0.0,0.0,0.0,0.0,0.0,0
50144,-0.01,0.01,0.99,0.02,-0.02,0.77,-2.9,15.0,-43.4,0.61,-0.68,-103.3,24.04,1009.98,654.96,0,0.0,0.0,0.0,0.0,0.0,0.0,0
50226,-0.01,0.01,1.01,-0.05,-0.08,0.76,-2.9,15.2,-43.9,0.61,-0.68,-103.3,24.04,1009.97,654.98,0,0.0,0.0,0.0,0.0,0.0,0.0,0
50321,0.0,0.01,0.99,-0.41,-0.28,4.73,-2.5,15.3,-43.9,0.6,-0.68,-103.57,24.04,1009.97,655.02,0,0.0,0.0,0.0,0.0,0.0,0.0,0
50405,0.0,0.01,0.99,-0.41,-0.28,4.73,-2.5,15.3,-43.9,0.6,-0.68,-103.57,24.04,1009.97,655.02,0,0.0,0.0,0.0,0.0,0.0,0.0,0
50428,0.0,0.03,0.98,0.2,0.21,4.37,-2.4,15.3,-43.8,0.6,-0.68,-103.94,24.04,1009.97,655.02,0,0.0,0.0,0.0,0.0,0.0,0.0,0
50470,0.0,0.03,0.98,0.2,0.21,4.37,-2.4,15.3,-43.8,0.6,-0.68,-103.94,24.05,1009.97,655.04,0,0.0,0.0,0.0,0.0,0.0,0.0,0
51208,-0.01,0.01,0.99,0.0,0.0,0.0,-1.5,14.9,-43.2,0.58,-0.69,-104.7,24.05,1009.96,655.08,0,0.0,0.0,0.0,0.0,0.0,0.0,0
51283,-0.01,0.01,0.99,0.0,0.0,0.0,-1.8,15.3,-42.8,0.58,-0.69,-104.7,24.05,1009.96,655.08,0,0.0,0.0,0.0,0.0,0.0,0.0,0
51307,-0.01,0.01,0.99,0.0,0.0,0.0,-1.8,15.3,-42.8,0.58,-0.69,-104.7,24.04,1009.96,655.07,0,0.0,0.0,0.0,0.0,0.0,0.0,0
51351,-0.01,0.01,0.99,0.0,0.0,0.0,-1.8,15.7,-42.8,0.58,-0.68,-104.7,24.04,1009.96,655.07,0,0.0,0.0,0.0,0.0,0.0,0.0,0
51405,-0.01,0.01,0.99,0.0,0.0,0.0,-1.8,15.7,-42.8,0.58,-0.68,-104.7,24.05,1009.97,655.04,0,0.0,0.0,0.0,0.0,0.0,0.0,0
52254,-0.01,0.0,8.0,0.0,0.0,0.0,-104.7,0.0,0.0,0.6,-0.68,-104.7,24.03,1009.98,654.96,0,0.0,0.0,0.0,0.0,0.0,0.0,0
52291,-0.01,0.01,0.99,0.0,0.0,0.0,-2.2,15.5,-43.2,0.6,-0.68,-104.7,24.03,1009.98,654.96,0,0.0,0.0,0.0,0.0,0.0,0.0,0
52301,-0.01,0.01,0.99,0.0,0.0,0.0,-2.2,15.5,-43.2,0.6,-0.68,-104.7,24.03,1009.98,654.96,0,0.0,0.0,0.0,0.0,0.0,0.0,0
52309,-0.01,0.01,0.99,0.0,0.0,0.0,-1.8,15.8,-43.1,0.6,-0.68,-104.7,24.03,1009.98,654.96,0,0.0,0.0,0.0,0.0,0.0,0.0,0
52390,-0.01,0.01,0.99,0.0,0.0,0.0,-1.8,15.8,-43.1,0.6,-0.68,-104.7,24.03,1009.98,654.96,0,0.0,0.0,0.0,0.0,0.0,0.0,0
52403,-0.01,0.01,0.99,0.0,0.0,0.0,-2.0,15.8,-43.0,0.6,-0.68,-104.7,24.04,1009.97,655.0,0,0.0,0.0,0.0,0.0,0.0,0.0,0
52484,-0.01,0.01,0.99,0.0,0.0,0.0,-2.0,15.8,-43.0,0.6,-0.68,-104.7,24.04,1009.97,655.0,0,0.0,0.0,0.0,0.0,0.0,0.0,0
52532,0.0,0.0,0.99,0.0,0.0,0.0,-1.6,15.5,-43.3,0.6,-0.68,-104.7,24.04,1009.97,655.02,0,0.0,0.0,0.0,0.0,0.0,0.0,0
52613,0.0,0.0,0.99,0.0,0.0,0.0,-1.6,15.5,-43.3,0.6,-0.68,-104.7,24.04,1009.97,655.02,0,0.0,0.0,0.0,0.0,0.0,0.0,0
53187,0.0,-0.01,0.01,-104.7,0.0,0.0,0.9,-1.6,15.5,0.6,0.0,-0.68,24.03,1009.98,654.97,0,0.0,0.0,0.0,0.0,0.0,0.0,0
53317,-0.01,0.01,0.7,0.0,0.0,0.0,0.0,0.0,0.0,0.6,-0.68,-104.7,24.03,1009.97,655.0,0,0.0,0.0,0.0,0.0,0.0,0.0,0
53444,-0.01,0.01,0.99,0.0,0.0,0.0,-1.5,15.8,-43.1,0.61,-0.68,-104.7,24.01,1009.99,654.88,0,0.0,0.0,0.0,0.0,0.0,0.0,0
53538,-0.01,0.01,0.99,0.0,0.0,0.0,-1.8,15.7,-43.4,0.61,-0.68,-104.7,24.01,1009.99,654.88,0,0.0,0.0,0.0,0.0,0.0,0.0,0
53586,-0.01,0.01,0.99,0.0,0.0,0.0,-1.3,15.5,-43.3,0.61,-0.68,-104.7,24.01,1009.99,654.87,0,0.0,0.0,0.0,0.0,0.0,0.0,0
53660,-0.01,0.01,0.99,0.0,0.0,0.0,-1.3,15.5,-43.3,0.61,-0.68,-104.7,24.01,1009.99,654.87,0,0.0,0.0,0.0,0.0,0.0,0.0,0
53712,-0.01,0.01,0.99,0.0,0.0,0.0,-1.3,15.5,-43.3,0.61,-0.68,-104.7,24.01,1009.99,654.86,0,0.0,0.0,0.0,0.0,0.0,0.0,0
53776,-0.01,0.01,0.99,0.0,0.0,0.0,-2.0,15.7,-42.8,0.61,-0.68,-104.7,24.01,1009.99,654.86,0,0.0,0.0,0.0,0.0,0.0,0.0,0
53798,-0.01,0.01,0.99,0.0,0.0,0.0,-2.0,15.7,-42.8,0.61,-0.68,-104.7,24.01,1009.99,654.86,0,0.0,0.0,0.0,0.0,0.0,0.0,0
53824,0.0,0.01,0.99,0.0,0.0,0.0,-1.8,15.7,-42.9,0.61,-0.67,-104.7,24.01,1009.99,654.86,0,0.0,0.0,0.0,0.0,0.0,0.0,0
53851,0.0,0.01,0.99,0.0,0.0,0.0,-1.8,15.7,-42.9,0.61,-0.67,-104.7,24.01,1009.99,654.86,0,0.0,0.0,0.0,0.0,0.0,0.0,0
53896,-0.01,0.01,0.99,0.0,0.0,0.0,-1.9,15.7,-43.0,0.61,-0.68,-104.7,24.01,1009.99,654.86,0,0.0,0.0,0.0,0.0,0.0,0.0,0
54028,-0.01,0.01,0.99,0.0,0.0,0.0,-1.9,15.7,-43.0,0.61,-0.68,-104.7,24.02,1009.99,654.89,0,0.0,0.0,0.0,0.0,0.0,0.0,0
54071,-0.01,0.01,0.99,0.0,0.0,0.0,-1.8,15.8,-42.8,0.61,-0.68,-104.7,24.02,1009.99,654.89,0,0.0,0.0,0.0,0.0,0.0,0.0,0
54111,-0.01,0.01,0.99,0.0,0.0,0.0,-1.8,15.8,-42.8,0.61,-0.68,-104.7,24.01,1009.99,654.84,0,0.0,0.0,0.0,0.0,0.0,0.0,0
54132,-0.01,0.0,0.99,0.0,0.0,0.0,-1.8,16.0,-43.3,0.61,-0.67,-104.7,24.01,1009.98,654.9,0,0.0,0.0,0.0,0.0,0.0,0.0,0
54950,-0.01,0.01,0.99,0.0,0.0,0.0,-1.4,15.9,-43.1,0.61,-0.67,-104.7,24.04,1009.97,655.0,0,0.0,0.0,0.0,0.0,0.0,0.0,0
54964,-0.01,0.01,0.99,0.0,0.0,0.0,-1.8,15.8,-43.3,0.61,-0.67,-104.7,24.05,1009.97,655.04,0,0.0,0.0,0.0,0.0,0.0,0.0,0
55059,-0.01,0.01,0.99,0.0,0.0,0.0,-1.8,15.8,-43.3,0.61,-0.67,-104.7,24.05,1009.97,655.04,0,0.0,0.0,0.0,0.0,0.0,0.0,0
55103,0.0,0.01,0.99,0.0,0.0,0.0,-1.5,15.5,-42.8,0.61,-0.68,-104.7,24.05,1009.96,655.1,0,0.0,0.0,0.0,0.0,0.0,0.0,0
55186,0.0,0.01,0.99,0.0,0.0,0.0,-1.5,15.5,-42.8,0.61,-0.68,-104.7,24.05,1009.96,655.1,0,0.0,0.0,0.0,0.0,0.0,0.0,0
55220,0.0,0.01,0.99,0.0,0.0,0.0,-1.5,15.5,-42.8,0.61,-0.68,-104.7,24.05,1009.96,655.1,0,0.0,0.0,0.0,0.0,0.0,0.0,0
55235,-0.01,0.01,0.99,0.0,0.0,0.0,-1.5,15.8,-43.3,0.61,-0.67,-104.7,24.04,1009.96,655.06,0,0.0,0.0,0.0,0.0,0.0,0.0,0
55329,0.0,0.0,-0.01,0.0,0.0,0.0,0.0,0.9,-1.6,0.61,-0.68,-104.7,24.04,1009.97,655.04,0,0.0,0.0,0.0,0.0,0.0,0.0,0
55400,0.0,0.01,0.99,0.0,0.0,0.0,-1.6,16.0,-43.1,0.62,-0.67,-104.7,24.04,1009.97,655.02,0,0.0,0.0,0.0,0.0,0.0,0.0,0
55482,0.0,0.01,0.99,0.0,0.0,0.0,-1.6,16.0,-43.1,0.62,-0.67,-104.7,24.04,1009.97,655.02,0,0.0,0.0,0.0,0.0,0.0,0.0,0
56195,-0.01,0.01,0.01,0.0,0.0,0.0,0.9,-1.6,15.7,0.62,-0.68,-104.7,24.04,1009.97,655.0,0,0.0,0.0,0.0,0.0,0.0,0.0,0
56263,-0.01,0.01,0.99,0.0,0.0,0.0,-2.1,15.8,-43.1,0.61,-0.68,-104.7,24.03,1009.98,654.95,0,0.0,0.0,0.0,0.0,0.0,0.0,0
56285,-0.01,0.01,0.99,0.0,0.0,0.0,-2.1,15.8,-43.1,0.61,-0.68,-104.7,24.03,1009.98,654.95,0,0.0,0.0,0.0,0.0,0.0,0.0,0
56312,-0.01,0.01,0.99,0.0,0.0,0.0,-2.1,15.8,-43.1,0.61,-0.68,-104.7,24.03,1009.98,654.95,0,0.0,0.0,0.0,0.0,0.0,0.0,0
56321,0.0,0.01,0.99,0.0,0.0,0.0,-1.5,15.8,-43.0,0.61,-0.68,-104.7,24.03,1009.98,654.95,0,0.0,0.0,0.0,0.0,0.0,0.0,0
56401,0.0,0.01,0.99,0.0,0.0,0.0,-1.5,15.8,-43.0,0.61,-0.68,-104.7,24.03,1009.98,654.95,0,0.0,0.0,0.0,0.0,0.0,0.0,0
56437,0.0,0.01,0.99,0.0,0.0,0.0,-1.5,15.8,-43.0,0.61,-0.68,-104.7,24.03,1009.98,654.97,0,0.0,0.0,0.0,0.0,0.0,0.0,0
56487,0.0,0.01,0.99,0.0,0.0,0.0,-1.5,15.8,-43.0,0.61,-0.68,-104.7,24.03,1009.98,654.97,0,0.0,0.0,0.0,0.0,0.0,0.0,0
56519,-0.01,0.01,0.99,0.0,0.0,0.0,-1.8,15.9,-43.3,0.61,-0.68,-104.7,24.04,1009.97,655.03,0,0.0,0.0,0.0,0.0,0.0,0.0,0
56575,-0.01,0.01,0.99,0.0,0.0,0.0,-1.8,15.9,-43.3,0.61,-0.68,-104.7,24.04,1009.97,655.03,0,0.0,0.0,0.0,0.0,0.0,0.0,0
56608,-0.01,0.01,0.99,0.0,0.0,0.0,-1.8,15.9,-43.3,0.61,-0.68,-104.7,24.04,1009.97,655.03,0,0.0,0.0,0.0,0.0,0.0,0.0,0
56750,-0.01,0.0,0.99,0.0,0.0,0.0,-1.8,15.7,-43.1,0.61,-0.68,-104.7,24.05,1009.97,655.05,0,0.0,0.0,0.0,0.0,0.0,0.0,0
56803,-0.01,0.0,0.99,0.0,0.0,0.0,-1.8,15.7,-43.1,0.61,-0.68,-104.7,24.05,1009.97,655.05,0,0.0,0.0,0.0,0.0,0.0,0.0,0
56839,-0.01,0.0,0.99,0.0,0.0,0.0,-1.9,16.1,-42.0,0.61,-0.68,-104.7,24.03,1009.98,654.96,0,0.0,0.0,0.0,0.0,0.0,0.0,0
57519,-0.01,0.01,0.99,0.0,0.0,0.0,-1.8,15.9,-43.2,0.61,-0.68,-104.7,24.03,1009.98,654.95,0,0.0,0.0,0.0,0.0,0.0,0.0,0
57601,-0.01,0.01,0.99,0.0,0.0,0.0,-1.8,15.9,-43.2,0.61,-0.68,-104.7,24.03,1009.98,654.95,0,0.0,0.0,0.0,0.0,0.0,0.0,0
57614,-0.01,0.01,0.99,0.0,0.0,0.0,-1.9,16.0,-43.1,0.61,-0.68,-104.7,24.03,1009.98,654.95,0,0.0,0.0,0.0,0.0,0.0,0.0,0
57636,-0.01,0.01,0.99,0.0,0.0,0.0,-1.9,16.0,-43.1,0.61,-0.68,-104.7,24.03,1009.98,654.93,0,0.0,0.0,0.0,0.0,0.0,0.0,0
57686,-0.01,0.01,0.99,0.0,0.0,0.0,-1.9,16.0,-43.1,0.61,-0.68,-104.7,24.03,1009.98,654.93,0,0.0,0.0,0.0,0.0,0.0,0.0,0
57718,-0.01,0.01,0.99,0.0,0.0,0.0,-1.6,16.0,-43.2,0.61,-0.68,-104.7,24.04,1009.98,654.97,0,0.0,0.0,0.0,0.0,0.0,0.0,0
57796,-0.01,0.01,0.99,0.0,0.0,0.0,-1.6,16.0,-43.2,0.61,-0.68,-104.7,24.04,1009.97,655.03,0,0.0,0.0,0.0,0.0,0.0,0.0,0
57854,-0.01,0.01,0.99,0.0,0.0,0.0,-1.6,16.0,-43.2,0.61,-0.68,-104.7,24.04,1009.97,655.03,0,0.0,0.0,0.0,0.0,0.0,0.0,0
57912,-0.01,0.01,0.99,0.0,0.0,0.0,-1.6,15.7,-42.0,0.61,-0.68,-104.7,24.05,1009.96,655.08,0,0.0,0.0,0.0,0.0,0.0,0.0,0
58057,-0.01,0.01,0.99,0.0,0.0,0.0,-1.6,15.7,-42.0,0.61,-0.68,-104.7,24.05,1009.96,655.08,0,0.0,0.0,0.0,0.0,0.0,0.0,0
58103,-0.01,0.01,0.99,0.0,0.0,0.0,-1.6,15.7,-42.0,0.61,-0.68,-104.7,24.04,1009.97,655.03,0,0.0,0.0,0.0,0.0,0.0,0.0,0
58765,-0.01,0.0,0.99,0.0,0.0,0.0,-1.9,15.4,-43.4,0.61,-0.68,-104.7,24.03,1009.98,654.94,0,0.0,0.0,0.0,0.0,0.0,0.0,0
58840,0.0,0.01,0.99,0.0,0.0,0.0,-0.6,-0.6,-104.7,0.62,-0.68,-104.7,24.04,1009.97,654.98,0,0.0,0.0,0.0,0.0,0.0,0.0,0
58963,-0.01,0.0,0.9,0.0,0.0,0.0,0.0,0.0,0.0,0.61,-0.68,-104.7,24.04,1009.97,654.98,0,0.0,0.0,0.0,0.0,0.0,0.0,0
59041,-0.01,0.0,0.9,0.0,0.0,0.0,0.0,0.0,0.0,0.61,-0.68,-104.7,24.04,1009.97,655.03,0,0.0,0.0,0.0,0.0,0.0,0.0,0
59091,-0.01,0.0,0.9,0.0,0.0,0.0,0.0,0.0,0.0,0.61,-0.68,-104.7,24.04,1009.97,655.03,0,0.0,0.0,0.0,0.0,0.0,0.0,0
59122,-0.01,0.01,0.99,0.0,0.0,0.0,-2.2,15.3,-43.3,0.61,-0.69,-104.7,24.03,1009.97,655.02,0,0.0,0.0,0.0,0.0,0.0,0.0,0
59205,-0.01,0.01,0.99,0.0,0.0,0.0,-2.2,15.3,-43.3,0.61,-0.69,-104.7,24.03,1009.97,655.02,0,0.0,0.0,0.0,0.0,0.0,0.0,0
60042,0.02,0.09,0.98,-1.43,0.47,55.78,9.2,15.7,-55.0,0.85,-0.52,-124.54,24.07,1009.96,655.11,0,0.0,0.0,0.0,0.0,0.0,0.0,0
60072,0.03,0.12,0.88,-0.9,0.64,72.29,13.6,15.2,-41.8,0.85,-0.5,-132.3,24.07,1009.96,655.11,0,0.0,0.0,0.0,0.0,0.0,0.0,0
60081,0.03,0.12,0.88,-0.9,0.64,72.29,13.6,15.2,-41.8,0.85,-0.5,-132.3,24.07,1009.96,655.11,0,0.0,0.0,0.0,0.0,0.0,0.0,0
60210,0.03,0.12,0.88,-0.9,0.64,72.29,13.6,15.2,-41.8,0.85,-0.5,-132.3,24.07,1009.96,655.11,0,0.0,0.0,0.0,0.0,0.0,0.0,0
60234,0.03,0.12,0.88,-0.9,0.64,72.29,13.6,15.2,-41.8,0.85,-0.5,-132.3,24.05,1009.97,655.04,0,0.0,0.0,0.0,0.0,0.0,0.0,0
60326,0.0,0.0,0.99,-0.3,-0.11,8.22,22.5,14.2,-41.6,0.6,-0.6,-146.35,24.06,1009.97,655.02,0,0.0,0.0,0.0,0.0,0.0,0.0,0
60408,-0.01,0.0,0.99,0.01,0.07,8.16,22.8,14.1,-41.5,0.6,-0.58,-146.42,24.06,1009.97,655.02,0,0.0,0.0,0.0,0.0,0.0,0.0,0
60429,-0.01,0.0,0.99,0.01,0.07,8.16,22.8,14.1,-41.5,0.6,-0.58,-146.42,24.06,1009.97,655.02,0,0.0,0.0,0.0,0.0,0.0,0.0,0
60437,-0.01,0.0,0.99,0.0,0.0,0.0,23.2,14.0,-41.1,0.55,-0.6,-146.59,24.06,1009.97,655.05,0,0.0,0.0,0.0,0.0,0.0,0.0,0
60515,-0.01,0.0,0.99,0.0,0.0,0.0,23.2,14.0,-41.1,0.55,-0.6,-146.59,24.06,1009.97,655.05,0,0.0,0.0,0.0,0.0,0.0,0.0,0
60560,-0.01,0.0,0.99,0.0,0.0,0.0,23.2,14.0,-41.1,0.55,-0.6,-146.59,24.06,1009.97,655.04,0,0.0,0.0,0.0,0.0,0.0,0.0,0
60609,-0.01,0.0,0.99,0.0,0.0,0.0,23.2,14.0,-41.1,0.55,-0.6,-146.59,24.06,1009.97,655.04,0,0.0,0.0,0.0,0.0,0.0,0.0,0
61338,-0.01,0.0,0.99,0.0,0.0,0.0,22.7,13.9,-41.4,0.52,-0.61,-146.59,24.04,1009.98,654.89,0,0.0,0.0,0.0,0.0,0.0,0.0,0
61419,-0.01,0.0,0.99,0.0,0.0,0.0,22.7,13.9,-41.4,0.52,-0.61,-146.59,24.04,1009.98,654.89,0,0.0,0.0,0.0,0.0,0.0,0.0,0
61457,-0.01,0.0,0.99,0.0,0.0,0.0,22.9,14.3,-41.8,0.52,-0.62,-146.59,24.03,1009.99,654.86,0,0.0,0.0,0.0,0.0,0.0,0.0,0
61547,-0.01,0.0,0.99,0.0,0.0,0.0,22.9,14.3,-41.8,0.52,-0.62,-146.59,24.03,1009.99,654.86,0,0.0,0.0,0.0,0.0,0.0,0.0,0
61573,-0.01,0.0,0.99,0.0,0.0,0.0,22.8,13.9,-41.5,0.51,-0.62,-146.59,24.03,1009.99,654.87,0,0.0,0.0,0.0,0.0,0.0,0.0,0
61654,-0.01,0.0,0.99,0.0,0.0,0.0,22.6,13.9,-41.3,0.51,-0.62,-146.59,24.03,1009.99,654.87,0,0.0,0.0,0.0,0.0,0.0,0.0,0
61735,-0.01,0.0,0.99,0.0,0.0,0.0,22.6,13.9,-41.3,0.51,-0.62,-146.59,24.03,1009.99,654.87,0,0.0,0.0,0.0,0.0,0.0,0.0,0
61806,-0.01,0.0,0.99,0.0,0.0,0.0,22.6,13.9,-41.3,0.51,-0.62,-146.59,24.04,1009.98,654.92,0,0.0,0.0,0.0,0.0,0.0,0.0,0
61843,-0.01,0.0,0.99,0.0,0.0,0.0,22.6,13.9,-41.3,0.51,-0.62,-146.59,24.04,1009.98,654.92,0,0.0,0.0,0.0,0.0,0.0,0.0,0
62482,0.0,0.01,0.92,1.08,-0.45,-40.0,3.2,15.4,-42.9,0.55,-0.79,-111.52,24.03,1009.98,654.89,0,0.0,0.0,0.0,0.0,0.0,0.0,0
62621,0.0,0.01,0.92,1.08,-0.45,-40.0,3.2,15.4,-42.9,0.55,-0.79,-111.52,24.03,1009.98,654.9,0,0.0,0.0,0.0,0.0,0.0,0.0,0
62650,0.0,0.01,0.92,1.08,-0.45,-40.0,3.2,15.4,-42.9,0.55,-0.79,-111.52,24.03,1009.98,654.9,0,0.0,0.0,0.0,0.0,0.0,0.0,0
62671,-0.01,0.0,0.99,0.14,-0.18,-4.06,0.8,14.7,-43.4,0.69,-0.7,-108.46,24.03,1009.99,654.84,0,0.0,0.0,0.0,0.0,0.0,0.0,0
62766,-0.01,0.0,0.99,0.14,-0.18,-4.06,0.8,14.7,-43.4,0.69,-0.7,-108.46,24.03,1009.99,654.84,0,0.0,0.0,0.0,0.0,0.0,0.0,0
62775,-0.01,0.0,0.99,0.0,0.0,0.0,0.9,15.4,-43.2,0.69,-0.71,-108.24,24.03,1009.99,654.86,0,0.0,0.0,0.0,0.0,0.0,0.0,0
62855,-0.01,0.0,0.99,0.0,0.0,0.0,0.8,15.2,-43.4,0.69,-0.7,-108.24,24.03,1009.99,654.88,0,0.0,0.0,0.0,0.0,0.0,0.0,0
62936,-0.01,0.0,0.99,0.0,0.0,0.0,0.5,15.5,-43.0,0.69,-0.7,-108.24,24.03,1009.99,654.88,0,0.0,0.0,0.0,0.0,0.0,0.0,0
63009,-0.01,0.0,0.99,0.0,0.0,0.0,0.5,15.5,-43.0,0.69,-0.7,-108.24,24.04,1009.98,654.93,0,0.0,0.0,0.0,0.0,0.0,0.0,0
63060,-0.01,0.0,0.99,0.0,0.0,0.0,0.6,15.2,-43.5,0.67,-0.7,-108.24,24.04,1009.98,654.91,0,0.0,0.0,0.0,0.0,0.0,0.0,0
63140,-0.01,0.0,0.99,0.0,0.0,0.0,0.6,15.2,-43.5,0.67,-0.7,-108.24,24.04,1009.98,654.91,0,0.0,0.0,0.0,0.0,0.0,0.0,0
63154,-0.01,0.0,0.99,0.0,0.0,0.0,0.8,15.3,-43.5,0.66,-0.7,-108.24,24.04,1009.98,654.91,0,0.0,0.0,0.0,0.0,0.0,0.0,0
63198,-0.01,0.0,0.99,0.0,0.0,0.0,0.8,15.3,-43.5,0.66,-0.7,-108.24,24.05,1009.98,654.95,0,0.0,0.0,0.0,0.0,0.0,0.0,0
63277,-0.01,0.0,0.99,0.0,0.0,0.0,0.8,15.3,-43.5,0.66,-0.7,-108.24,24.05,1009.98,654.95,0,0.0,0.0,0.0,0.0,0.0,0.0,0
64034,0.0,-0.01,0.01,8.24,0.0,0.0,0.9,0.6,15.0,0.63,-0.69,-108.24,24.07,1009.97,655.04,0,0.0,0.0,0.0,0.0,0.0,0.0,0
64121,-0.01,0.01,0.99,0.0,0.0,0.0,0.8,15.4,-43.2,0.63,-0.68,-108.24,24.07,1009.97,655.04,0,0.0,0.0,0.0,0.0,0.0,0.0,0
64176,-0.01,0.01,0.99,0.0,0.0,0.0,0.8,15.4,-43.2,0.63,-0.68,-108.24,24.07,1009.96,655.06,0,0.0,0.0,0.0,0.0,0.0,0.0,0
64205,-0.01,0.01,0.99,0.0,0.0,0.0,0.6,15.1,-43.2,0.62,-0.68,-108.24,24.07,1009.96,655.06,0,0.0,0.0,0.0,0.0,0.0,0.0,0
64299,-0.01,0.01,0.99,0.0,0.0,0.0,0.6,15.1,-43.2,0.62,-0.68,-108.24,24.07,1009.96,655.06,0,0.0,0.0,0.0,0.0,0.0,0.0,0
64316,-0.01,0.01,0.99,0.0,0.0,0.0,0.6,15.1,-43.2,0.62,-0.68,-108.24,24.07,1009.96,655.06,0,0.0,0.0,0.0,0.0,0.0,0.0,0
64345,-0.01,0.01,0.99,0.0,0.0,0.0,0.5,15.1,-43.6,0.62,-0.68,-108.24,24.08,1009.97,655.05,0,0.0,0.0,0.0,0.0,0.0,0.0,0
64374,-0.01,0.01,0.99,0.0,0.0,0.0,0.5,15.1,-43.6,0.62,-0.68,-108.24,24.08,1009.97,655.05,0,0.0,0.0,0.0,0.0,0.0,0.0,0
64420,-0.01,0.01,0.99,0.0,0.0,0.0,0.6,15.1,-4.0,0.62,-0.68,-108.24,24.08,1009.96,655.09,0,0.0,0.0,0.0,0.0,0.0,0.0,0
64523,-0.01,0.01,0.99,0.0,0.0,0.0,0.7,15.0,-43.0,0.62,-0.68,-108.24,24.08,1009.96,655.09,0,0.0,0.0,0.0,0.0,0.0,0.0,0
65200,-0.01,0.01,0.99,0.0,0.0,0.0,-6.7,14.1,-43.5,0.68,-0.71,-95.91,24.05,1009.98,654.94,0,0.0,0.0,0.0,0.0,0.0,0.0,0
65257,-0.01,0.01,0.99,0.0,0.0,0.0,-6.7,13.8,-44.2,0.68,-0.71,-95.91,24.05,1009.98,654.94,0,0.0,0.0,0.0,0.0,0.0,0.0,0
65287,-0.01,0.01,0.99,0.0,0.0,0.0,-6.7,14.3,-43.5,0.67,-0.71,-95.91,24.05,1009.98,654.95,0,0.0,0.0,0.0,0.0,0.0,0.0,0
65362,-0.01,0.01,0.99,0.0,0.0,0.0,-6.9,13.8,-43.6,0.67,-0.71,-95.91,24.04,1009.98,654.91,0,0.0,0.0,0.0,0.0,0.0,0.0,0
65443,-0.01,0.0,0.99,0.0,0.0,0.0,-6.7,13.8,-43.4,0.67,-0.71,-95.91,24.04,1009.98,654.91,0,0.0,0.0,0.0,0.0,0.0,0.0,0
65476,-0.01,0.0,0.99,0.0,0.0,0.0,-6.7,13.8,-43.4,0.67,-0.71,-95.91,24.04,1009.98,654.91,0,0.0,0.0,0.0,0.0,0.0,0.0,0
65519,-0.01,0.01,0.99,0.0,0.0,0.0,-6.4,13.7,-43.5,0.66,-0.71,-95.91,24.05,1009.98,654.95,0,0.0,0.0,0.0,0.0,0.0,0.0,0
65594,-0.01,0.01,0.99,0.0,0.0,0.0,-6.4,13.7,-43.5,0.66,-0.71,-95.91,24.05,1009.98,654.95,0,0.0,0.0,0.0,0.0,0.0,0.0,0
65634,-0.01,0.01,0.99,0.0,0.0,0.0,-6.8,14.0,-43.7,0.66,-0.71,-95.91,24.04,1009.98,654.91,0,0.0,0.0,0.0,0.0,0.0,0.0,0
65714,-0.01,0.01,0.99,0.0,0.0,0.0,-6.8,14.0,-43.7,0.66,-0.71,-95.91,24.04,1009.98,654.91,0,0.0,0.0,0.0,0.0,0.0,0.0,0
65760,-0.01,0.01,0.99,0.0,0.0,0.0,-6.8,14.0,-43.7,0.66,-0.71,-95.91,24.04,1009.98,654.91,0,0.0,0.0,0.0,0.0,0.0,0.0,0
65778,-0.01,0.01,0.99,0.0,0.0,0.0,-6.5,13.6,-44.2,0.66,-0.71,-95.91,24.04,1009.98,654.89,0,0.0,0.0,0.0,0.0,0.0,0.0,0
65858,-0.01,0.01,0.99,0.0,0.0,0.0,-6.5,13.6,-44.2,0.66,-0.71,-95.91,24.04,1009.98,654.89,0,0.0,0.0,0.0,0.0,0.0,0.0,0
66660,-0.01,0.0,0.99,0.0,0.0,0.0,-6.6,14.1,-43.6,0.64,-0.72,-95.74,24.07,1009.97,655.0,0,0.0,0.0,0.0,0.0,0.0,0.0,0
66674,-0.01,0.01,0.99,0.0,0.0,0.0,-7.0,14.2,-43.5,0.64,-0.72,-95.74,24.07,1009.97,655.0,0,0.0,0.0,0.0,0.0,0.0,0.0,0
66708,-0.01,0.01,0.99,0.0,0.0,0.0,-7.0,14.2,-43.5,0.64,-0.72,-95.74,24.06,1009.97,654.98,0,0.0,0.0,0.0,0.0,0.0,0.0,0
66787,-0.01,0.01,0.99,0.0,0.0,0.0,-7.0,14.2,-43.5,0.64,-0.72,-95.74,24.06,1009.97,654.98,0,0.0,0.0,0.0,0.0,0.0,0.0,0
66809,-0.01,0.0,0.99,0.0,0.0,0.0,-7.0,14.0,-43.7,0.63,-0.72,-95.74,24.06,1009.98,654.95,0,0.0,0.0,0.0,0.0,0.0,0.0,0
66889,-0.01,0.0,0.99,0.0,0.0,0.0,-7.0,14.0,-43.7,0.63,-0.72,-95.74,24.05,1009.98,654.94,0,0.0,0.0,0.0,0.0,0.0,0.0,0
67509,-0.06,-0.1,0.91,-3.1,1.56,86.64,12.6,14.9,-4.4,0.51,-0.58,-130.71,24.08,1009.97,655.05,0,0.0,0.0,0.0,0.0,0.0,0.0,0
67630,-0.06,-0.1,0.91,-3.1,1.56,86.64,12.6,14.9,-4.4,0.51,-0.58,-130.71,24.08,1009.97,655.05,0,0.0,0.0,0.0,0.0,0.0,0.0,0
67656,0.01,-0.04,0.96,0.65,0.63,46.13,19.2,15.0,-41.7,0.35,-0.68,-140.42,24.06,1009.97,654.97,0,0.0,0.0,0.0,0.0,0.0,0.0,0
67737,0.01,-0.04,0.96,0.65,0.63,46.13,19.2,15.0,-41.7,0.35,-0.68,-140.42,24.06,1009.97,654.97,0,0.0,0.0,0.0,0.0,0.0,0.0,0
67811,-0.06,0.01,0.96,-1.04,-0.04,34.08,21.0,14.5,-145.7,0.25,-0.75,-143.42,24.06,1009.98,654.95,0,0.0,0.0,0.0,0.0,0.0,0.0,0
67846,-0.06,0.01,0.96,-1.04,-0.04,34.08,21.0,14.5,-145.7,0.25,-0.75,-143.42,24.06,1009.98,654.95,0,0.0,0.0,0.0,0.0,0.0,0.0,0
67854,-0.06,0.01,0.96,-1.04,-0.04,34.08,21.0,14.5,-145.7,0.25,-0.75,-143.42,24.06,1009.98,654.95,0,0.0,0.0,0.0,0.0,0.0,0.0,0
67861,-0.01,0.01,0.99,0.0,0.0,0.0,22.7,14.3,-41.1,0.3,-0.69,-145.71,24.06,1009.98,654.95,0,0.0,0.0,0.0,0.0,0.0,0.0,0
67992,-0.01,0.01,0.99,0.0,0.0,0.0,22.7,14.3,-41.1,0.3,-0.69,-145.71,24.06,1009.98,654.95,0,0.0,0.0,0.0,0.0,0.0,0.0,0
68039,0.0,0.0,0.99,0.0,0.0,0.0,23.5,14.4,-41.4,0.33,-0.68,-145.82,24.04,1009.98,654.9,0,0.0,0.0,0.0,0.0,0.0,0.0,0
68120,-0.01,0.0,0.99,0.0,0.0,0.0,23.1,14.6,-41.6,0.33,-0.68,-145.82,24.05,1009.98,654.91,0,0.0,0.0,0.0,0.0,0.0,0.0,0
68201,-0.01,0.0,0.99,0.0,0.0,0.0,23.0,14.4,-41.3,0.33,-0.68,-145.82,24.05,1009.98,654.92,0,0.0,0.0,0.0,0.0,0.0,0.0,0
68295,-0.01,0.0,0.99,0.0,0.0,0.0,23.0,14.6,-40.8,0.33,-0.68,-145.82,24.06,1009.97,654.98,0,0.0,0.0,0.0,0.0,0.0,0.0,0
68924,-0.01,0.0,0.99,0.0,0.0,0.0,22.3,14.2,-41.6,0.42,-0.64,-145.82,24.09,1009.96,655.11,0,0.0,0.0,0.0,0.0,0.0,0.0,0
69018,-0.01,0.0,0.99,0.0,0.0,0.0,22.3,14.2,-41.6,0.42,-0.64,-145.82,24.09,1009.96,655.11,0,0.0,0.0,0.0,0.0,0.0,0.0,0
69050,-0.01,0.0,0.99,0.0,0.0,0.0,22.3,14.2,-41.6,0.42,-0.64,-145.82,24.09,1009.96,655.11,0,0.0,0.0,0.0,0.0,0.0,0.0,0
69835,-0.1,-0.03,0.95,0.61,-0.34,-132.45,16.7,15.3,-42.3,0.31,-0.67,-135.17,24.06,1009.98,654.94,0,0.0,0.0,0.0,0.0,0.0,0.0,0
70460,-0.01,0.0,0.99,0.0,0.0,0.0,-7.6,13.9,-45.8,0.56,-0.58,-97.66,24.06,1009.98,654.95,0,0.0,0.0,0.0,0.0,0.0,0.0,0
70554,-0.02,0.46,-0.01,0.0,0.0,0.0,0.0,0.9,-7.5,0.56,-0.58,-97.66,24.06,1009.98,654.95,0,0.0,0.0,0.0,0.0,0.0,0.0,0
71268,-0.01,0.01,0.99,0.0,0.0,0.0,-7.7,14.2,-45.2,0.58,-0.64,-98.3,24.05,1009.98,654.92,0,0.0,0.0,0.0,0.0,0.0,0.0,0
71350,-0.01,0.01,0.99,0.0,0.0,0.0,-7.7,14.1,-45.5,0.58,-0.64,-98.3,24.06,1009.98,654.89,0,0.0,0.0,0.0,0.0,0.0,0.0,0
71428,-0.01,0.01,0.99,0.0,0.0,0.0,-7.7,14.1,-45.5,0.58,-0.64,-98.3,24.06,1009.98,654.89,0,0.0,0.0,0.0,0.0,0.0,0.0,0
71453,-0.01,0.01,0.99,0.0,0.0,0.0,-7.7,14.1,-45.2,0.6,-0.65,-98.3,24.06,1009.98,654.89,0,0.0,0.0,0.0,0.0,0.0,0.0,0
71499,-0.01,0.01,0.99,0.0,0.0,0.0,-7.7,14.1,-45.2,0.6,-0.65,-98.3,24.06,1009.98,654.92,0,0.0,0.0,0.0,0.0,0.0,0.0,0
71561,-0.01,0.01,0.99,0.0,0.0,0.0,-7.5,14.4,-44.6,0.6,-0.65,-98.3,24.06,1009.98,654.94,0,0.0,0.0,0.0,0.0,0.0,0.0,0
72206,0.0,0.01,0.99,0.0,0.0,0.0,-7.6,14.5,-44.9,0.62,-0.67,-98.3,24.08,1009.96,655.06,0,0.0,0.0,0.0,0.0,0.0,0.0,0
72284,-0.01,0.01,0.99,0.0,0.0,0.0,-7.2,14.1,-45.5,0.62,-0.68,-98.3,24.08,1009.97,655.03,0,0.0,0.0,0.0,0.0,0.0,0.0,0
72364,-0.01,0.01,0.99,0.0,0.0,0.0,-7.2,14.1,-45.5,0.62,-0.68,-98.3,24.08,1009.97,655.03,0,0.0,0.0,0.0,0.0,0.0,0.0,0
72400,-0.01,0.01,0.99,0.0,0.0,0.0,-7.6,14.1,-45.2,0.62,-0.68,-98.3,24.08,1009.97,655.04,0,0.0,0.0,0.0,0.0,0.0,0.0,0
72481,-0.01,0.01,0.99,0.0,0.0,0.0,-7.6,14.1,-45.2,0.62,-0.68,-98.3,24.08,1009.97,655.04,0,0.0,0.0,0.0,0.0,0.0,0.0,0
72522,-0.01,0.01,0.99,0.0,0.0,0.0,-7.6,14.1,-45.2,0.62,-0.68,-98.3,24.08,1009.97,655.04,0,0.0,0.0,0.0,0.0,0.0,0.0,0
72540,-0.01,0.0,0.99,0.0,0.0,0.0,-7.3,14.2,-45.1,0.63,-0.68,-98.3,24.07,1009.96,655.06,0,0.0,0.0,0.0,0.0,0.0,0.0,0
72621,-0.01,0.0,0.99,0.0,0.0,0.0,-7.3,14.2,-45.1,0.63,-0.68,-98.3,24.07,1009.96,655.06,0,0.0,0.0,0.0,0.0,0.0,0.0,0
72671,-0.01,0.01,0.99,0.0,0.0,0.0,-7.5,14.5,-45.1,0.62,-0.68,-98.3,24.07,1009.97,655.03,0,0.0,0.0,0.0,0.0,0.0,0.0,0
72695,0.0,-0.01,0.0,-98.3,0.0,0.0,0.9,-7.5,14.3,0.62,-0.62,-0.69,24.07,1009.97,655.0,0,0.0,0.0,0.0,0.0,0.0,0.0,0
72796,0.0,-0.01,0.0,-98.3,0.0,0.0,0.9,-7.5,14.3,0.62,-0.62,-0.69,24.07,1009.97,655.0,0,0.0,0.0,0.0,0.0,0.0,0.0,0
73604,-0.01,0.01,0.99,0.0,0.0,0.0,-7.3,14.0,-45.1,0.63,-0.69,-98.3,24.09,1009.96,655.1,0,0.0,0.0,0.0,0.0,0.0,0.0,0
73685,-0.01,0.01,0.99,0.0,0.0,0.0,-7.3,14.0,-45.1,0.63,-0.69,-98.3,24.09,1009.96,655.1,0,0.0,0.0,0.0,0.0,0.0,0.0,0
73714,-0.01,0.01,0.99,0.0,0.0,0.0,-7.1,14.2,-45.2,0.63,-0.69,-98.3,24.09,1009.96,655.12,0,0.0,0.0,0.0,0.0,0.0,0.0,0
73808,-0.01,0.01,0.99,0.0,0.0,0.0,-7.1,14.2,-45.2,0.63,-0.69,-98.3,24.09,1009.96,655.12,0,0.0,0.0,0.0,0.0,0.0,0.0,0
73841,-0.01,0.01,0.99,0.0,0.0,0.0,-7.1,14.2,-45.2,0.63,-0.69,-98.3,24.09,1009.96,655.12,0,0.0,0.0,0.0,0.0,0.0,0.0,0
73849,-0.01,0.01,0.99,0.0,0.0,0.0,-7.6,14.1,-45.4,0.63,-0.69,-98.3,24.08,1009.96,655.09,0,0.0,0.0,0.0,0.0,0.0,0.0,0
73929,-0.01,0.01,0.99,0.0,0.0,0.0,-7.6,14.1,-45.4,0.63,-0.69,-98.3,24.08,1009.96,655.09,0,0.0,0.0,0.0,0.0,0.0,0.0,0
73936,-0.01,0.0,0.99,0.0,0.0,0.0,-7.3,14.2,-44.9,0.63,-0.7,-98.3,24.08,1009.96,655.09,0,0.0,0.0,0.0,0.0,0.0,0.0,0
73970,-0.01,0.0,0.99,0.0,0.0,0.0,-7.3,14.2,-44.9,0.63,-0.7,-98.3,24.07,1009.97,655.05,0,0.0,0.0,0.0,0.0,0.0,0.0,0
75160,-0.01,0.0,0.99,0.0,0.0,0.0,-7.2,14.4,-44.9,0.63,-0.7,-98.3,24.1,1009.95,655.15,0,0.0,0.0,0.0,0.0,0.0,0.0,0
76567,-0.01,0.0,0.99,0.0,0.0,0.0,-7.2,14.4,-45.1,0.63,-0.7,-98.3,24.07,1009.97,655.01,0,0.0,0.0,0.0,0.0,0.0,0.0,0
76607,-0.01,0.0,0.99,0.0,0.0,0.0,-7.2,14.4,-45.1,0.63,-0.7,-98.3,24.07,1009.97,655.03,0,0.0,0.0,0.0,0.0,0.0,0.0,0
77334,-0.01,0.01,0.99,0.0,0.0,0.0,-7.2,14.4,-45.2,0.64,-0.7,-98.3,24.09,1009.96,655.11,0,0.0,0.0,0.0,0.0,0.0,0.0,0
77357,-0.01,0.01,0.99,0.0,0.0,0.0,-7.2,14.4,-45.2,0.64,-0.7,-98.3,24.09,1009.96,655.08,0,0.0,0.0,0.0,0.0,0.0,0.0,0
77422,-0.01,0.01,0.99,0.0,0.0,0.0,-7.5,14.4,-414.3,0.63,-0.7,-98.3,24.09,1009.96,655.08,0,0.0,0.0,0.0,0.0,0.0,0.0,0
77522,-0.01,0.01,0.99,0.0,0.0,0.0,-7.8,14.2,-45.5,0.64,-0.7,-98.3,24.09,1009.96,655.08,0,0.0,0.0,0.0,0.0,0.0,0.0,0
77560,-0.01,0.01,0.99,0.0,0.0,0.0,-7.8,14.2,-45.5,0.64,-0.7,-98.3,24.09,1009.96,655.1,0,0.0,0.0,0.0,0.0,0.0,0.0,0
77615,-0.01,0.01,0.99,0.0,0.0,0.0,-7.6,13.8,-45.4,0.63,-0.7,-98.3,24.09,1009.96,655.1,0,0.0,0.0,0.0,0.0,0.0,0.0,0
77658,-0.01,0.01,0.99,0.0,0.0,0.0,-7.6,13.8,-45.4,0.63,-0.7,-98.3,24.09,1009.96,655.09,0,0.0,0.0,0.0,0.0,0.0,0.0,0
78326,-0.01,0.0,1.0,0.0,0.0,0.0,-7.3,14.0,-45.4,0.63,-0.7,-98.3,24.08,1009.97,655.03,0,0.0,0.0,0.0,0.0,0.0,0.0,0
78401,-0.01,0.0,1.0,0.0,0.0,0.0,-7.3,14.0,-45.4,0.63,-0.7,-98.3,24.08,1009.97,655.03,0,0.0,0.0,0.0,0.0,0.0,0.0,0
78419,-0.01,0.01,0.99,0.0,0.0,0.0,-7.7,14.2,-45.2,0.64,-0.7,-98.3,24.08,1009.97,655.05,0,0.0,0.0,0.0,0.0,0.0,0.0,0
78513,-0.01,0.0,0.0,0.0,0.0,0.0,0.0,0.0,0.9,0.64,-0.7,-98.3,24.08,1009.96,655.07,0,0.0,0.0,0.0,0.0,0.0,0.0,0
79173,-0.01,0.0,0.99,0.0,0.0,0.0,-7.3,14.1,-45.5,0.64,-0.7,-98.3,24.09,1009.96,655.12,0,0.0,0.0,0.0,0.0,0.0,0.0,0
79200,-0.01,0.0,0.99,0.0,0.0,0.0,-7.3,14.1,-45.5,0.64,-0.7,-98.3,24.07,1009.97,655.04,0,0.0,0.0,0.0,0.0,0.0,0.0,0
79279,-0.01,0.01,0.99,0.0,0.0,0.0,-7.4,14.3,-44.6,0.64,-0.7,-98.3,24.07,1009.97,655.04,0,0.0,0.0,0.0,0.0,0.0,0.0,0
79301,-0.01,0.01,0.99,0.0,0.0,0.0,-7.4,14.3,-44.6,0.64,-0.7,-98.3,24.07,1009.97,655.04,0,0.0,0.0,0.0,0.0,0.0,0.0,0
79308,-0.01,0.01,0.99,0.0,0.0,0.0,-7.5,14.1,-45.3,0.64,-0.71,-98.3,24.07,1009.97,654.99,0,0.0,0.0,0.0,0.0,0.0,0.0,0
79979,-0.01,0.01,0.99,0.0,0.0,0.0,-7.3,14.2,-45.7,0.63,-0.7,-98.3,24.07,1009.97,655.02,0,0.0,0.0,0.0,0.0,0.0,0.0,0
80072,-0.01,0.01,0.99,0.0,0.0,0.0,-7.3,14.2,-45.7,0.63,-0.7,-98.3,24.07,1009.97,655.02,0,0.0,0.0,0.0,0.0,0.0,0.0,0
80086,-0.01,0.01,0.99,0.0,0.0,0.0,-7.6,14.2,-45.2,0.63,-0.7,-98.3,24.08,1009.96,655.1,0,0.0,0.0,0.0,0.0,0.0,0.0,0
80155,-0.01,0.01,0.99,0.0,0.0,0.0,-7.6,14.2,-45.2,0.63,-0.7,-98.3,24.08,1009.96,655.1,0,0.0,0.0,0.0,0.0,0.0,0.0,0
80194,-0.01,0.01,0.99,0.0,0.0,0.0,-7.6,14.2,-45.2,0.63,-0.7,-98.3,24.08,1009.96,655.1,0,0.0,0.0,0.0,0.0,0.0,0.0,0
80763,-0.01,0.01,0.99,0.0,0.0,0.0,-7.2,14.1,-45.6,0.63,-0.7,-98.3,24.08,1009.96,655.1,0,0.0,0.0,0.0,0.0,0.0,0.0,0
80909,-0.01,0.01,0.99,0.0,0.0,0.0,-7.7,14.3,-45.1,0.63,-0.7,-98.3,24.09,1009.96,655.13,0,0.0,0.0,0.0,0.0,0.0,0.0,0
80988,-0.01,0.01,0.99,0.0,0.0,0.0,-7.7,14.3,-45.1,0.63,-0.7,-98.3,24.09,1009.96,655.13,0,0.0,0.0,0.0,0.0,0.0,0.0,0
81018,-0.01,0.01,0.99,0.0,0.0,0.0,-7.5,14.1,-45.1,0.63,-0.7,-98.3,24.06,1009.97,655.03,0,0.0,0.0,0.0,0.0,0.0,0.0,0
81098,-0.01,0.01,0.99,0.0,0.0,0.0,-7.5,14.1,-45.1,0.63,-0.7,-98.3,24.06,1009.97,655.03,0,0.0,0.0,0.0,0.0,0.0,0.0,0
81149,-0.01,0.01,0.99,0.0,0.0,0.0,-7.1,14.5,-45.3,0.63,-0.7,-98.3,24.06,1009.97,655.01,0,0.0,0.0,0.0,0.0,0.0,0.0,0
81230,-0.01,0.01,0.99,0.0,0.0,0.0,-7.1,14.5,-45.3,0.63,-0.7,-98.3,24.06,1009.97,655.01,0,0.0,0.0,0.0,0.0,0.0,0.0,0
81278,-0.01,0.01,0.99,0.0,0.0,0.0,-7.1,14.5,-45.3,0.63,-0.7,-98.3,24.05,1009.97,654.98,0,0.0,0.0,0.0,0.0,0.0,0.0,0
81300,-0.01,0.01,0.99,0.0,0.0,0.0,-7.3,13.9,-45.5,0.63,-0.7,-98.3,24.06,1009.97,655.0,0,0.0,0.0,0.0,0.0,0.0,0.0,0
82109,-0.01,0.01,0.99,0.0,0.0,0.0,-7.5,14.4,-45.2,0.64,-0.7,-98.3,24.06,1009.97,654.98,0,0.0,0.0,0.0,0.0,0.0,0.0,0
82131,-0.01,0.01,0.99,0.0,0.0,0.0,-7.5,14.4,-45.2,0.64,-0.7,-98.3,24.06,1009.97,654.98,0,0.0,0.0,0.0,0.0,0.0,0.0,0
82138,0.0,0.01,0.99,0.0,0.0,0.0,-7.5,14.2,-45.1,0.64,-0.7,-98.3,24.06,1009.97,655.02,0,0.0,0.0,0.0,0.0,0.0,0.0,0
82218,0.0,0.0,-0.01,0.0,0.0,0.0,0.0,0.9,-7.3,0.64,-0.7,-98.3,24.06,1009.97,655.02,0,0.0,0.0,0.0,0.0,0.0,0.0,0
82317,-0.01,0.01,0.99,0.0,0.0,0.0,-7.3,14.2,-45.3,0.64,-0.7,-98.3,24.06,1009.97,655.02,0,0.0,0.0,0.0,0.0,0.0,0.0,0
82929,0.0,0.07,0.98,-0.28,0.58,-9.45,-6.9,14.5,-45.2,0.68,-0.69,-99.12,24.06,1009.97,655.0,0,0.0,0.0,0.0,0.0,0.0,0.0,0
82946,0.01,0.0,1.12,0.15,-1.97,-11.4,-8.2,13.9,-45.5,0.98,-0.8,-96.81,24.06,1009.97,655.01,0,0.0,0.0,0.0,0.0,0.0,0.0,0
83041,0.01,0.0,1.12,0.15,-1.97,-11.4,-8.2,13.9,-45.5,0.98,-0.8,-96.81,24.06,1009.97,655.01,0,0.0,0.0,0.0,0.0,0.0,0.0,0
83088,-0.01,-0.17,1.0,-0.48,0.22,3.57,-8.7,13.8,-46.1,0.92,-0.76,-97.09,24.06,1009.97,655.01,0,0.0,0.0,0.0,0.0,0.0,0.0,0
83116,-0.01,-0.17,1.0,-0.48,0.22,3.57,-8.7,13.8,-46.1,0.92,-0.76,-97.09,24.06,1009.97,655.01,0,0.0,0.0,0.0,0.0,0.0,0.0,0
83140,0.0,0.0,0.98,-0.58,-0.18,-1.2,-8.6,13.7,-45.7,0.88,-0.76,-97.11,24.06,1009.97,655.0,0,0.0,0.0,0.0,0.0,0.0,0.0,0
83830,0.04,-0.21,1.06,16.71,0.57,5.58,-8.5,19.1,-38.0,-12.34,-1.42,-95.4,24.07,1009.96,655.06,0,0.0,0.0,0.0,0.0,0.0,0.0,0
83858,0.04,-0.21,1.06,16.71,0.57,5.58,-8.5,19.1,-38.0,-12.34,-1.42,-95.4,24.07,1009.96,655.06,0,0.0,0.0,0.0,0.0,0.0,0.0,0
83864,0.06,-0.06,1.1,62.8,-28.38,19.11,-8.0,14.6,-44.8,-5.15,3.13,-97.95,24.07,1009.96,655.06,0,0.0,0.0,0.0,0.0,0.0,0.0,0
83993,0.19,-0.02,0.77,49.15,-54.25,10.0,-8.8,13.0,-46.9,-4.6,3.55,-98.15,24.07,1009.96,655.06,0,0.0,0.0,0.0,0.0,0.0,0.0,0
84063,0.19,-0.02,0.77,49.15,-54.25,10.0,-8.8,13.0,-46.9,-4.6,3.55,-98.15,24.07,1009.96,655.06,0,0.0,0.0,0.0,0.0,0.0,0.0,0
84726,-0.05,-0.04,1.07,10.74,25.82,1.99,-0.1,12.9,-51.2,0.62,-6.73,-104.29,24.07,1009.96,655.06,0,0.0,0.0,0.0,0.0,0.0,0.0,0
84818,-0.05,-0.04,1.07,10.74,25.82,1.99,-0.1,12.9,-51.2,0.62,-6.73,-104.29,24.07,1009.96,655.06,0,0.0,0.0,0.0,0.0,0.0,0.0,0
84841,-0.34,0.25,1.22,-16.75,35.91,-2.97,0.9,12.7,-51.5,0.98,-9.89,-104.54,24.07,1009.96,655.06,0,0.0,0.0,0.0,0.0,0.0,0.0,0
84919,-0.34,0.25,1.22,-16.75,35.91,-2.97,0.9,12.7,-51.5,0.98,-9.89,-104.54,24.07,1009.96,655.06,0,0.0,0.0,0.0,0.0,0.0,0.0,0
85698,-0.02,-0.05,0.98,-2.3,0.02,-4.94,-4.1,15.4,-45.7,-2.33,-3.25,-103.84,24.07,1009.96,655.06,0,0.0,0.0,0.0,0.0,0.0,0.0,0
85735,-0.02,-0.05,0.88,12.46,-4.66,-8.32,-4.2,15.0,-46.4,-1.67,-3.09,-103.14,24.07,1009.96,655.06,0,0.0,0.0,0.0,0.0,0.0,0.0,0
85790,-0.02,-0.05,0.88,12.46,-4.66,-8.32,-4.2,15.0,-46.4,-1.67,-3.09,-103.14,24.07,1009.96,655.06,0,0.0,0.0,0.0,0.0,0.0,0.0,0
85816,-0.01,0.0,0.95,-5.53,2.82,0.18,-6.4,13.5,-49.0,0.61,-1.14,-102.12,24.07,1009.96,655.06,0,0.0,0.0,0.0,0.0,0.0,0.0,0
85893,-0.01,0.0,0.95,-5.53,2.82,0.18,-6.4,13.5,-49.0,0.61,-1.14,-102.12,24.07,1009.96,655.06,0,0.0,0.0,0.0,0.0,0.0,0.0,0
85959,-0.01,0.0,0.95,-5.53,2.82,0.18,-6.4,13.5,-49.0,0.61,-1.14,-102.12,24.07,1009.96,655.06,0,0.0,0.0,0.0,0.0,0.0,0.0,0
86035,-0.02,0.0,1.01,0.2,-1.16,-0.15,-6.2,13.8,-48.8,0.54,-1.23,-102.13,24.07,1009.96,655.06,0,0.0,0.0,0.0,0.0,0.0,0.0,0
86113,-0.02,0.0,1.01,0.2,-1.16,-0.15,-6.2,13.8,-48.8,0.54,-1.23,-102.13,24.07,1009.96,655.06,0,0.0,0.0,0.0,0.0,0.0,0.0,0
86149,-0.01,0.0,1.0,-0.23,1.4,0.03,-6.3,13.8,-48.5,0.55,-1.21,-102.13,24.07,1009.96,655.06,0,0.0,0.0,0.0,0.0,0.0,0.0,0
86196,-0.01,0.0,1.0,-0.23,1.4,0.03,-6.3,13.8,-48.5,0.55,-1.21,-102.13,24.07,1009.96,655.06,0,0.0,0.0,0.0,0.0,0.0,0.0,0
86232,-0.02,0.01,0.98,0.0,0.0,0.0,-6.2,13.8,-48.3,0.56,-1.2,-102.13,24.07,1009.96,655.06,0,0.0,0.0,0.0,0.0,0.0,0.0,0
86280,-0.02,0.01,0.98,0.0,0.0,0.0,-6.2,13.8,-48.3,0.56,-1.2,-102.13,24.07,1009.96,655.06,0,0.0,0.0,0.0,0.0,0.0,0.0,0
86338,-0.01,0.01,1.0,0.02,-0.31,0.09,-5.9,13.9,-48.4,0.56,-1.17,-102.13,24.07,1009.96,655.06,0,0.0,0.0,0.0,0.0,0.0,0.0,0
86394,-0.01,0.01,1.0,0.02,-0.31,0.09,-5.9,13.9,-48.4,0.56,-1.17,-102.13,24.07,1009.96,655.06,0,0.0,0.0,0.0,0.0,0.0,0.0,0
86419,-0.01,0.01,0.99,0.0,0.0,0.0,-5.7,13.7,-48.1,0.57,-1.16,-102.13,24.07,1009.96,655.06,0,0.0,0.0,0.0,0.0,0.0,0.0,0
87198,0.0,0.0,-0.01,0.0,0.0,0.0,0.0,0.9,-6.4,0.6,-1.12,-102.13,24.07,1009.96,655.06,0,0.0,0.0,0.0,0.0,0.0,0.0,0
87293,0.0,0.0,-0.01,0.0,0.0,0.0,0.0,0.9,-6.4,0.6,-1.12,-102.13,24.07,1009.96,655.06,0,0.0,0.0,0.0,0.0,0.0,0.0,0
87324,-0.01,0.01,0.99,0.0,0.0,0.0,-6.1,13.6,-48.5,0.6,-1.12,-102.13,24.07,1009.96,655.06,0,0.0,0.0,0.0,0.0,0.0,0.0,0
87400,-0.01,0.0,1.0,0.0,0.0,0.0,-102.1,0.0,0.0,0.6,-1.12,-102.13,24.07,1009.96,655.06,0,0.0,0.0,0.0,0.0,0.0,0.0,0
87510,-0.02,0.01,0.99,0.0,0.0,0.0,-6.5,13.7,0.9,0.6,-1.11,-102.13,24.07,1009.96,655.06,0,0.0,0.0,0.0,0.0,0.0,0.0,0
87605,-0.01,0.01,0.99,0.0,0.0,0.0,-6.1,13.8,-48.5,0.61,-1.11,-102.13,24.07,1009.96,655.06,0,0.0,0.0,0.0,0.0,0.0,0.0,0
87680,0.0,-0.02,0.01,2.13,0.0,0.0,0.9,-6.4,13.7,0.61,-1.11,-102.13,24.07,1009.96,655.06,0,0.0,0.0,0.0,0.0,0.0,0.0,0
87776,0.0,-0.02,0.01,2.13,0.0,0.0,0.9,-6.4,13.7,0.61,-1.11,-102.13,24.07,1009.96,655.06,0,0.0,0.0,0.0,0.0,0.0,0.0,0
87819,0.0,-0.02,0.01,2.13,0.0,0.0,0.9,-6.4,13.7,0.61,-1.11,-102.13,24.07,1009.96,655.06,0,0.0,0.0,0.0,0.0,0.0,0.0,0
87836,-0.01,0.01,0.99,0.0,0.0,0.0,-6.4,14.1,-48.9,0.61,-1.1,-102.13,24.07,1009.96,655.06,0,0.0,0.0,0.0,0.0,0.0,0.0,0
87910,-0.01,-0.01,0.01,0.0,0.0,0.0,0.9,-6.1,14.1,0.61,-1.1,-102.13,24.07,1009.96,655.06,0,0.0,0.0,0.0,0.0,0.0,0.0,0
87939,-0.02,0.01,0.99,0.0,0.0,0.0,-5.6,13.5,-48.2,0.61,-1.1,-102.13,24.07,1009.96,655.06,0,0.0,0.0,0.0,0.0,0.0,0.0,0
87945,-0.02,0.01,0.99,0.0,0.0,0.0,-5.6,13.5,-48.2,0.61,-1.1,-102.13,24.07,1009.96,655.06,0,0.0,0.0,0.0,0.0,0.0,0.0,0
88073,-0.02,0.01,0.99,0.0,0.0,0.0,-5.6,13.5,-48.2,0.61,-1.1,-102.13,24.07,1009.96,655.06,0,0.0,0.0,0.0,0.0,0.0,0.0,0
88103,-0.02,0.01,0.99,0.0,0.0,0.0,-5.6,13.5,-48.2,0.61,-1.1,-102.13,24.07,1009.96,655.06,0,0.0,0.0,0.0,0.0,0.0,0.0,0
88629,-0.01,0.01,0.99,0.0,0.0,0.0,-6.5,14.2,-48.5,0.62,-1.09,-102.13,24.07,1009.96,655.06,0,0.0,0.0,0.0,0.0,0.0,0.0,0
88776,-0.01,0.01,0.99,0.0,0.0,0.0,-6.2,13.5,-48.3,0.62,-1.08,-102.13,24.07,1009.96,655.06,0,0.0,0.0,0.0,0.0,0.0,0.0,0
88838,-0.01,0.01,-102.13,0.0,0.0,0.0,0.0,0.0,0.0,0.62,-1.08,-102.13,24.07,1009.96,655.06,0,0.0,0.0,0.0,0.0,0.0,0.0,0
88936,-0.01,0.01,-102.13,0.0,0.0,0.0,0.0,0.0,0.0,0.62,-1.08,-102.13,24.07,1009.96,655.06,0,0.0,0.0,0.0,0.0,0.0,0.0,0
89632,-0.02,0.01,0.99,0.0,0.0,0.0,-6.5,13.8,-48.8,0.62,-1.08,-102.13,24.07,1009.96,655.06,0,0.0,0.0,0.0,0.0,0.0,0.0,0
89694,-0.02,0.01,0.99,0.0,0.0,0.0,-6.5,13.8,-48.8,0.62,-1.08,-102.13,24.07,1009.96,655.06,0,0.0,0.0,0.0,0.0,0.0,0.0,0
89727,-0.01,0.01,0.99,0.0,0.0,0.0,-6.1,14.1,-48.7,0.62,-1.07,-102.13,24.07,1009.96,655.06,0,0.0,0.0,0.0,0.0,0.0,0.0,0
89858,-0.01,0.01,0.99,0.0,0.0,0.0,-6.1,14.1,-48.7,0.62,-1.07,-102.13,24.07,1009.96,655.06,0,0.0,0.0,0.0,0.0,0.0,0.0,0
89914,-0.01,0.01,0.99,0.0,0.0,0.0,-6.4,13.8,-48.3,0.62,-1.07,-102.13,24.07,1009.96,655.06,0,0.0,0.0,0.0,0.0,0.0,0.0,0
89989,0.0,-0.01,0.01,-102.13,0.0,0.0,0.9,-6.2,13.6,0.62,-1.06,-1.07,24.07,1009.96,655.06,0,0.0,0.0,0.0,0.0,0.0,0.0,0
90042,0.0,-0.01,0.01,-102.13,0.0,0.0,0.9,-6.2,13.6,0.62,-1.06,-1.07,24.07,1009.96,655.06,0,0.0,0.0,0.0,0.0,0.0,0.0,0
90060,-0.01,0.01,0.99,0.0,0.0,0.0,-6.4,13.5,-49.0,0.62,-1.07,-102.13,24.07,1009.96,655.06,0,0.0,0.0,0.0,0.0,0.0,0.0,0
90076,-0.01,0.01,0.99,0.0,0.0,0.0,-6.4,13.5,-49.0,0.62,-1.07,-102.13,24.07,1009.96,655.06,0,0.0,0.0,0.0,0.0,0.0,0.0,0
90117,-0.01,0.01,0.99,0.0,0.0,0.0,-6.3,14.1,-48.7,0.62,-1.08,-102.13,24.07,1009.96,655.06,0,0.0,0.0,0.0,0.0,0.0,0.0,0
90193,-0.01,0.01,0.99,0.0,0.0,0.0,-6.3,14.1,-48.7,0.62,-1.08,-102.13,24.07,1009.96,655.06,0,0.0,0.0,0.0,0.0,0.0,0.0,0
90759,-0.02,0.01,0.99,0.0,0.0,0.0,-6.1,13.8,-48.2,0.62,-1.07,-102.13,24.07,1009.96,655.06,0,0.0,0.0,0.0,0.0,0.0,0.0,0
90899,-0.01,0.0,0.99,0.0,0.0,0.0,-6.5,13.8,-48.7,0.62,-1.07,-102.13,24.07,1009.96,655.06,0,0.0,0.0,0.0,0.0,0.0,0.0,0
90958,-0.01,0.0,0.99,0.0,0.0,0.0,-6.5,13.8,-48.7,0.62,-1.07,-102.13,24.07,1009.96,655.06,0,0.0,0.0,0.0,0.0,0.0,0.0,0
91039,-0.01,0.0,0.99,0.0,0.0,0.0,-0.1,0.0,0.0,0.62,-1.07,-102.13,24.07,1009.96,655.06,0,0.0,0.0,0.0,0.0,0.0,0.0,0
91130,-0.01,0.01,0.99,0.0,0.0,0.0,-6.3,13.5,-17.0,0.62,-1.07,-102.13,24.07,1009.96,655.06,0,0.0,0.0,0.0,0.0,0.0,0.0,0
91232,-0.01,0.01,0.99,0.0,0.0,0.0,-6.3,13.5,-17.0,0.62,-1.07,-102.13,24.07,1009.96,655.06,0,0.0,0.0,0.0,0.0,0.0,0.0,0
91263,-0.01,0.01,0.99,0.0,0.0,0.0,-6.0,13.6,-48.5,0.63,-1.07,-102.13,24.07,1009.96,655.06,0,0.0,0.0,0.0,0.0,0.0,0.0,0
91338,-0.01,0.01,0.99,0.0,0.0,0.0,-6.0,13.6,-48.5,0.63,-1.07,-102.13,24.07,1009.96,655.06,0,0.0,0.0,0.0,0.0,0.0,0.0,0
91395,-0.01,0.01,0.98,0.0,0.0,0.0,-6.3,13.6,-48.6,0.63,-1.07,-102.13,24.07,1009.96,655.06,0,0.0,0.0,0.0,0.0,0.0,0.0,0
92095,-0.01,0.01,0.99,0.0,0.0,0.0,-6.1,13.8,-48.4,0.63,-1.07,-102.13,24.07,1009.96,655.06,0,0.0,0.0,0.0,0.0,0.0,0.0,0
92142,-0.01,0.01,0.99,0.0,0.0,0.0,-6.1,13.8,-48.4,0.63,-1.07,-102.13,24.07,1009.96,655.06,0,0.0,0.0,0.0,0.0,0.0,0.0,0
92186,-0.01,0.01,0.99,0.0,0.0,0.0,-6.2,13.8,-48.5,0.63,-1.07,-102.13,24.07,1009.96,655.06,0,0.0,0.0,0.0,0.0,0.0,0.0,0
92217,-0.01,0.01,0.99,0.0,0.0,0.0,-6.2,13.8,-48.5,0.63,-1.07,-102.13,24.07,1009.96,655.06,0,0.0,0.0,0.0,0.0,0.0,0.0,0
92255,-0.01,0.01,0.99,0.0,0.0,0.0,-6.3,13.6,-48.7,0.63,-1.07,-102.13,24.07,1009.96,655.06,0,0.0,0.0,0.0,0.0,0.0,0.0,0
92308,-0.01,0.01,0.99,0.0,0.0,0.0,-6.3,13.6,-48.7,0.63,-1.07,-102.13,24.07,1009.96,655.06,0,0.0,0.0,0.0,0.0,0.0,0.0,0
92338,-0.01,0.01,0.99,0.0,0.0,0.0,-6.3,13.6,-48.4,0.63,-1.07,-102.13,24.07,1009.96,655.06,0,0.0,0.0,0.0,0.0,0.0,0.0,0
93067,-0.01,0.01,0.99,0.0,0.0,0.0,-6.1,13.4,-48.9,0.63,-1.07,-102.13,24.07,1009.96,655.06,0,0.0,0.0,0.0,0.0,0.0,0.0,0
93111,-0.02,0.01,0.99,0.0,0.0,0.0,-6.4,13.7,-48.4,0.63,-1.07,-102.13,24.07,1009.96,655.06,0,0.0,0.0,0.0,0.0,0.0,0.0,0
93251,-0.02,0.01,0.99,0.0,0.0,0.0,-6.4,13.7,-48.4,0.63,-1.07,-102.13,24.07,1009.96,655.06,0,0.0,0.0,0.0,0.0,0.0,0.0,0
93276,-0.01,0.01,0.99,0.0,0.0,0.0,-5.7,13.9,-48.3,0.63,-1.07,-102.13,24.07,1009.96,655.06,0,0.0,0.0,0.0,0.0,0.0,0.0,0
93341,-0.01,0.01,0.99,0.0,0.0,0.0,-5.7,13.9,-48.3,0.63,-1.07,-102.13,24.07,1009.96,655.06,0,0.0,0.0,0.0,0.0,0.0,0.0,0
93348,-0.01,0.01,0.99,0.0,0.0,0.0,-0.1,0.0,0.0,0.63,-1.07,-102.13,24.07,1009.96,655.06,0,0.0,0.0,0.0,0.0,0.0,0.0,0
93355,-0.01,0.01,0.99,0.0,0.0,0.0,-6.3,13.8,-48.5,0.63,-1.07,-102.13,24.07,1009.96,655.06,0,0.0,0.0,0.0,0.0,0.0,0.0,0
93483,-0.01,0.01,0.99,0.0,0.0,0.0,-6.3,13.8,-48.5,0.63,-1.07,-102.13,24.07,1009.96,655.06,0,0.0,0.0,0.0,0.0,0.0,0.0,0
93489,-0.01,0.01,0.99,0.0,0.0,0.0,-6.4,13.8,-48.5,0.63,-1.07,-102.13,24.07,1009.96,655.06,0,0.0,0.0,0.0,0.0,0.0,0.0,0
93577,-0.01,0.01,0.99,0.0,0.0,0.0,-6.1,13.7,-48.5,0.63,-1.07,-102.13,24.07,1009.96,655.06,0,0.0,0.0,0.0,0.0,0.0,0.0,0
93652,-0.01,0.01,0.99,0.0,0.0,0.0,-6.1,13.5,-48.5,0.63,-1.07,-102.13,24.07,1009.96,655.06,0,0.0,0.0,0.0,0.0,0.0,0.0,0
93728,-0.01,0.01,0.99,0.0,0.0,0.0,-6.2,13.5,-48.5,0.63,-1.07,-102.13,24.07,1009.96,655.06,0,0.0,0.0,0.0,0.0,0.0,0.0,0
93779,-0.01,0.01,0.99,0.0,0.0,0.0,-6.2,13.5,-48.5,0.63,-1.07,-102.13,24.07,1009.96,655.06,0,0.0,0.0,0.0,0.0,0.0,0.0,0
93804,-0.01,0.01,0.99,0.0,0.0,0.0,-6.2,13.8,-48.5,0.63,-1.07,-102.13,24.07,1009.96,655.06,0,0.0,0.0,0.0,0.0,0.0,0.0,0
94682,-0.13,0.0,0.0,0.0,0.0,0.0,0.0,0.0,0.0,0.63,-1.05,-102.13,24.07,1009.96,655.06,0,0.0,0.0,0.0,0.0,0.0,0.0,0
94699,-0.13,0.0,0.0,0.0,0.0,0.0,0.0,0.0,0.0,0.63,-1.05,-102.13,24.07,1009.96,655.06,0,0.0,0.0,0.0,0.0,0.0,0.0,0
94704,-0.13,0.0,0.0,0.0,0.0,0.0,0.0,0.0,0.0,0.63,-1.05,-102.13,24.07,1009.96,655.06,0,0.0,0.0,0.0,0.0,0.0,0.0,0
94832,-0.01,0.01,0.99,0.0,0.0,0.0,-6.3,14.1,-48.8,0.63,-1.05,-102.13,24.07,1009.96,655.06,0,0.0,0.0,0.0,0.0,0.0,0.0,0
94879,-0.01,0.01,0.99,0.0,0.0,0.0,-6.3,14.1,-48.8,0.63,-1.05,-102.13,24.07,1009.96,655.06,0,0.0,0.0,0.0,0.0,0.0,0.0,0
94948,-0.01,0.01,0.99,0.0,0.0,0.0,-0.9,-6.5,13.6,0.63,-1.07,-102.13,24.07,1009.96,655.06,0,0.0,0.0,0.0,0.0,0.0,0.0,0
95044,-0.01,0.01,0.99,0.0,0.0,0.0,-6.3,13.7,-48.4,0.63,-1.05,-102.13,24.07,1009.96,655.06,0,0.0,0.0,0.0,0.0,0.0,0.0,0
95694,-0.01,0.01,0.99,0.0,0.0,0.0,-6.2,13.6,-49.0,0.63,-1.07,-102.13,24.07,1009.96,655.06,0,0.0,0.0,0.0,0.0,0.0,0.0,0
95781,-0.01,0.01,0.99,0.0,0.0,0.0,-6.2,13.6,-49.0,0.63,-1.07,-102.13,24.07,1009.96,655.06,0,0.0,0.0,0.0,0.0,0.0,0.0,0
95812,-0.01,0.01,0.99,0.0,0.0,0.0,-6.2,14.1,-48.7,0.63,-1.07,-102.13,24.07,1009.96,655.06,0,0.0,0.0,0.0,0.0,0.0,0.0,0
95888,-0.01,0.01,0.99,0.0,0.0,0.0,-6.2,14.1,-48.7,0.63,-1.07,-102.13,24.07,1009.96,655.06,0,0.0,0.0,0.0,0.0,0.0,0.0,0
95900,-0.02,0.01,0.99,0.0,0.0,0.0,-6.6,13.8,-48.6,0.63,-1.07,-102.13,24.07,1009.96,655.06,0,0.0,0.0,0.0,0.0,0.0,0.0,0
95974,-0.01,0.01,0.99,0.0,0.0,0.0,-6.4,13.6,-48.7,0.63,-1.07,-102.13,24.07,1009.96,655.06,0,0.0,0.0,0.0,0.0,0.0,0.0,0
96062,-0.01,0.01,0.99,0.0,0.0,0.0,-6.4,13.6,-48.7,0.63,-1.07,-102.13,24.07,1009.96,655.06,0,0.0,0.0,0.0,0.0,0.0,0.0,0
96125,-0.02,0.0,0.99,0.0,0.0,0.0,-6.2,13.0,0.0,0.63,-1.07,-102.13,24.07,1009.96,655.06,0,0.0,0.0,0.0,0.0,0.0,0.0,0
96233,-0.02,0.0,0.99,0.0,0.0,0.0,-6.2,13.0,0.0,0.63,-1.07,-102.13,24.07,1009.96,655.06,0,0.0,0.0,0.0,0.0,0.0,0.0,0
96840,-0.02,0.01,0.99,0.0,0.0,0.0,-6.1,13.6,-48.5,0.63,-1.07,-102.13,24.07,1009.96,655.06,0,0.0,0.0,0.0,0.0,0.0,0.0,0
96845,-0.01,0.0,0.99,0.0,0.0,0.0,-6.3,14.1,-48.4,0.63,-1.07,-102.13,24.07,1009.96,655.06,0,0.0,0.0,0.0,0.0,0.0,0.0,0
96866,-0.01,0.0,0.99,0.0,0.0,0.0,-6.3,14.1,-48.4,0.63,-1.07,-102.13,24.07,1009.96,655.06,0,0.0,0.0,0.0,0.0,0.0,0.0,0
96910,-0.01,0.0,0.99,0.0,0.0,0.0,-6.2,13.9,-48.3,0.63,-1.07,-102.13,24.07,1009.96,655.06,0,0.0,0.0,0.0,0.0,0.0,0.0,0
96943,-0.01,0.0,0.99,0.0,0.0,0.0,-6.2,13.9,-48.3,0.63,-1.07,-102.13,24.07,1009.96,655.06,0,0.0,0.0,0.0,0.0,0.0,0.0,0
97071,-0.02,0.01,0.99,0.0,0.0,0.0,-6.4,13.5,-48.5,0.63,-1.07,-102.13,24.07,1009.96,655.06,0,0.0,0.0,0.0,0.0,0.0,0.0,0
97098,-0.01,0.01,0.99,0.0,0.0,0.0,-6.3,13.9,-48.3,0.63,-1.07,-102.13,24.07,1009.96,655.06,0,0.0,0.0,0.0,0.0,0.0,0.0,0
97156,-0.01,0.01,0.99,0.0,0.0,0.0,-6.3,13.9,-48.3,0.63,-1.07,-102.13,24.07,1009.96,655.06,0,0.0,0.0,0.0,0.0,0.0,0.0,0
97806,-0.02,0.01,0.99,0.0,0.0,0.0,-6.3,13.6,-48.3,0.63,-1.07,-102.13,24.07,1009.96,655.06,0,0.0,0.0,0.0,0.0,0.0,0.0,0
97856,-0.01,0.01,0.99,0.0,0.0,0.0,-6.5,14.1,-48.0,0.63,-1.07,-102.13,24.07,1009.96,655.06,0,0.0,0.0,0.0,0.0,0.0,0.0,0
97877,-0.01,0.01,0.99,0.0,0.0,0.0,-6.5,14.1,-48.0,0.63,-1.07,-102.13,24.07,1009.96,655.06,0,0.0,0.0,0.0,0.0,0.0,0.0,0
98025,-0.01,0.01,0.99,0.0,0.0,0.0,-6.3,13.9,-48.3,0.63,-1.07,-102.13,24.07,1009.96,655.06,0,0.0,0.0,0.0,0.0,0.0,0.0,0
98113,-0.01,0.01,0.99,0.0,0.0,0.0,-6.3,13.9,-48.3,0.63,-1.07,-102.13,24.07,1009.96,655.06,0,0.0,0.0,0.0,0.0,0.0,0.0,0
98157,-0.01,0.01,0.99,0.0,0.0,0.0,-6.4,13.7,-48.1,0.63,-1.07,-102.13,24.07,1009.96,655.06,0,0.0,0.0,0.0,0.0,0.0,0.0,0
98231,-0.01,0.01,0.99,0.0,0.0,0.0,-6.4,13.7,-48.1,0.63,-1.07,-102.13,24.07,1009.96,655.06,0,0.0,0.0,0.0,0.0,0.0,0.0,0
98288,-0.01,0.01,0.99,0.0,0.0,0.0,-6.4,13.6,-48.4,0.63,-1.05,-102.13,24.07,1009.96,655.06,0,0.0,0.0,0.0,0.0,0.0,0.0,0
98363,-0.01,0.01,0.99,0.0,0.0,0.0,-6.4,13.6,-48.4,0.63,-1.05,-102.13,24.07,1009.96,655.06,0,0.0,0.0,0.0,0.0,0.0,0.0,0
98414,-0.01,0.01,0.99,0.0,0.0,0.0,-5.6,13.8,-48.5,0.63,-1.05,-102.13,24.07,1009.96,655.06,0,0.0,0.0,0.0,0.0,0.0,0.0,0
98486,-0.01,0.01,0.99,0.0,0.0,0.0,-5.6,13.8,-48.5,0.63,-1.05,-102.13,24.07,1009.96,655.06,0,0.0,0.0,0.0,0.0,0.0,0.0,0
98523,-0.01,0.0,0.99,0.0,0.0,0.0,-6.3,13.4,-49.2,0.63,-1.07,-102.13,24.07,1009.96,655.06,0,0.0,0.0,0.0,0.0,0.0,0.0,0
98596,-0.3,0.0,0.0,0.0,0.0,0.0,0.0,0.0,0.0,0.63,-1.07,-102.13,24.07,1009.96,655.06,0,0.0,0.0,0.0,0.0,0.0,0.0,0
