timestamp,ax,ay,az,gx,gy,gz,mx,my,mz,roll,pitch,yaw,T,P,P_alt,fix,lon,lat,alt,velN,velE,velD,ejection
374,-0.010999999940395355,0.00800000037997961,0.9919999837875366,0.0,0.0,0.0,22.100000381469727,8.600000381469727,-46.599998474121094,0.4300000071525574,-0.6200000047683716,-159.25,23.568138122558594,1004.5638427734375,-0.07340240478515625,0,0.0,0.0,0.0,0.0,0.0,0.0,0
479,-0.012000000104308128,0.008999999612569809,0.9929999709129333,0.0,0.0,0.0,22.100000381469727,8.300000190734863,-47.0,0.4300000071525574,-0.6200000047683716,-159.25,23.51378059387207,1004.5924072265625,-0.31121063232421875,0,0.0,0.0,0.0,0.0,0.0,0.0,0
585,-0.012000000104308128,0.008999999612569809,0.9929999709129333,0.0,0.0,0.0,22.200000762939453,8.399999618530273,-46.79999923706055,0.4300000071525574,-0.6200000047683716,-159.25,23.486963272094727,1004.594482421875,-0.32970428466796875,0,0.0,0.0,0.0,0.0,0.0,0.0,0
1900,-0.009999999776482582,0.007000000216066837,0.9919999837875366,0.0,0.0,0.0,22.399999618530273,8.600000381469727,-47.0,0.4399999976158142,-0.6200000047683716,-159.24000549316406,23.4472599029541,1004.6015014648438,-0.3878326416015625,0,0.0,0.0,0.0,0.0,0.0,0.0,0
2581,-0.0,0.009999999776482582,0.9919999837875366,0.0,0.0,0.0,22.600000381469727,8.300000190734863,-47.20000076293945,0.4399999976158142,-0.6200000047683716,-159.24000549316406,23.434375762939453,1004.6121826171875,-0.47766876220703125,0,0.0,0.0,0.0,0.0,0.0,0.0,0
3965,-0.010999999940395355,0.006000000052154064,0.9929999709129333,0.0,0.0,0.0,22.399999618530273,8.199999809265137,-46.900001525878906,0.4399999976158142,-0.6200000047683716,-159.24000549316406,23.4344482421875,1004.5992431640625,-0.3693389892578125,0,0.0,0.0,0.0,0.0,0.0,0.0,0
4645,-0.009999999776482582,0.007000000216066837,0.9909999966621399,0.0,0.0,0.0,22.5,8.300000190734863,-47.0,0.4300000071525574,-0.6200000047683716,-159.24000549316406,23.455825805664062,1004.5861206054688,-0.2610015869140625,0,0.0,0.0,0.0,0.0,0.0,0.0,0
8478,0.019999999552965164,0.023000000044703484,0.9710000157356262,6.150000095367432,-0.23999999463558197,0.38999998569488525,18.299999237060547,9.100000381469727,-47.29999923706055,0.6600000262260437,-0.03999999910593033,-151.3000030517578,23.460615158081055,1004.5875244140625,-0.271575927734375,0,0.0,0.0,0.0,0.0,0.0,0.0,0
8559,-0.019999999552965164,0.014000000432133675,0.9980000257492065,1.75,-0.12999999523162842,6.71999979019165,18.200000762939453,8.600000381469727,-47.900001525878906,1.0399999618530273,-0.1899999976158142,-151.8000030517578,23.46957778930664,1004.58203125,-0.2240142822265625,0,0.0,0.0,0.0,0.0,0.0,0.0,0
8666,-0.019999999552965164,0.014000000432133675,0.9980000257492065,1.75,-0.12999999523162842,6.71999979019165,18.200000762939453,8.600000381469727,-47.900001525878906,1.0399999618530273,-0.1899999976158142,-151.8000030517578,23.472885131835938,1004.5809936523438,-0.21608734130859375,0,0.0,0.0,0.0,0.0,0.0,0.0,0
8771,-0.019999999552965164,0.014000000432133675,0.9980000257492065,1.75,-0.12999999523162842,6.71999979019165,18.200000762939453,8.600000381469727,-47.900001525878906,1.0399999618530273,-0.1899999976158142,-151.8000030517578,23.472885131835938,1004.5809936523438,-0.21608734130859375,0,0.0,0.0,0.0,0.0,0.0,0.0,0
8836,0.0020000000949949026,0.03500000014901161,1.0089999437332153,13.829999923706055,0.5299999713897705,-2.430000066757202,18.200000762939453,8.300000190734863,-48.900001525878906,2.2300000190734863,-0.14000000059604645,-151.72000122070312,23.473716735839844,1004.578125,-0.1923065185546875,0,0.0,0.0,0.0,0.0,0.0,0.0,0
8943,0.0020000000949949026,0.03500000014901161,1.0089999437332153,13.829999923706055,0.5299999713897705,-2.430000066757202,18.200000762939453,8.300000190734863,-48.900001525878906,2.2300000190734863,-0.14000000059604645,-151.72000122070312,23.473716735839844,1004.578125,-0.1923065185546875,0,0.0,0.0,0.0,0.0,0.0,0.0,0
9734,-0.00800000037997961,0.10400000214576721,0.9779999852180481,3.4700000286102295,0.14000000059604645,0.05999999865889549,19.299999237060547,5.5,-49.400001525878906,5.909999847412109,-0.5299999713897705,-152.52000427246094,23.45448875427246,1004.58642578125,-0.2610015869140625,0,0.0,0.0,0.0,0.0,0.0,0.0,0
9840,-0.00800000037997961,0.10400000214576721,0.9779999852180481,3.4700000286102295,0.14000000059604645,0.05999999865889549,19.299999237060547,5.5,-49.400001525878906,5.909999847412109,-0.5299999713897705,-152.52000427246094,23.46171760559082,1004.5803833007812,-0.2108001708984375,0,0.0,0.0,0.0,0.0,0.0,0.0,0
11366,-0.012000000104308128,0.19900000095367432,0.9769999980926514,0.0,0.0,0.0,20.200000762939453,1.7000000476837158,-52.0,11.6899995803833,-0.7900000214576721,-151.1199951171875,23.45438003540039,1004.5855712890625,-0.2557220458984375,0,0.0,0.0,0.0,0.0,0.0,0.0,0
11438,-0.012000000104308128,0.19900000095367432,0.9769999980926514,0.0,0.0,0.0,20.200000762939453,1.7000000476837158,-52.0,11.6899995803833,-0.7900000214576721,-151.1199951171875,23.457670211791992,1004.587158203125,-0.26892852783203125,0,0.0,0.0,0.0,0.0,0.0,0.0,0
12278,0.01899999938905239,0.1899999976158142,0.9710000157356262,0.7200000286102295,0.09000000357627869,0.10999999940395355,18.799999237060547,2.200000047683716,-52.599998474121094,10.779999732971191,1.1399999856948853,-149.64999389648438,23.47588539123535,1004.5758666992188,-0.1738128662109375,0,0.0,0.0,0.0,0.0,0.0,0.0,0
12382,0.01899999938905239,0.1899999976158142,0.9710000157356262,0.7200000286102295,0.09000000357627869,0.10999999940395355,18.799999237060547,2.200000047683716,-52.599998474121094,10.779999732971191,1.1399999856948853,-149.64999389648438,23.47588539123535,1004.5758666992188,-0.1738128662109375,0,0.0,0.0,0.0,0.0,0.0,0.0,0
13144,0.003000000026077032,0.18199999630451202,0.9580000042915344,2.859999895095825,-0.1599999964237213,-1.4700000286102295,18.799999237060547,2.5999999046325684,-52.400001525878906,10.460000038146973,0.9700000286102295,-148.9600067138672,23.476102828979492,1004.5655517578125,-0.08661651611328125,0,0.0,0.0,0.0,0.0,0.0,0.0,0
13241,0.00800000037997961,0.16899999976158142,0.9940000176429749,2.309999942779541,2.2899999618530273,-2.0799999237060547,18.899999618530273,2.4000000953674316,-52.0,10.640000343322754,0.8799999952316284,-148.7899932861328,23.457326889038086,1004.5772705078125,-0.18437957763671875,0,0.0,0.0,0.0,0.0,0.0,0.0,0
13330,0.00800000037997961,0.16899999976158142,0.9940000176429749,2.309999942779541,2.2899999618530273,-2.0799999237060547,18.899999618530273,2.4000000953674316,-52.0,10.640000343322754,0.8799999952316284,-148.7899932861328,23.457326889038086,1004.5772705078125,-0.18437957763671875,0,0.0,0.0,0.0,0.0,0.0,0.0,0
13366,0.007000000216066837,0.1809999942779541,0.9610000252723694,-1.2899999618530273,1.559999942779541,0.2800000011920929,19.299999237060547,2.299999952316284,-52.0,10.869999885559082,0.6600000262260437,-148.72999572753906,23.456911087036133,1004.5811767578125,-0.21872711181640625,0,0.0,0.0,0.0,0.0,0.0,0.0,0
13472,0.007000000216066837,0.1809999942779541,0.9610000252723694,-1.2899999618530273,1.559999942779541,0.2800000011920929,19.299999237060547,2.299999952316284,-52.0,10.869999885559082,0.6600000262260437,-148.72999572753906,23.454145431518555,1004.5811767578125,-0.21872711181640625,0,0.0,0.0,0.0,0.0,0.0,0.0,0
13565,0.008999999612569809,0.17599999904632568,0.9950000047683716,1.7599999904632568,0.44999998807907104,-0.4399999976158142,19.100000381469727,3.0,-0.10999999940395355,10.600000381469727,0.5299999713897705,-148.67999267578125,23.460525512695312,1004.5792236328125,-0.20287322998046875,0,0.0,0.0,0.0,0.0,0.0,0.0,0
14366,-0.017000000923871994,4.0,-5.840000152587891,20.969999313354492,-5.420000076293945,-1.340000033378601,-0.010999999940395355,0.2879999876022339,0.9309999942779541,14.09000015258789,-1.1200000047683716,-147.02000427246094,23.4736270904541,1004.571044921875,-0.13417816162109375,0,0.0,0.0,0.0,0.0,0.0,0.0,0
14431,-0.017000000923871994,4.0,-5.840000152587891,20.969999313354492,-5.420000076293945,-1.340000033378601,-0.010999999940395355,0.2879999876022339,0.9309999942779541,14.09000015258789,-1.1200000047683716,-147.02000427246094,23.476806640625,1004.5716552734375,-0.13945770263671875,0,0.0,0.0,0.0,0.0,0.0,0.0,0
14507,0.01600000075995922,0.29600000381469727,0.875,2.130000114440918,-4.429999828338623,-0.6200000047683716,19.700000762939453,-1.2000000476837158,-53.599998474121094,17.09000015258789,-1.0299999713897705,-145.1699981689453,23.472957611083984,1004.5724487304688,-0.144744873046875,0,0.0,0.0,0.0,0.0,0.0,0.0,0
15572,-0.03099999949336052,0.382999986410141,0.9190000295639038,11.649999618530273,-8.479999542236328,-18.15999984741211,17.899999618530273,-2.0,-54.79999923706055,20.469999313354492,-2.059999942779541,-138.4499969482422,23.441333770751953,1004.59716796875,-0.353485107421875,0,0.0,0.0,0.0,0.0,0.0,0.0,0
15626,-0.024000000208616257,0.3310000002384186,0.9089999794960022,0.18000000715255737,-2.3299999237060547,-5.340000152587891,16.100000381469727,-2.5999999046325684,-55.900001525878906,21.989999771118164,-2.049999952316284,-134.66000366210938,23.445707321166992,1004.595458984375,-0.3376312255859375,0,0.0,0.0,0.0,0.0,0.0,0.0,0
17066,-0.03400000184774399,0.40299999713897705,0.9110000133514404,1.7599999904632568,-1.559999942779541,0.30000001192092896,16.399999618530273,-3.9000000953674316,-55.900001525878906,24.049999237060547,-1.9199999570846558,-134.7100067138672,23.475505828857422,1004.5711059570312,-0.13417816162109375,0,0.0,0.0,0.0,0.0,0.0,0.0,0
18472,-0.02199999988079071,0.34700000286102295,0.921999990940094,-6.110000133514404,-0.009999999776482582,0.7300000190734863,15.800000190734863,-2.299999952316284,-56.0,21.350000381469727,-0.49000000953674316,-135.11000061035156,23.480783462524414,1004.5731201171875,-0.15003204345703125,0,0.0,0.0,0.0,0.0,0.0,0.0,0
19222,0.014000000432133675,0.2630000114440918,0.9139999747276306,-29.700000762939453,-1.1399999856948853,3.0199999809265137,14.899999618530273,1.0,-55.099998474121094,16.549999237060547,0.949999988079071,-134.8300018310547,23.488283157348633,1004.5685424804688,-0.113037109375,0,0.0,0.0,0.0,0.0,0.0,0.0,0
19274,0.008999999612569809,0.21799999475479126,0.9879999756813049,-5.369999885559082,-2.2699999809265137,-0.05999999865889549,14.300000190734863,3.0,-54.0,13.020000457763672,1.4500000476837158,-134.80999755859375,23.489871978759766,1004.5692138671875,-0.11832427978515625,0,0.0,0.0,0.0,0.0,0.0,0.0,0
19382,0.008999999612569809,0.21799999475479126,0.9879999756813049,-5.369999885559082,-2.2699999809265137,-0.05999999865889549,14.300000190734863,3.0,-54.0,13.020000457763672,1.4500000476837158,-134.80999755859375,23.489871978759766,1004.5692138671875,-0.11832427978515625,0,0.0,0.0,0.0,0.0,0.0,0.0,0
19428,0.03200000151991844,0.21400000154972076,0.9660000205039978,-6.170000076293945,-0.05999999865889549,-0.3100000023841858,14.0,3.299999952316284,-54.099998474121094,12.390000343322754,1.7799999713897705,-134.82000732421875,23.490360260009766,1004.568115234375,-0.10774993896484375,0,0.0,0.0,0.0,0.0,0.0,0.0,0
20219,0.0010000000474974513,0.18000000715255737,0.9990000128746033,2.490000009536743,0.7400000095367432,3.6600000858306885,15.399999618530273,4.699999809265137,-52.70000076293945,10.680000305175781,-0.28999999165534973,-137.08999633789062,23.469758987426758,1004.574462890625,-0.163238525390625,0,0.0,0.0,0.0,0.0,0.0,0.0,0
20379,-0.01600000075995922,0.18199999630451202,0.9629999995231628,-1.9600000381469727,1.0700000524520874,2.4700000286102295,15.600000381469727,4.300000190734863,-52.29999923706055,10.880000114440918,-0.33000001311302185,-137.30999755859375,23.46840476989746,1004.574462890625,-0.163238525390625,0,0.0,0.0,0.0,0.0,0.0,0.0,0
20451,-0.01600000075995922,0.18199999630451202,0.9629999995231628,-1.9600000381469727,1.0700000524520874,2.4700000286102295,15.600000381469727,4.300000190734863,-52.29999923706055,10.880000114440918,-0.33000001311302185,-137.30999755859375,23.455808639526367,1004.5845947265625,-0.24779510498046875,0,0.0,0.0,0.0,0.0,0.0,0.0,0
20528,-0.00800000037997961,0.1889999955892563,0.9639999866485596,-2.7100000381469727,3.630000114440918,17.260000228881836,16.100000381469727,4.300000190734863,-52.0,10.0600004196167,-0.5099999904632568,-139.3800048828125,23.455808639526367,1004.5845947265625,-0.24779510498046875,0,0.0,0.0,0.0,0.0,0.0,0.0,0
20590,-0.00800000037997961,0.1889999955892563,0.9639999866485596,-2.7100000381469727,3.630000114440918,17.260000228881836,16.100000381469727,4.300000190734863,-52.0,10.0600004196167,-0.5099999904632568,-139.3800048828125,23.46112060546875,1004.5809936523438,-0.21608734130859375,0,0.0,0.0,0.0,0.0,0.0,0.0,0
20633,-0.00800000037997961,0.1889999955892563,0.9639999866485596,-2.7100000381469727,3.630000114440918,17.260000228881836,16.100000381469727,4.300000190734863,-52.0,10.0600004196167,-0.5099999904632568,-139.3800048828125,23.46112060546875,1004.5809936523438,-0.21608734130859375,0,0.0,0.0,0.0,0.0,0.0,0.0,0
21405,-0.019999999552965164,0.20000000298023224,0.9729999899864197,3.2799999713897705,3.299999952316284,3.9700000286102295,17.200000762939453,3.200000047683716,-52.20000076293945,11.239999771118164,-0.6899999976158142,-141.69000244140625,23.49842071533203,1004.5662231445312,-0.09189605712890625,0,0.0,0.0,0.0,0.0,0.0,0.0,0
21448,-0.03999999910593033,0.18700000643730164,0.9679999947547913,-8.180000305175781,8.970000267028809,0.7200000286102295,18.299999237060547,3.5,-51.900001525878906,10.470000267028809,-1.9600000381469727,-142.13999938964844,23.50096893310547,1004.565673828125,-0.08925628662109375,0,0.0,0.0,0.0,0.0,0.0,0.0,0
21530,-0.03999999910593033,0.18700000643730164,0.9679999947547913,-8.180000305175781,8.970000267028809,0.7200000286102295,18.299999237060547,3.5,-51.900001525878906,10.470000267028809,-1.9600000381469727,-142.13999938964844,23.50096893310547,1004.565673828125,-0.08925628662109375,0,0.0,0.0,0.0,0.0,0.0,0.0,0
21595,-0.03999999910593033,0.18700000643730164,0.9679999947547913,-8.180000305175781,8.970000267028809,0.7200000286102295,18.299999237060547,3.5,-51.900001525878906,10.470000267028809,-1.9600000381469727,-142.13999938964844,23.496721267700195,1004.5693969726562,-0.11832427978515625,0,0.0,0.0,0.0,0.0,0.0,0.0,0
21662,-0.04600000008940697,0.18000000715255737,0.9599999785423279,-3.6700000762939453,4.869999885559082,-0.6600000262260437,18.799999237060547,3.700000047683716,-51.70000076293945,10.1899995803833,-2.5799999237060547,-142.0500030517578,23.489927291870117,1004.5712280273438,-0.13417816162109375,0,0.0,0.0,0.0,0.0,0.0,0.0,0
21774,-0.04600000008940697,0.18000000715255737,0.9599999785423279,-3.6700000762939453,4.869999885559082,-0.6600000262260437,18.799999237060547,3.700000047683716,-51.70000076293945,10.1899995803833,-2.5799999237060547,-142.0500030517578,23.489927291870117,1004.5712280273438,-0.13417816162109375,0,0.0,0.0,0.0,0.0,0.0,0.0,0
22568,2.630000114440918,-1.0499999523162842,-0.10100000351667404,-4.460000038146973,1.2100000381469727,-7.389999866485596,0.16599999368190765,0.984000027179718,20.200000762939453,11.199999809265137,-4.980000019073486,-141.30999755859375,23.48150634765625,1004.5675659179688,-0.10511016845703125,0,0.0,0.0,0.0,0.0,0.0,0.0,0
22618,-0.09700000286102295,0.1720000058412552,1.003999948501587,-5.920000076293945,1.8899999856948853,-0.7900000214576721,20.5,4.0,-50.0,9.829999923706055,-5.539999961853027,-141.08999633789062,23.474693298339844,1004.57421875,-0.1605987548828125,0,0.0,0.0,0.0,0.0,0.0,0.0,0
22703,-0.10100000351667404,0.14499999582767487,1.0110000371932983,-6.590000152587891,1.1100000143051147,-3.240000009536743,19.899999618530273,4.599999904632568,-50.400001525878906,8.90999984741211,-5.550000190734863,-140.75,23.4694881439209,1004.5770874023438,-0.18437957763671875,0,0.0,0.0,0.0,0.0,0.0,0.0,0
22800,-0.10100000351667404,0.14499999582767487,1.0110000371932983,-6.590000152587891,1.1100000143051147,-3.240000009536743,19.899999618530273,4.599999904632568,-50.400001525878906,8.90999984741211,-5.550000190734863,-140.75,23.47218132019043,1004.5744018554688,-0.1605987548828125,0,0.0,0.0,0.0,0.0,0.0,0.0,0
22880,-0.09799999743700027,0.13500000536441803,0.9729999899864197,2.369999885559082,-2.109999895095825,-0.4300000071525574,19.700000762939453,5.699999809265137,-50.0,8.199999809265137,-5.440000057220459,-140.3699951171875,23.48047637939453,1004.5687255859375,-0.113037109375,0,0.0,0.0,0.0,0.0,0.0,0.0,0
22981,-0.09799999743700027,0.13500000536441803,0.9729999899864197,2.369999885559082,-2.109999895095825,-0.4300000071525574,19.700000762939453,5.699999809265137,-50.0,8.199999809265137,-5.440000057220459,-140.3699951171875,23.485986709594727,1004.5650634765625,-0.0839691162109375,0,0.0,0.0,0.0,0.0,0.0,0.0,0
23074,-0.0860000029206276,0.14800000190734863,0.9800000190734863,11.699999809265137,-13.449999809265137,0.18000000715255737,19.299999237060547,4.699999809265137,-49.900001525878906,8.600000381469727,-4.920000076293945,-140.3300018310547,23.491769790649414,1004.567626953125,-0.10511016845703125,0,0.0,0.0,0.0,0.0,0.0,0.0,0
23859,-0.03500000014901161,0.22200000286102295,0.9539999961853027,-3.430000066757202,0.949999988079071,2.0999999046325684,17.299999237060547,2.299999952316284,-52.70000076293945,12.65999984741211,-0.949999988079071,-140.41000366210938,23.49034309387207,1004.5685424804688,-0.113037109375,0,0.0,0.0,0.0,0.0,0.0,0.0,0
23966,-0.03500000014901161,0.22200000286102295,0.9539999961853027,-3.430000066757202,0.949999988079071,2.0999999046325684,17.299999237060547,2.299999952316284,-52.70000076293945,12.65999984741211,-0.949999988079071,-140.41000366210938,23.481956481933594,1004.5775146484375,-0.18701934814453125,0,0.0,0.0,0.0,0.0,0.0,0.0,0
24044,-0.017999999225139618,0.20200000703334808,0.9829999804496765,-10.989999771118164,7.340000152587891,1.25,17.899999618530273,3.5,-52.0,11.020000457763672,-1.5099999904632568,-141.07000732421875,23.485427856445312,1004.5719604492188,-0.1421051025390625,0,0.0,0.0,0.0,0.0,0.0,0.0,0
24119,-0.017999999225139618,0.20200000703334808,0.9829999804496765,-10.989999771118164,7.340000152587891,1.25,17.899999618530273,3.5,-52.0,11.020000457763672,-1.5099999904632568,-141.07000732421875,23.495113372802734,1004.570556640625,-0.1288909912109375,0,0.0,0.0,0.0,0.0,0.0,0.0,0
24213,-0.017999999225139618,0.20200000703334808,0.9829999804496765,-10.989999771118164,7.340000152587891,1.25,17.899999618530273,3.5,-52.0,11.020000457763672,-1.5099999904632568,-141.07000732421875,23.495113372802734,1004.570556640625,-0.1288909912109375,0,0.0,0.0,0.0,0.0,0.0,0.0,0
24865,-0.0430000014603138,0.14399999380111694,0.9850000143051147,6.150000095367432,-9.890000343322754,2.2899999618530273,17.100000381469727,5.400000095367432,-51.20000076293945,8.609999656677246,-1.9700000286102295,-139.86000061035156,23.480239868164062,1004.5738525390625,-0.157958984375,0,0.0,0.0,0.0,0.0,0.0,0.0,0
25036,0.0020000000949949026,0.15399999916553497,0.984000027179718,6.760000228881836,-10.0,0.09000000357627869,16.799999237060547,4.400000095367432,-51.5,8.670000076293945,-1.8799999952316284,-139.8800048828125,23.480024337768555,1004.5692138671875,-0.11832427978515625,0,0.0,0.0,0.0,0.0,0.0,0.0,0
25147,-0.013000000268220901,0.16300000250339508,0.9950000047683716,0.0,0.0,0.0,17.0,4.400000095367432,-52.0,9.640000343322754,-0.6399999856948853,-140.3800048828125,23.480024337768555,1004.5692138671875,-0.11832427978515625,0,0.0,0.0,0.0,0.0,0.0,0.0,0
25208,-0.013000000268220901,0.16300000250339508,0.9950000047683716,0.0,0.0,0.0,17.0,4.400000095367432,-52.0,9.640000343322754,-0.6399999856948853,-140.3800048828125,23.46424674987793,1004.580078125,-0.208160400390625,0,0.0,0.0,0.0,0.0,0.0,0.0,0
25295,-0.013000000268220901,0.16300000250339508,0.9950000047683716,0.0,0.0,0.0,17.0,4.400000095367432,-52.0,9.640000343322754,-0.6399999856948853,-140.3800048828125,23.455663681030273,1004.581298828125,-0.21872711181640625,0,0.0,0.0,0.0,0.0,0.0,0.0,0
25396,-0.013000000268220901,0.16300000250339508,0.9950000047683716,0.0,0.0,0.0,17.0,4.400000095367432,-52.0,9.640000343322754,-0.6399999856948853,-140.3800048828125,23.455663681030273,1004.581298828125,-0.21872711181640625,0,0.0,0.0,0.0,0.0,0.0,0.0,0
25453,-0.007000000216066837,0.13899999856948853,1.0479999780654907,-3.8499999046325684,0.41999998688697815,-0.6000000238418579,17.0,4.699999809265137,-52.099998474121094,9.220000267028809,-0.6100000143051147,-141.22999572753906,23.45747184753418,1004.5773315429688,-0.18701934814453125,0,0.0,0.0,0.0,0.0,0.0,0.0,0
26962,-0.009999999776482582,0.14499999582767487,0.9760000109672546,0.0,0.0,0.0,17.5,5.400000095367432,-51.0,8.319999694824219,-0.8600000143051147,-143.13999938964844,23.457958221435547,1004.5820922851562,-0.226654052734375,0,0.0,0.0,0.0,0.0,0.0,0.0,0
27037,-0.01600000075995922,0.14100000262260437,0.9860000014305115,0.23000000417232513,0.07999999821186066,2.0,17.299999237060547,5.5,-50.79999923706055,8.279999732971191,-0.8600000143051147,-143.22999572753906,23.466272354125977,1004.578857421875,-0.20023345947265625,0,0.0,0.0,0.0,0.0,0.0,0.0,0
27778,-0.014999999664723873,0.14300000667572021,0.9789999723434448,-0.3100000023841858,-0.15000000596046448,-0.019999999552965164,17.399999618530273,4.900000095367432,-51.20000076293945,8.260000228881836,-0.8299999833106995,-143.4199981689453,23.498943328857422,1004.5700073242188,-0.12360382080078125,0,0.0,0.0,0.0,0.0,0.0,0.0,0
27885,-0.014999999664723873,0.14300000667572021,0.9789999723434448,-0.3100000023841858,-0.15000000596046448,-0.019999999552965164,17.399999618530273,4.900000095367432,-51.20000076293945,8.260000228881836,-0.8299999833106995,-143.4199981689453,23.498943328857422,1004.5700073242188,-0.12360382080078125,0,0.0,0.0,0.0,0.0,0.0,0.0,0
27920,-0.014999999664723873,0.14300000667572021,0.9789999723434448,-0.3100000023841858,-0.15000000596046448,-0.019999999552965164,17.399999618530273,4.900000095367432,-51.20000076293945,8.260000228881836,-0.8299999833106995,-143.4199981689453,23.4781436920166,1004.5823974609375,-0.2292938232421875,0,0.0,0.0,0.0,0.0,0.0,0.0,0
27988,-0.01600000075995922,0.1420000046491623,0.984000027179718,-0.3100000023841858,-0.029999999329447746,-0.33000001311302185,17.399999618530273,5.0,-51.0,8.220000267028809,-0.8299999833106995,-143.41000366210938,23.472885131835938,1004.5804443359375,-0.21343994140625,0,0.0,0.0,0.0,0.0,0.0,0.0,0
29501,-0.04699999839067459,0.11400000005960464,0.9929999709129333,5.170000076293945,-4.630000114440918,0.6299999952316284,17.799999237060547,5.900000095367432,-5.0,6.71999979019165,-2.4600000381469727,-143.22999572753906,23.490703582763672,1004.5674438476562,-0.10247039794921875,0,0.0,0.0,0.0,0.0,0.0,0.0,0
29612,-0.04699999839067459,0.11400000005960464,0.9929999709129333,5.170000076293945,-4.630000114440918,0.6299999952316284,17.799999237060547,5.900000095367432,-5.0,6.71999979019165,-2.4600000381469727,-143.22999572753906,23.490703582763672,1004.5674438476562,-0.10247039794921875,0,0.0,0.0,0.0,0.0,0.0,0.0,0
29673,-0.039000000804662704,0.11699999868869781,0.9909999966621399,-3.240000009536743,3.2799999713897705,0.5699999928474426,17.700000762939453,5.699999809265137,-50.20000076293945,6.980000019073486,-2.190000057220459,-143.22000122070312,23.488082885742188,1004.5656127929688,-0.08661651611328125,0,0.0,0.0,0.0,0.0,0.0,0.0,0
29781,-0.039000000804662704,0.11699999868869781,0.9909999966621399,-3.240000009536743,3.2799999713897705,0.5699999928474426,17.700000762939453,5.699999809265137,-50.20000076293945,6.980000019073486,-2.190000057220459,-143.22000122070312,23.4764461517334,1004.5753173828125,-0.16852569580078125,0,0.0,0.0,0.0,0.0,0.0,0.0,0
30506,0.07500000298023224,0.210999995470047,0.7080000042915344,9.75,-5.809999942779541,0.05000000074505806,17.399999618530273,5.099999904632568,-50.70000076293945,8.029999732971191,-0.8199999928474426,-143.49000549316406,23.465242385864258,1004.5706176757812,-0.1288909912109375,0,0.0,0.0,0.0,0.0,0.0,0.0,0
31255,-0.014000000432133675,0.13600000739097595,0.9819999933242798,0.0,0.0,0.0,16.600000381469727,5.199999809265137,-50.70000076293945,7.889999866485596,-0.8700000047683716,-143.60000610351562,23.48764991760254,1004.5623168945312,-0.06018829345703125,0,0.0,0.0,0.0,0.0,0.0,0.0,0
31316,-0.014000000432133675,0.13600000739097595,0.9819999933242798,0.0,0.0,0.0,16.600000381469727,5.199999809265137,-50.70000076293945,7.889999866485596,-0.8700000047683716,-143.60000610351562,23.4915714263916,1004.56103515625,-0.04962158203125,0,0.0,0.0,0.0,0.0,0.0,0.0,0
31510,-0.014999999664723873,0.13699999451637268,0.9819999933242798,0.0,0.0,0.0,16.799999237060547,5.199999809265137,-50.70000076293945,7.889999866485596,-0.8700000047683716,-143.60000610351562,23.50029945373535,1004.56298828125,-0.0654754638671875,0,0.0,0.0,0.0,0.0,0.0,0.0,0
31576,-0.014999999664723873,0.13699999451637268,0.9819999933242798,0.0,0.0,0.0,16.799999237060547,5.199999809265137,-50.70000076293945,7.889999866485596,-0.8700000047683716,-143.60000610351562,23.50029945373535,1004.56298828125,-0.0654754638671875,0,0.0,0.0,0.0,0.0,0.0,0.0,0
31626,-0.014000000432133675,0.13699999451637268,0.984000027179718,0.0,0.0,0.0,17.0,5.400000095367432,-50.79999923706055,7.880000114440918,-0.8700000047683716,-143.5800018310547,23.4855899810791,1004.5693969726562,-0.11832427978515625,0,0.0,0.0,0.0,0.0,0.0,0.0,0
32436,-0.017999999225139618,0.13099999725818634,0.9829999804496765,-5.5,5.550000190734863,-0.11999999731779099,17.399999618530273,5.0,-51.20000076293945,7.570000171661377,-1.149999976158142,-143.74000549316406,23.478687286376953,1004.5701293945312,-0.126251220703125,0,0.0,0.0,0.0,0.0,0.0,0.0,0
33184,-0.057999998331069946,0.09700000286102295,0.9980000257492065,-3.240000009536743,2.549999952316284,-1.4500000476837158,18.100000381469727,6.300000190734863,-49.099998474121094,5.789999961853027,-2.9100000858306885,-144.19000244140625,23.46818733215332,1004.5890502929688,-0.28478240966796875,0,0.0,0.0,0.0,0.0,0.0,0.0,0
33297,-0.057999998331069946,0.09700000286102295,0.9980000257492065,-3.240000009536743,2.549999952316284,-1.4500000476837158,18.100000381469727,6.300000190734863,-49.099998474121094,5.789999961853027,-2.9100000858306885,-144.19000244140625,23.46818733215332,1004.5890502929688,-0.28478240966796875,0,0.0,0.0,0.0,0.0,0.0,0.0,0
33353,-0.057999998331069946,0.09700000286102295,0.9980000257492065,-3.240000009536743,2.549999952316284,-1.4500000476837158,18.100000381469727,6.300000190734863,-49.099998474121094,5.789999961853027,-2.9100000858306885,-144.19000244140625,23.472848892211914,1004.5847778320312,-0.24779510498046875,0,0.0,0.0,0.0,0.0,0.0,0.0,0
33389,-0.06599999964237213,0.09099999815225601,1.0,-1.899999976158142,1.6299999952316284,-0.6499999761581421,18.399999618530273,6.699999809265137,-49.29999923706055,5.679999828338623,-3.0,-144.16000366210938,23.477149963378906,1004.5779418945312,-0.1923065185546875,0,0.0,0.0,0.0,0.0,0.0,0.0,0
33499,-0.06599999964237213,0.09099999815225601,1.0,-1.899999976158142,1.6299999952316284,-0.6499999761581421,18.399999618530273,6.699999809265137,-49.29999923706055,5.679999828338623,-3.0,-144.16000366210938,23.48052978515625,1004.576171875,-0.17645263671875,0,0.0,0.0,0.0,0.0,0.0,0.0,0
34301,-0.014000000432133675,0.1379999965429306,0.9900000095367432,0.6600000262260437,-0.15000000596046448,-0.019999999552965164,17.100000381469727,5.300000190734863,-5118.0,8.050000190734863,-0.8399999737739563,-143.8300018310547,23.477981567382812,1004.5829467773438,-0.23194122314453125,0,0.0,0.0,0.0,0.0,0.0,0.0,0
34456,-0.014000000432133675,0.1379999965429306,0.9900000095367432,0.6600000262260437,-0.15000000596046448,-0.019999999552965164,17.100000381469727,5.300000190734863,-5118.0,8.050000190734863,-0.8399999737739563,-143.8300018310547,23.477981567382812,1004.5829467773438,-0.23194122314453125,0,0.0,0.0,0.0,0.0,0.0,0.0,0
34488,-0.07500000298023224,0.1770000010728836,0.9399999976158142,-27.93000030517578,-2.5999999046325684,0.7699999809265137,17.299999237060547,5.099999904632568,-51.5,7.949999809265137,-0.8500000238418579,-143.32000732421875,23.470373153686523,1004.5836181640625,-0.2398681640625,0,0.0,0.0,0.0,0.0,0.0,0.0,0
34606,-0.07500000298023224,0.1770000010728836,0.9399999976158142,-27.93000030517578,-2.5999999046325684,0.7699999809265137,17.299999237060547,5.099999904632568,-51.5,7.949999809265137,-0.8500000238418579,-143.32000732421875,23.470373153686523,1004.5836181640625,-0.2398681640625,0,0.0,0.0,0.0,0.0,0.0,0.0,0
34784,-0.07500000298023224,0.1770000010728836,0.9399999976158142,-27.93000030517578,-2.5999999046325684,0.7699999809265137,17.299999237060547,5.099999904632568,-51.5,7.949999809265137,-0.8500000238418579,-143.32000732421875,23.465024948120117,1004.5867309570312,-0.26364898681640625,0,0.0,0.0,0.0,0.0,0.0,0.0,0
34857,-0.013000000268220901,0.11599999666213989,0.984000027179718,-0.5600000023841858,-0.20999999344348907,-0.9399999976158142,17.0,6.0,-51.0,6.840000152587891,-0.7599999904632568,-143.64999389648438,23.450332641601562,1004.5990600585938,-0.3693389892578125,0,0.0,0.0,0.0,0.0,0.0,0.0,0
34967,-0.013000000268220901,0.11599999666213989,0.984000027179718,-0.5600000023841858,-0.20999999344348907,-0.9399999976158142,17.0,6.0,-51.0,6.840000152587891,-0.7599999904632568,-143.64999389648438,23.45013427734375,1004.5989990234375,-0.36669158935546875,0,0.0,0.0,0.0,0.0,0.0,0.0,0
35059,-0.014000000432133675,0.11999999731779099,0.9660000205039978,-1.840000033378601,0.20999999344348907,2.4700000286102295,16.799999237060547,5.699999809265137,-50.400001525878906,6.679999828338623,-0.7599999904632568,-143.58999633789062,23.4575252532959,1004.593017578125,-0.31649017333984375,0,0.0,0.0,0.0,0.0,0.0,0.0,0
35813,-0.014000000432133675,0.10000000149011612,0.9769999980926514,-0.8600000143051147,0.2199999988079071,-0.029999999329447746,17.700000762939453,6.0,-50.29999923706055,5.699999809265137,-0.6800000071525574,-146.17999267578125,23.483638763427734,1004.5836791992188,-0.2398681640625,0,0.0,0.0,0.0,0.0,0.0,0.0,0
35889,-0.009999999776482582,0.09200000017881393,0.9919999837875366,-0.3799999952316284,-0.029999999329447746,-0.07999999821186066,17.700000762939453,6.300000190734863,-50.099998474121094,5.619999885559082,-0.6899999976158142,-146.22000122070312,23.486980438232422,1004.579833984375,-0.208160400390625,0,0.0,0.0,0.0,0.0,0.0,0.0,0
36001,-0.009999999776482582,0.09200000017881393,0.9919999837875366,-0.3799999952316284,-0.029999999329447746,-0.07999999821186066,17.700000762939453,6.300000190734863,-50.099998474121094,5.619999885559082,-0.6899999976158142,-146.22000122070312,23.488046646118164,1004.5759887695312,-0.1738128662109375,0,0.0,0.0,0.0,0.0,0.0,0.0,0
36072,-0.009999999776482582,0.09200000017881393,0.9919999837875366,-0.3799999952316284,-0.029999999329447746,-0.07999999821186066,17.700000762939453,6.300000190734863,-50.099998474121094,5.619999885559082,-0.6899999976158142,-146.22000122070312,23.488046646118164,1004.5759887695312,-0.1738128662109375,0,0.0,0.0,0.0,0.0,0.0,0.0,0
36118,-0.009999999776482582,0.09700000286102295,0.9860000014305115,0.30000001192092896,0.029999999329447746,0.3499999940395355,17.399999618530273,5.900000095367432,-50.5,5.610000133514404,-0.699999988079071,-146.32000732421875,23.495853424072266,1004.5714111328125,-0.13681793212890625,0,0.0,0.0,0.0,0.0,0.0,0.0,0
36225,-0.009999999776482582,0.09700000286102295,0.9860000014305115,0.30000001192092896,0.029999999329447746,0.3499999940395355,17.399999618530273,5.900000095367432,-50.5,5.610000133514404,-0.699999988079071,-146.32000732421875,23.488842010498047,1004.5736083984375,-0.15531158447265625,0,0.0,0.0,0.0,0.0,0.0,0.0,0
36942,0.01600000075995922,0.10700000077486038,0.972000002861023,-0.9300000071525574,0.4300000071525574,7.980000019073486,18.200000762939453,6.099999904632568,-50.29999923706055,5.570000171661377,-0.7400000095367432,-147.3000030517578,23.483203887939453,1004.578369140625,-0.1949462890625,0,0.0,0.0,0.0,0.0,0.0,0.0,0
36974,-0.041999999433755875,0.07199999690055847,0.9750000238418579,-1.9700000286102295,0.3100000023841858,6.869999885559082,18.700000762939453,6.599999904632568,-49.5,3.8299999237060547,-0.6800000071525574,-151.97999572753906,23.476318359375,1004.5802612304688,-0.2108001708984375,0,0.0,0.0,0.0,0.0,0.0,0.0,0
37083,-0.041999999433755875,0.07199999690055847,0.9750000238418579,-1.9700000286102295,0.3100000023841858,6.869999885559082,18.700000762939453,6.599999904632568,-49.5,3.8299999237060547,-0.6800000071525574,-151.97999572753906,23.476318359375,1004.5802612304688,-0.2108001708984375,0,0.0,0.0,0.0,0.0,0.0,0.0,0
37867,-0.010999999940395355,0.0010000000474974513,0.9919999837875366,0.0,0.0,0.0,18.899999618530273,8.199999809265137,-47.79999923706055,0.2199999988079071,-0.550000011920929,-152.27000427246094,23.46856689453125,1004.5897827148438,-0.290069580078125,0,0.0,0.0,0.0,0.0,0.0,0.0,0
37946,-0.010999999940395355,0.0010000000474974513,0.9919999837875366,0.0,0.0,0.0,18.899999618530273,8.199999809265137,-47.79999923706055,0.2199999988079071,-0.550000011920929,-152.27000427246094,23.46856689453125,1004.5897827148438,-0.290069580078125,0,0.0,0.0,0.0,0.0,0.0,0.0,0
38003,-0.009999999776482582,0.003000000026077032,0.9929999709129333,0.0,0.0,0.0,18.799999237060547,8.100000381469727,-48.099998474121094,0.2199999988079071,-0.550000011920929,-152.27000427246094,23.476390838623047,1004.5886840820312,-0.28214263916015625,0,0.0,0.0,0.0,0.0,0.0,0.0,0
38076,-0.009999999776482582,0.003000000026077032,0.9929999709129333,0.0,0.0,0.0,18.799999237060547,8.100000381469727,-48.099998474121094,0.2199999988079071,-0.550000011920929,-152.27000427246094,23.476390838623047,1004.5886840820312,-0.28214263916015625,0,0.0,0.0,0.0,0.0,0.0,0.0,0
39398,-0.007000000216066837,0.0020000000949949026,0.9909999966621399,0.0,0.0,0.0,18.600000381469727,8.199999809265137,-47.20000076293945,0.18000000715255737,-0.550000011920929,-152.27000427246094,23.470373153686523,1004.5887451171875,-0.28214263916015625,0,0.0,0.0,0.0,0.0,0.0,0.0,0
39506,-0.007000000216066837,0.0020000000949949026,0.9909999966621399,0.0,0.0,0.0,18.600000381469727,8.199999809265137,-47.20000076293945,0.18000000715255737,-0.550000011920929,-152.27000427246094,23.47406005859375,1004.5831298828125,-0.23458099365234375,0,0.0,0.0,0.0,0.0,0.0,0.0,0
39598,-0.008999999612569809,0.0020000000949949026,0.9919999837875366,0.0,0.0,0.0,19.0,8.100000381469727,-47.70000076293945,0.18000000715255737,-0.550000011920929,-152.27000427246094,23.480024337768555,1004.5798950195312,-0.208160400390625,0,0.0,0.0,0.0,0.0,0.0,0.0,0
39683,-0.008999999612569809,0.0020000000949949026,0.9919999837875366,0.0,0.0,0.0,19.0,8.100000381469727,-47.70000076293945,0.18000000715255737,-0.550000011920929,-152.27000427246094,23.48838996887207,1004.5767211914062,-0.18173980712890625,0,0.0,0.0,0.0,0.0,0.0,0.0,0
40452,-0.009999999776482582,0.004000000189989805,0.9919999837875366,0.0,0.0,0.0,18.600000381469727,8.0,-47.79999923706055,0.17000000178813934,-0.550000011920929,-152.27000427246094,23.473825454711914,1004.5861206054688,-0.2610015869140625,0,0.0,0.0,0.0,0.0,0.0,0.0,0
40507,-0.008999999612569809,0.0010000000474974513,0.9909999966621399,0.0,0.0,0.0,18.600000381469727,8.199999809265137,-47.400001525878906,0.17000000178813934,-0.550000011920929,-152.27000427246094,23.466108322143555,1004.587890625,-0.2742156982421875,0,0.0,0.0,0.0,0.0,0.0,0.0,0
40619,-0.008999999612569809,0.0010000000474974513,0.9909999966621399,0.0,0.0,0.0,18.600000381469727,8.199999809265137,-47.400001525878906,0.17000000178813934,-0.550000011920929,-152.27000427246094,23.466108322143555,1004.587890625,-0.2742156982421875,0,0.0,0.0,0.0,0.0,0.0,0.0,0
40670,-0.009999999776482582,0.003000000026077032,0.9929999709129333,0.0,0.0,0.0,18.899999618530273,8.199999809265137,-47.5,0.17000000178813934,-0.550000011920929,-152.27000427246094,23.45821189880371,1004.5903930664062,-0.29535675048828125,0,0.0,0.0,0.0,0.0,0.0,0.0,0
41440,-0.010999999940395355,0.004000000189989805,0.9909999966621399,0.0,0.0,0.0,18.899999618530273,8.199999809265137,-47.599998474121094,0.17000000178813934,-0.550000011920929,-152.27000427246094,23.460542678833008,1004.5884399414062,-0.27950286865234375,0,0.0,0.0,0.0,0.0,0.0,0.0,0
41548,-0.010999999940395355,0.004000000189989805,0.9909999966621399,0.0,0.0,0.0,18.899999618530273,8.199999809265137,-47.599998474121094,0.17000000178813934,-0.550000011920929,-152.27000427246094,23.456205368041992,1004.5872802734375,-0.26892852783203125,0,0.0,0.0,0.0,0.0,0.0,0.0,0
43053,-0.009999999776482582,0.004000000189989805,0.9929999709129333,0.0,0.0,0.0,18.799999237060547,8.100000381469727,-47.79999923706055,0.17000000178813934,-0.550000011920929,-152.27000427246094,23.454742431640625,1004.5830688476562,-0.23458099365234375,0,0.0,0.0,0.0,0.0,0.0,0.0,0
43161,-0.009999999776482582,0.004000000189989805,0.9929999709129333,0.0,0.0,0.0,18.799999237060547,8.100000381469727,-47.79999923706055,0.17000000178813934,-0.550000011920929,-152.27000427246094,23.459531784057617,1004.583251953125,-0.23722076416015625,0,0.0,0.0,0.0,0.0,0.0,0.0,0
43264,-0.009999999776482582,0.004000000189989805,0.9929999709129333,0.0,0.0,0.0,18.799999237060547,8.100000381469727,-47.79999923706055,0.17000000178813934,-0.550000011920929,-152.27000427246094,23.459531784057617,1004.583251953125,-0.23722076416015625,0,0.0,0.0,0.0,0.0,0.0,0.0,0
43305,-0.014000000432133675,0.0020000000949949026,0.9900000095367432,0.0,0.0,0.0,18.799999237060547,8.199999809265137,-47.29999923706055,0.17000000178813934,-0.550000011920929,-152.27000427246094,23.464916229248047,1004.5798950195312,-0.208160400390625,0,0.0,0.0,0.0,0.0,0.0,0.0,0
44028,-0.008999999612569809,0.0020000000949949026,0.9900000095367432,0.0,0.0,0.0,18.600000381469727,8.300000190734863,-47.70000076293945,0.17000000178813934,-0.550000011920929,-152.27000427246094,23.485300064086914,1004.5681762695312,-0.1103973388671875,0,0.0,0.0,0.0,0.0,0.0,0.0,0
44068,-0.009999999776482582,0.0020000000949949026,0.9909999966621399,0.0,0.0,0.0,18.799999237060547,8.0,-47.599998474121094,0.1599999964237213,-0.550000011920929,-152.27000427246094,23.476228713989258,1004.5780639648438,-0.1923065185546875,0,0.0,0.0,0.0,0.0,0.0,0.0,0
44132,-0.009999999776482582,0.0020000000949949026,0.9909999966621399,0.0,0.0,0.0,18.799999237060547,8.0,-47.599998474121094,0.1599999964237213,-0.550000011920929,-152.27000427246094,23.476228713989258,1004.5780639648438,-0.1923065185546875,0,0.0,0.0,0.0,0.0,0.0,0.0,0
44982,-0.010999999940395355,0.0020000000949949026,0.9909999966621399,0.0,0.0,0.0,18.399999618530273,8.100000381469727,-47.79999923706055,0.17000000178813934,-0.5600000023841858,-152.27999877929688,23.452590942382812,1004.5896606445312,-0.290069580078125,0,0.0,0.0,0.0,0.0,0.0,0.0,0
45646,-0.009999999776482582,0.0020000000949949026,0.9929999709129333,0.0,0.0,0.0,18.700000762939453,8.0,-47.70000076293945,0.17000000178813934,-0.550000011920929,-152.27999877929688,23.474079132080078,1004.5772094726562,-0.18437957763671875,0,0.0,0.0,0.0,0.0,0.0,0.0,0
45752,-0.009999999776482582,0.0020000000949949026,0.9929999709129333,0.0,0.0,0.0,18.700000762939453,8.0,-47.70000076293945,0.17000000178813934,-0.550000011920929,-152.27999877929688,23.473085403442383,1004.574951171875,-0.16588592529296875,0,0.0,0.0,0.0,0.0,0.0,0.0,0
45846,-0.009999999776482582,0.0020000000949949026,0.9929999709129333,0.0,0.0,0.0,18.700000762939453,8.0,-47.70000076293945,0.17000000178813934,-0.550000011920929,-152.27999877929688,23.4759578704834,1004.5745849609375,-0.163238525390625,0,0.0,0.0,0.0,0.0,0.0,0.0,0
46702,-0.008999999612569809,0.0020000000949949026,0.9900000095367432,0.0,0.0,0.0,18.899999618530273,8.399999618530273,-47.599998474121094,0.17000000178813934,-0.5600000023841858,-152.27999877929688,23.486547470092773,1004.5703735351562,-0.1288909912109375,0,0.0,0.0,0.0,0.0,0.0,0.0,0
46811,-0.008999999612569809,0.0020000000949949026,0.9900000095367432,0.0,0.0,0.0,18.899999618530273,8.399999618530273,-47.599998474121094,0.17000000178813934,-0.5600000023841858,-152.27999877929688,23.477602005004883,1004.572021484375,-0.1421051025390625,0,0.0,0.0,0.0,0.0,0.0,0.0,0
47467,-0.009999999776482582,0.004999999888241291,0.0,0.0,0.0,0.0,-0.008999999612569809,0.0010000000474974513,0.9909999966621399,0.17000000178813934,-0.550000011920929,-152.2899932861328,23.50096893310547,1004.5678100585938,-0.10511016845703125,0,0.0,0.0,0.0,0.0,0.0,0.0,0
47587,-0.009999999776482582,0.0010000000474974513,0.9950000047683716,0.0,0.0,0.0,18.799999237060547,8.0,-47.70000076293945,0.17000000178813934,-0.550000011920929,-152.2899932861328,23.49151611328125,1004.5738525390625,-0.157958984375,0,0.0,0.0,0.0,0.0,0.0,0.0,0
47689,-0.009999999776482582,0.0010000000474974513,0.9950000047683716,0.0,0.0,0.0,18.799999237060547,8.0,-47.70000076293945,0.17000000178813934,-0.550000011920929,-152.2899932861328,23.49151611328125,1004.5738525390625,-0.157958984375,0,0.0,0.0,0.0,0.0,0.0,0.0,0
48445,-0.009999999776482582,-0.0,0.9919999837875366,0.0,0.0,0.0,18.799999237060547,7.800000190734863,-4.0,0.1599999964237213,-0.550000011920929,-152.2899932861328,23.46796989440918,1004.58447265625,-0.245147705078125,0,0.0,0.0,0.0,0.0,0.0,0.0,0
48478,-0.009999999776482582,-0.0,0.9919999837875366,0.0,0.0,0.0,18.799999237060547,7.800000190734863,-4.0,0.1599999964237213,-0.550000011920929,-152.2899932861328,23.47357177734375,1004.5812377929688,-0.21872711181640625,0,0.0,0.0,0.0,0.0,0.0,0.0,0
48560,-0.009999999776482582,0.003000000026077032,0.9929999709129333,0.0,0.0,0.0,19.0,8.0,-47.5,0.17000000178813934,-0.550000011920929,-152.2899932861328,23.47357177734375,1004.5812377929688,-0.21872711181640625,0,0.0,0.0,0.0,0.0,0.0,0.0,0
49419,-0.008999999612569809,-0.0,0.9900000095367432,0.0,0.0,0.0,-152.3000030517578,0.0,0.0,0.17000000178813934,-0.550000011920929,-152.2899932861328,23.46796989440918,1004.5845336914062,-0.24779510498046875,0,0.0,0.0,0.0,0.0,0.0,0.0,0
49555,-0.008999999612569809,-0.0,0.9900000095367432,0.0,0.0,0.0,-152.3000030517578,0.0,0.0,0.17000000178813934,-0.550000011920929,-152.2899932861328,23.46294593811035,1004.5853881835938,-0.25307464599609375,0,0.0,0.0,0.0,0.0,0.0,0.0,0
49660,-0.008999999612569809,-0.0,0.9900000095367432,0.0,0.0,0.0,-152.3000030517578,0.0,0.0,0.17000000178813934,-0.550000011920929,-152.2899932861328,23.463869094848633,1004.58544921875,-0.25307464599609375,0,0.0,0.0,0.0,0.0,0.0,0.0,0
50403,-0.010999999940395355,0.004000000189989805,0.9919999837875366,0.0,0.0,0.0,18.600000381469727,8.300000190734863,-47.5,0.17000000178813934,-0.550000011920929,-152.3000030517578,23.477855682373047,1004.5762329101562,-0.17645263671875,0,0.0,0.0,0.0,0.0,0.0,0.0,0
50507,-0.010999999940395355,0.004000000189989805,0.9919999837875366,0.0,0.0,0.0,18.600000381469727,8.300000190734863,-47.5,0.17000000178813934,-0.550000011920929,-152.3000030517578,23.477855682373047,1004.5762329101562,-0.17645263671875,0,0.0,0.0,0.0,0.0,0.0,0.0,0
50540,-0.007000000216066837,0.0020000000949949026,0.9929999709129333,0.0,0.0,0.0,18.899999618530273,8.199999809265137,-47.5,0.1599999964237213,-0.550000011920929,-152.3000030517578,23.4769344329834,1004.5736694335938,-0.15531158447265625,0,0.0,0.0,0.0,0.0,0.0,0.0,0
51305,-0.008999999612569809,0.0020000000949949026,0.9900000095367432,0.0,0.0,0.0,19.200000762939453,8.300000190734863,-47.70000076293945,0.17000000178813934,-0.550000011920929,-152.3000030517578,23.47890281677246,1004.5745239257812,-0.163238525390625,0,0.0,0.0,0.0,0.0,0.0,0.0,0
52044,-0.007000000216066837,0.003000000026077032,0.9929999709129333,0.0,0.0,0.0,18.899999618530273,8.199999809265137,-47.70000076293945,0.1599999964237213,-0.550000011920929,-152.3000030517578,23.467193603515625,1004.585205078125,-0.25307464599609375,0,0.0,0.0,0.0,0.0,0.0,0.0,0
52126,-0.008999999612569809,0.004000000189989805,0.9909999966621399,0.0,0.0,0.0,18.799999237060547,8.300000190734863,-47.70000076293945,0.1599999964237213,-0.550000011920929,-152.3000030517578,23.467193603515625,1004.585205078125,-0.25307464599609375,0,0.0,0.0,0.0,0.0,0.0,0.0,0
52170,-0.008999999612569809,0.004000000189989805,0.9909999966621399,0.0,0.0,0.0,18.799999237060547,8.300000190734863,-47.70000076293945,0.1599999964237213,-0.550000011920929,-152.3000030517578,23.477041244506836,1004.5816650390625,-0.22136688232421875,0,0.0,0.0,0.0,0.0,0.0,0.0,0
52341,-0.009999999776482582,0.003000000026077032,0.9950000047683716,0.0,0.0,0.0,18.899999618530273,8.100000381469727,-47.20000076293945,0.1599999964237213,-0.550000011920929,-152.3000030517578,23.48477554321289,1004.5764770507812,-0.1790924072265625,0,0.0,0.0,0.0,0.0,0.0,0.0,0
52448,-0.009999999776482582,0.003000000026077032,0.9950000047683716,0.0,0.0,0.0,18.899999618530273,8.100000381469727,-47.20000076293945,0.1599999964237213,-0.550000011920929,-152.3000030517578,23.468168258666992,1004.5870361328125,-0.26628875732421875,0,0.0,0.0,0.0,0.0,0.0,0.0,0
53226,-0.009999999776482582,0.0020000000949949026,0.9940000176429749,0.0,0.0,0.0,18.899999618530273,8.399999618530273,-47.5,0.1599999964237213,-0.550000011920929,-152.3000030517578,23.47427749633789,1004.5812377929688,-0.21872711181640625,0,0.0,0.0,0.0,0.0,0.0,0.0,0
53334,-0.009999999776482582,0.0020000000949949026,0.9940000176429749,0.0,0.0,0.0,18.899999618530273,8.399999618530273,-47.5,0.1599999964237213,-0.550000011920929,-152.3000030517578,23.47427749633789,1004.5812377929688,-0.21872711181640625,0,0.0,0.0,0.0,0.0,0.0,0.0,0
53378,-0.008999999612569809,0.0020000000949949026,0.9940000176429749,0.0,0.0,0.0,19.0,8.100000381469727,-47.400001525878906,0.1599999964237213,-0.550000011920929,-152.3000030517578,23.468891143798828,1004.584716796875,-0.24779510498046875,0,0.0,0.0,0.0,0.0,0.0,0.0,0
53554,-0.008999999612569809,0.0020000000949949026,0.9940000176429749,0.0,0.0,0.0,19.0,8.100000381469727,-47.400001525878906,0.1599999964237213,-0.550000011920929,-152.3000030517578,23.47136688232422,1004.58349609375,-0.23722076416015625,0,0.0,0.0,0.0,0.0,0.0,0.0,0
54314,-0.009999999776482582,0.003000000026077032,0.9940000176429749,0.0,0.0,0.0,18.700000762939453,8.199999809265137,-47.70000076293945,0.1599999964237213,-0.550000011920929,-152.3000030517578,23.474584579467773,1004.5960693359375,-0.34291839599609375,0,0.0,0.0,0.0,0.0,0.0,0.0,0
54421,-0.009999999776482582,0.003000000026077032,0.9940000176429749,0.0,0.0,0.0,18.700000762939453,8.199999809265137,-47.70000076293945,0.1599999964237213,-0.550000011920929,-152.3000030517578,23.474584579467773,1004.5960693359375,-0.34291839599609375,0,0.0,0.0,0.0,0.0,0.0,0.0,0
54469,-0.008999999612569809,0.004999999888241291,0.9940000176429749,0.0,0.0,0.0,18.799999237060547,8.0,-47.5,0.1599999964237213,-0.550000011920929,-152.3000030517578,23.478017807006836,1004.5923461914062,-0.31121063232421875,0,0.0,0.0,0.0,0.0,0.0,0.0,0
54586,-0.008999999612569809,0.004999999888241291,0.9940000176429749,0.0,0.0,0.0,18.799999237060547,8.0,-47.5,0.1599999964237213,-0.550000011920929,-152.3000030517578,23.478017807006836,1004.5923461914062,-0.31121063232421875,0,0.0,0.0,0.0,0.0,0.0,0.0,0
54753,-0.008999999612569809,0.0020000000949949026,0.9940000176429749,0.0,0.0,0.0,18.899999618530273,8.199999809265137,-47.29999923706055,0.17000000178813934,-0.550000011920929,-152.3000030517578,23.47120475769043,1004.5953979492188,-0.3376312255859375,0,0.0,0.0,0.0,0.0,0.0,0.0,0
54860,-0.008999999612569809,0.0020000000949949026,0.9940000176429749,0.0,0.0,0.0,18.899999618530273,8.199999809265137,-47.29999923706055,0.17000000178813934,-0.550000011920929,-152.3000030517578,23.453441619873047,1004.6060180664062,-0.42746734619140625,0,0.0,0.0,0.0,0.0,0.0,0.0,0
54964,-0.008999999612569809,0.0020000000949949026,0.9940000176429749,0.0,0.0,0.0,18.899999618530273,8.199999809265137,-47.29999923706055,0.17000000178813934,-0.550000011920929,-152.3000030517578,23.451309204101562,1004.602783203125,-0.39839935302734375,0,0.0,0.0,0.0,0.0,0.0,0.0,0
55761,-0.009999999776482582,0.0010000000474974513,0.9909999966621399,0.0,0.0,0.0,18.700000762939453,8.100000381469727,-48.099998474121094,0.17000000178813934,-0.550000011920929,-152.3000030517578,23.478397369384766,1004.5836791992188,-0.2398681640625,0,0.0,0.0,0.0,0.0,0.0,0.0,0
55827,-0.009999999776482582,0.0010000000474974513,0.9909999966621399,0.0,0.0,0.0,18.700000762939453,8.100000381469727,-48.099998474121094,0.17000000178813934,-0.550000011920929,-152.3000030517578,23.478397369384766,1004.5836791992188,-0.2398681640625,0,0.0,0.0,0.0,0.0,0.0,0.0,0
56610,-0.010999999940395355,0.0020000000949949026,0.9950000047683716,0.0,0.0,0.0,19.0,8.199999809265137,-47.400001525878906,0.17000000178813934,-0.550000011920929,-152.3000030517578,23.476482391357422,1004.5752563476562,-0.16852569580078125,0,0.0,0.0,0.0,0.0,0.0,0.0,0
56718,-0.010999999940395355,0.0020000000949949026,0.9950000047683716,0.0,0.0,0.0,19.0,8.199999809265137,-47.400001525878906,0.17000000178813934,-0.550000011920929,-152.3000030517578,23.468313217163086,1004.58056640625,-0.21343994140625,0,0.0,0.0,0.0,0.0,0.0,0.0,0
56795,-0.009999999776482582,0.004999999888241291,0.9909999966621399,0.0,0.0,0.0,18.600000381469727,8.0,-47.5,0.17000000178813934,-0.550000011920929,-152.3000030517578,23.473608016967773,1004.5795288085938,-0.20551300048828125,0,0.0,0.0,0.0,0.0,0.0,0.0,0
57598,-0.012000000104308128,0.0020000000949949026,0.9909999966621399,0.0,0.0,0.0,18.600000381469727,8.399999618530273,-47.70000076293945,0.1599999964237213,-0.550000011920929,-152.3000030517578,23.48333168029785,1004.5769653320312,-0.18173980712890625,0,0.0,0.0,0.0,0.0,0.0,0.0,0
57656,-0.012000000104308128,0.0020000000949949026,0.9909999966621399,0.0,0.0,0.0,18.600000381469727,8.399999618530273,-47.70000076293945,0.1599999964237213,-0.550000011920929,-152.3000030517578,23.4809627532959,1004.57763671875,-0.18965911865234375,0,0.0,0.0,0.0,0.0,0.0,0.0,0
58351,-0.008999999612569809,0.003000000026077032,0.9900000095367432,0.0,0.0,0.0,19.299999237060547,8.399999618530273,-47.599998474121094,0.17000000178813934,-0.550000011920929,-152.30999755859375,23.495637893676758,1004.5798950195312,-0.208160400390625,0,0.0,0.0,0.0,0.0,0.0,0.0,0
58446,-0.008999999612569809,0.003000000026077032,0.9900000095367432,0.0,0.0,0.0,19.299999237060547,8.399999618530273,-47.599998474121094,0.17000000178813934,-0.550000011920929,-152.30999755859375,23.498872756958008,1004.5784912109375,-0.1949462890625,0,0.0,0.0,0.0,0.0,0.0,0.0,0
58524,-0.008999999612569809,0.004000000189989805,0.9929999709129333,0.0,0.0,0.0,19.200000762939453,8.300000190734863,-47.61600112915039,0.1599999964237213,-0.550000011920929,-152.30999755859375,23.505992889404297,1004.572265625,-0.144744873046875,0,0.0,0.0,0.0,0.0,0.0,0.0,0
58648,-0.008999999612569809,0.004999999888241291,0.9950000047683716,0.0,0.0,0.0,0.0,0.0,-0.008999999612569809,0.17000000178813934,-0.550000011920929,-152.30999755859375,23.503154754638672,1004.5731201171875,-0.15003204345703125,0,0.0,0.0,0.0,0.0,0.0,0.0,0
58753,-0.008999999612569809,0.004999999888241291,0.9950000047683716,0.0,0.0,0.0,0.0,0.0,-0.008999999612569809,0.17000000178813934,-0.550000011920929,-152.30999755859375,23.500246047973633,1004.5755615234375,-0.17116546630859375,0,0.0,0.0,0.0,0.0,0.0,0.0,0
58826,-0.010999999940395355,0.006000000052154064,0.9940000176429749,0.0,0.0,0.0,19.299999237060547,8.199999809265137,-47.20000076293945,0.17000000178813934,-0.550000011920929,-152.30999755859375,23.505937576293945,1004.57470703125,-0.163238525390625,0,0.0,0.0,0.0,0.0,0.0,0.0,0
58934,-0.010999999940395355,0.006000000052154064,0.9940000176429749,0.0,0.0,0.0,19.299999237060547,8.199999809265137,-47.20000076293945,0.17000000178813934,-0.550000011920929,-152.30999755859375,23.505956649780273,1004.5762329101562,-0.17645263671875,0,0.0,0.0,0.0,0.0,0.0,0.0,0
60286,-0.009999999776482582,0.003000000026077032,0.9919999837875366,0.0,0.0,0.0,18.899999618530273,8.5,-47.29999923706055,0.17000000178813934,-0.550000011920929,-152.30999755859375,23.468441009521484,1004.5889282226562,-0.28214263916015625,0,0.0,0.0,0.0,0.0,0.0,0.0,0
60381,-0.009999999776482582,0.0010000000474974513,0.9940000176429749,0.0,0.0,0.0,18.799999237060547,8.600000381469727,-47.70000076293945,0.17000000178813934,-0.550000011920929,-152.33999633789062,23.468441009521484,1004.5889282226562,-0.28214263916015625,0,0.0,0.0,0.0,0.0,0.0,0.0,0
60431,-0.009999999776482582,0.0010000000474974513,0.9940000176429749,0.0,0.0,0.0,18.799999237060547,8.600000381469727,-47.70000076293945,0.17000000178813934,-0.550000011920929,-152.33999633789062,23.47283172607422,1004.5862426757812,-0.2610015869140625,0,0.0,0.0,0.0,0.0,0.0,0.0,0
60609,-0.009999999776482582,0.0010000000474974513,0.9940000176429749,0.0,0.0,0.0,18.799999237060547,8.600000381469727,-47.70000076293945,0.17000000178813934,-0.550000011920929,-152.33999633789062,23.476770401000977,1004.5803833007812,-0.2108001708984375,0,0.0,0.0,0.0,0.0,0.0,0.0,0
61365,-0.012000000104308128,0.004000000189989805,0.9959999918937683,0.0,0.0,0.0,18.5,7.599999904632568,-47.79999923706055,0.17000000178813934,-0.550000011920929,-152.44000244140625,23.472253799438477,1004.5870361328125,-0.26628875732421875,0,0.0,0.0,0.0,0.0,0.0,0.0,0
61398,-0.008999999612569809,0.0020000000949949026,0.9959999918937683,0.0,0.0,0.0,19.0,8.399999618530273,-46.79999923706055,0.17000000178813934,-0.550000011920929,-152.44000244140625,23.48262596130371,1004.5822143554688,-0.226654052734375,0,0.0,0.0,0.0,0.0,0.0,0.0,0
61504,-0.008999999612569809,0.0020000000949949026,0.9959999918937683,0.0,0.0,0.0,19.0,8.399999618530273,-46.79999923706055,0.17000000178813934,-0.550000011920929,-152.44000244140625,23.479066848754883,1004.5790405273438,-0.20023345947265625,0,0.0,0.0,0.0,0.0,0.0,0.0,0
61584,-0.007000000216066837,0.0020000000949949026,0.9909999966621399,0.0,0.0,0.0,19.399999618530273,8.100000381469727,-46.599998474121094,0.17000000178813934,-0.5600000023841858,-152.44000244140625,23.484270095825195,1004.578857421875,-0.20023345947265625,0,0.0,0.0,0.0,0.0,0.0,0.0,0
61692,-0.007000000216066837,0.0020000000949949026,0.9909999966621399,0.0,0.0,0.0,19.399999618530273,8.100000381469727,-46.599998474121094,0.17000000178813934,-0.5600000023841858,-152.44000244140625,23.484487533569336,1004.5753173828125,-0.16852569580078125,0,0.0,0.0,0.0,0.0,0.0,0.0,0
61770,-0.007000000216066837,0.0020000000949949026,0.9909999966621399,0.0,0.0,0.0,19.399999618530273,8.100000381469727,-46.599998474121094,0.17000000178813934,-0.5600000023841858,-152.44000244140625,23.484487533569336,1004.5753173828125,-0.16852569580078125,0,0.0,0.0,0.0,0.0,0.0,0.0,0
62548,-0.008999999612569809,0.004999999888241291,0.9919999837875366,0.0,0.0,0.0,19.799999237060547,7.699999809265137,-47.099998474121094,0.17000000178813934,-0.5600000023841858,-152.44000244140625,23.49972152709961,1004.568115234375,-0.10774993896484375,0,0.0,0.0,0.0,0.0,0.0,0.0,0
62631,-0.008999999612569809,0.0010000000474974513,0.9909999966621399,0.0,0.0,0.0,19.899999618530273,7.900000095367432,-46.79999923706055,0.17000000178813934,-0.5600000023841858,-152.44000244140625,23.504329681396484,1004.5658569335938,-0.08925628662109375,0,0.0,0.0,0.0,0.0,0.0,0.0,0
62738,-0.008999999612569809,0.0010000000474974513,0.9909999966621399,0.0,0.0,0.0,19.899999618530273,7.900000095367432,-46.79999923706055,0.17000000178813934,-0.5600000023841858,-152.44000244140625,23.504329681396484,1004.5658569335938,-0.08925628662109375,0,0.0,0.0,0.0,0.0,0.0,0.0,0
62801,-0.008999999612569809,0.0010000000474974513,0.9909999966621399,0.0,0.0,0.0,19.899999618530273,7.900000095367432,-46.79999923706055,0.17000000178813934,-0.5600000023841858,-152.44000244140625,23.50371551513672,1004.5642700195312,-0.07604217529296875,0,0.0,0.0,0.0,0.0,0.0,0.0,0
63468,-0.008999999612569809,0.0010000000474974513,0.9940000176429749,0.0,0.0,0.0,19.899999618530273,8.199999809265137,-47.0,0.17000000178813934,-0.550000011920929,-152.44000244140625,23.468820571899414,1004.5902099609375,-0.29535675048828125,0,0.0,0.0,0.0,0.0,0.0,0.0,0
63528,-0.009999999776482582,0.0010000000474974513,0.9959999918937683,0.0,0.0,0.0,19.700000762939453,8.0,-47.099998474121094,0.17000000178813934,-0.550000011920929,-152.44000244140625,23.464374542236328,1004.591064453125,-0.30063629150390625,0,0.0,0.0,0.0,0.0,0.0,0.0,0
63635,-0.009999999776482582,0.0010000000474974513,0.9959999918937683,0.0,0.0,0.0,19.700000762939453,8.0,-47.099998474121094,0.17000000178813934,-0.550000011920929,-152.44000244140625,23.464374542236328,1004.591064453125,-0.30063629150390625,0,0.0,0.0,0.0,0.0,0.0,0.0,0
64401,-0.009999999776482582,0.004999999888241291,0.9929999709129333,0.0,0.0,0.0,19.899999618530273,8.300000190734863,-46.400001525878906,0.17000000178813934,-0.550000011920929,-152.44000244140625,23.465513229370117,1004.5843505859375,-0.245147705078125,0,0.0,0.0,0.0,0.0,0.0,0.0,0
64504,-0.00800000037997961,0.003000000026077032,0.9909999966621399,0.0,0.0,0.0,0.0,0.0,0.0,0.17000000178813934,-0.550000011920929,-152.44000244140625,23.463417053222656,1004.588134765625,-0.27685546875,0,0.0,0.0,0.0,0.0,0.0,0.0,0
65350,-0.010999999940395355,-0.0,0.9940000176429749,0.0,0.0,0.0,20.0,8.399999618530273,-46.70000076293945,0.1599999964237213,-0.5600000023841858,-152.44000244140625,23.46625328063965,1004.5770263671875,-0.18437957763671875,0,0.0,0.0,0.0,0.0,0.0,0.0,0
66221,-0.008999999612569809,0.0020000000949949026,0.9909999966621399,0.0,0.0,0.0,20.200000762939453,8.199999809265137,-46.79999923706055,0.1599999964237213,-0.550000011920929,-152.44000244140625,23.46883773803711,1004.57763671875,-0.18965911865234375,0,0.0,0.0,0.0,0.0,0.0,0.0,0
66904,-0.009999999776482582,0.003000000026077032,0.9950000047683716,0.0,0.0,0.0,20.299999237060547,8.199999809265137,-46.5,0.1599999964237213,-0.550000011920929,-152.44000244140625,23.472469329833984,1004.573974609375,-0.157958984375,0,0.0,0.0,0.0,0.0,0.0,0.0,0
66985,-0.008999999612569809,0.0020000000949949026,0.9919999837875366,0.0,0.0,0.0,19.799999237060547,8.199999809265137,-46.79999923706055,0.1599999964237213,-0.550000011920929,-152.44000244140625,23.46609115600586,1004.5750122070312,-0.16588592529296875,0,0.0,0.0,0.0,0.0,0.0,0.0,0
67690,-0.008999999612569809,0.004000000189989805,0.9929999709129333,0.0,0.0,0.0,20.0,8.199999809265137,-46.599998474121094,0.1599999964237213,-0.550000011920929,-152.44000244140625,23.459386825561523,1004.5851440429688,-0.25043487548828125,0,0.0,0.0,0.0,0.0,0.0,0.0,0
68055,-0.00800000037997961,0.004000000189989805,0.9909999966621399,0.0,0.0,0.0,16.0,-0.550000011920929,-152.44000244140625,0.1599999964237213,-0.550000011920929,-152.44000244140625,23.43903923034668,1004.5880737304688,-0.27685546875,0,0.0,0.0,0.0,0.0,0.0,0.0,0
68205,-0.00800000037997961,0.004000000189989805,0.9909999966621399,0.0,0.0,0.0,16.0,-0.550000011920929,-152.44000244140625,0.1599999964237213,-0.550000011920929,-152.44000244140625,23.43903923034668,1004.5880737304688,-0.27685546875,0,0.0,0.0,0.0,0.0,0.0,0.0,0
68270,-0.007000000216066837,0.0010000000474974513,0.9919999837875366,0.0,0.0,0.0,19.899999618530273,8.100000381469727,-46.70000076293945,0.1599999964237213,-0.550000011920929,-152.44000244140625,23.435531616210938,1004.5888061523438,-0.28214263916015625,0,0.0,0.0,0.0,0.0,0.0,0.0,0
68378,-0.007000000216066837,0.0010000000474974513,0.9919999837875366,0.0,0.0,0.0,19.899999618530273,8.100000381469727,-46.70000076293945,0.1599999964237213,-0.550000011920929,-152.44000244140625,23.435531616210938,1004.5888061523438,-0.28214263916015625,0,0.0,0.0,0.0,0.0,0.0,0.0,0
69168,-0.010999999940395355,0.0020000000949949026,0.9919999837875366,0.0,0.0,0.0,19.799999237060547,7.699999809265137,-46.79999923706055,0.15000000596046448,-0.5600000023841858,-152.44000244140625,23.445905685424805,1004.5841674804688,-0.2425079345703125,0,0.0,0.0,0.0,0.0,0.0,0.0,0
69275,-0.010999999940395355,0.0020000000949949026,0.9919999837875366,0.0,0.0,0.0,19.799999237060547,7.699999809265137,-46.79999923706055,0.15000000596046448,-0.5600000023841858,-152.44000244140625,23.445905685424805,1004.5841674804688,-0.2425079345703125,0,0.0,0.0,0.0,0.0,0.0,0.0,0
69503,-0.010999999940395355,0.0020000000949949026,0.9929999709129333,0.0,0.0,0.0,20.0,8.100000381469727,-46.70000076293945,0.15000000596046448,-0.5600000023841858,-152.44000244140625,23.431032180786133,1004.5907592773438,-0.29799652099609375,0,0.0,0.0,0.0,0.0,0.0,0.0,0
70376,-0.008999999612569809,0.0,0.0,0.0,0.0,0.0,0.0,-0.009999999776482582,0.004000000189989805,0.1599999964237213,-0.550000011920929,-152.44000244140625,23.445507049560547,1004.5822143554688,-0.226654052734375,0,0.0,0.0,0.0,0.0,0.0,0.0,0
