local_timestamp,connect_timestamp,flight_timestamp,raw_packet_timestamp,ax,ay,az,gx,gy,gz,mx,my,mz,roll,pitch,yaw,max_g,temp,pressure,P_alt,lon,lat,Alt,vel_n,vel_e,vel_d,fix_type,ejection,launch
1753506675.1911998,258.6617708206177,0.0,9,0.0,0.05,0.98,-0.9,-0.2,-0.1,12.5,-24.8,-42.6,-2.03,2.1,-2.44,0,40.77,1006.17,0,0.0,0.0,0.0,0.0,0.0,0.0,0,0,0
1753506675.775039,259.245609998703,0.0,24,0.0,0.05,0.98,-0.9,-0.3,-0.1,12.5,-24.8,-42.0,-2.03,2.09,-2.45,0,40.77,1006.17,0,0.0,0.0,0.0,0.0,0.0,0.0,0,0,0
1753506675.8657444,259.3363153934479,0.0,38,0.0,0.05,0.99,-0.9,-0.3,0.0,12.5,-25.1,-42.6,-2.02,2.08,-2.47,0,40.77,1006.17,0,0.0,0.0,0.0,0.0,0.0,0.0,0,0,0
1753506676.5074172,259.977988243103,0.0,53,0.0,0.05,0.98,-1.0,-0.2,0.0,12.4,-24.7,-42.7,-2.02,2.08,-2.49,0,40.77,1006.17,0,0.0,0.0,0.0,0.0,0.0,0.0,0,0,0
1753506677.0740533,260.5446243286133,0.0,1120,0.0,0.01,0.99,-0.5,-0.2,-0.2,14.2,-18.5,-48.4,-1.2,-0.27,0.93,0,40.73,1006.18,0,0.0,0.0,0.0,0.0,0.0,0.0,0,0,0
1753506677.2606905,260.7312614917755,0.0,2114,0.0,0.0,0.99,0.3,-0.4,-0.1,13.6,-21.7,-35.0,-1.0,-0.27,1.22,0,40.74,1006.17,0,0.0,0.0,0.0,0.0,0.0,0.0,0,0,0
1753506677.8823392,261.35291028022766,0.0,2193,0.0,0.0,0.99,0.3,-0.5,-0.2,13.8,-22.0,-35.1,-1.01,-0.26,1.16,0,40.74,1006.18,0,0.0,0.0,0.0,0.0,0.0,0.0,0,0,0
1753506677.981309,261.45187997817993,0.0,2266,0.0,0.0,0.99,0.4,-0.9,-0.2,9.7,-21.0,-28.4,-1.04,-0.23,1.16,0,40.74,1006.18,0,0.0,0.0,0.0,0.0,0.0,0.0,0,0,0
1753506678.06576,261.53633093833923,0.0,2326,0.01,0.0,0.98,0.5,-1.0,-0.3,8.8,-19.4,-37.2,-1.07,-0.22,1.16,0,40.74,1006.18,0,0.0,0.0,0.0,0.0,0.0,0.0,0,0,0
1753506678.1571538,261.62772488594055,0.0,2401,0.01,0.01,0.99,0.1,-0.9,-0.2,9.4,-18.0,-36.1,-1.16,-0.21,1.19,0,40.74,1006.18,0,0.0,0.0,0.0,0.0,0.0,0.0,0,0,0
1753506678.3740625,261.84463357925415,0.0,2488,0.01,0.0,0.99,0.0,-0.4,-0.2,9.3,-18.7,-36.2,-1.23,-0.24,1.22,0,40.74,1006.18,0,0.0,0.0,0.0,0.0,0.0,0.0,0,0,0
1753506678.740708,262.21127915382385,0.0,2552,0.01,0.0,0.99,0.0,-0.3,-0.2,8.9,-18.8,-35.9,-1.24,-0.24,1.23,0,40.74,1006.18,0,0.0,0.0,0.0,0.0,0.0,0.0,0,0,0
1753506679.1906576,262.6612286567688,0.0,3539,0.01,0.01,0.98,-0.2,-0.7,-0.2,9.9,-23.3,-38.9,-1.29,-0.2,1.44,0,40.74,1006.18,0,0.0,0.0,0.0,0.0,0.0,0.0,0,0,0
1753506679.2823756,262.7529466152191,0.0,3613,0.01,0.0,0.98,-0.1,-0.6,0.0,9.5,-23.9,-38.8,-1.31,-0.24,1.46,0,40.75,1006.18,0,0.0,0.0,0.0,0.0,0.0,0.0,0,0,0
1753506679.3659284,262.83649945259094,0.0,3692,0.01,0.0,0.98,0.0,-0.3,-0.4,9.9,-24.0,-38.7,-1.32,-0.25,1.47,0,40.75,1006.18,0,0.0,0.0,0.0,0.0,0.0,0.0,0,0,0
1753506679.724006,263.1945769786835,0.0,3768,0.01,0.0,0.98,0.0,0.0,0.0,9.8,-24.4,-38.9,-1.32,-0.26,1.49,0,40.75,1006.18,0,0.0,0.0,0.0,0.0,0.0,0.0,0,0,0
1753506679.8815856,263.3521566390991,0.0,4740,0.01,0.0,0.99,0.0,0.0,0.0,7.5,-19.9,-37.4,-1.33,-0.23,1.65,0,40.75,1006.18,0,0.0,0.0,0.0,0.0,0.0,0.0,0,0,0
1753506680.5240326,263.9946036338806,0.0,4818,0.01,0.0,0.98,0.0,0.0,0.0,7.3,-20.4,-37.6,-1.31,-0.23,1.65,0,40.75,1006.18,0,0.0,0.0,0.0,0.0,0.0,0.0,0,0,0
1753506680.6156912,264.08626222610474,0.0,4892,0.0,0.01,0.99,0.0,0.0,0.0,7.6,-20.0,-36.9,-1.27,-0.2,1.66,0,40.75,1006.18,0,0.0,0.0,0.0,0.0,0.0,0.0,0,0,0
1753506680.7100232,264.1805942058563,0.0,4982,0.01,0.0,0.99,-0.2,-0.2,-0.4,7.7,-20.1,-37.1,-1.23,-0.18,1.67,0,40.75,1006.18,0,0.0,0.0,0.0,0.0,0.0,0.0,0,0,0
1753506680.7990825,264.2696535587311,0.0,5041,0.01,0.01,0.99,-0.1,-0.3,-0.2,7.6,-20.1,-36.8,-1.22,-0.18,1.68,0,40.75,1006.18,0,0.0,0.0,0.0,0.0,0.0,0.0,0,0,0
1753506681.0239725,264.4945435523987,0.0,5114,0.01,0.0,0.99,-0.1,-0.6,-0.2,7.7,-20.1,-36.8,-1.2,-0.21,1.7,0,40.75,1006.18,0,0.0,0.0,0.0,0.0,0.0,0.0,0,0,0
1753506681.5239727,264.99454379081726,0.0,5193,0.01,0.0,0.99,0.0,-0.7,-0.1,7.5,-20.1,-37.2,-1.2,-0.23,1.71,0,40.75,1006.18,0,0.0,0.0,0.0,0.0,0.0,0.0,0,0,0
1753506681.6895733,265.16014432907104,0.0,6189,0.01,0.01,0.99,0.1,-0.3,-0.3,8.0,-21.0,-36.0,-1.3,-0.19,1.93,0,40.75,1006.18,0,0.0,0.0,0.0,0.0,0.0,0.0,0,0,0
1753506681.7824347,265.25300574302673,0.0,6252,0.01,0.0,0.98,0.0,-0.3,-0.2,7.8,-20.9,-36.0,-1.31,-0.19,1.94,0,40.75,1006.18,0,0.0,0.0,0.0,0.0,0.0,0.0,0,0,0
1753506682.007366,265.4779369831085,0.0,6327,0.01,0.01,0.98,0.0,0.0,0.0,8.2,-20.5,-36.4,-1.29,-0.18,1.95,0,40.75,1006.18,0,0.0,0.0,0.0,0.0,0.0,0.0,0,0,0
1753506682.4989965,265.96956753730774,0.0,6400,0.01,0.01,0.99,0.0,0.0,0.0,8.2,-20.9,-36.7,-1.28,-0.15,1.95,0,40.76,1006.18,0,0.0,0.0,0.0,0.0,0.0,0.0,0,0,0
1753506682.8240163,266.2945873737335,0.0,7381,0.0,0.0,0.99,0.2,-1.0,-0.3,7.6,-20.8,-36.5,-1.23,-0.14,2.14,0,40.75,1006.19,0,0.0,0.0,0.0,0.0,0.0,0.0,0,0,0
1753506682.915596,266.38616704940796,0.0,7458,0.02,0.01,0.98,0.2,-0.9,-0.1,7.9,-20.4,-37.1,-1.27,-0.14,2.15,0,40.75,1006.18,0,0.0,0.0,0.0,0.0,0.0,0.0,0,0,0
1753506682.9910204,266.4615914821625,0.0,7534,0.01,0.0,0.99,0.3,-0.4,-0.1,8.1,-20.5,-36.7,-1.34,-0.16,2.17,0,40.75,1006.19,0,0.0,0.0,0.0,0.0,0.0,0.0,0,0,0
1753506683.220048,266.6906189918518,0.0,7607,0.01,0.01,0.99,0.0,0.0,0.0,7.9,-20.9,-36.6,-1.37,-0.13,2.19,0,40.75,1006.18,0,0.0,0.0,0.0,0.0,0.0,0.0,0,0,0
1753506683.7231052,267.1936762332916,0.0,7685,0.01,0.01,0.98,0.0,0.0,0.0,7.9,-20.7,-36.7,-1.37,-0.12,2.19,0,40.76,1006.18,0,0.0,0.0,0.0,0.0,0.0,0.0,0,0,0
1753506683.8073556,267.2779266834259,0.0,7760,0.01,0.0,0.98,0.0,0.0,0.0,7.9,-20.8,-36.7,-1.33,-0.11,2.2,0,40.76,1006.18,0,0.0,0.0,0.0,0.0,0.0,0.0,0,0,0
1753506684.0406096,267.51118063926697,0.0,7834,0.0,0.01,0.98,-0.2,-0.3,-0.2,7.3,-20.7,-36.8,-1.31,-0.08,2.21,0,40.76,1006.18,0,0.0,0.0,0.0,0.0,0.0,0.0,0,0,0
1753507498.010257,1081.4808280467987,0.0,9,-0.17,-0.03,0.97,-0.4,-0.3,-0.6,41.3,0.4,-40.8,2.33,10.01,-0.3,0,42.41,1006.13,0,0.0,0.0,0.0,0.0,0.0,0.0,0,0,0
1753507498.0756907,1081.5462617874146,0.0,24,-0.18,-0.03,0.97,-0.4,-0.4,-0.7,41.3,0.3,-40.6,2.33,10.01,-0.29,0,42.41,1006.13,0,0.0,0.0,0.0,0.0,0.0,0.0,0,0,0
1753507498.5753849,1082.0459558963776,0.0,38,-0.17,-0.03,0.97,-0.4,-0.5,-0.9,41.1,0.4,-40.2,2.34,10.01,-0.29,0,42.41,1006.13,0,0.0,0.0,0.0,0.0,0.0,0.0,0,0,0
1753507498.6704547,1082.1410257816315,0.0,53,-0.17,-0.03,0.97,-0.4,-0.4,-0.9,41.2,0.4,-40.0,2.35,10.01,-0.28,0,42.41,1006.13,0,0.0,0.0,0.0,0.0,0.0,0.0,0,0,0
1753507498.7535586,1082.2241296768188,0.0,68,-0.18,-0.04,0.97,-0.3,-0.4,-0.7,40.9,0.4,-39.9,2.35,10.01,-0.28,0,42.41,1006.13,0,0.0,0.0,0.0,0.0,0.0,0.0,0,0,0
1753507498.8381317,1082.3087027072906,0.0,297,-0.18,-0.03,0.97,-0.1,-0.5,-0.2,39.8,0.0,-39.6,2.36,10.02,-0.36,0,42.33,1006.17,0,0.0,0.0,0.0,0.0,0.0,0.0,0,0,0
1753507499.3336327,1082.804203748703,0.0,370,-0.18,-0.03,0.97,-0.1,-0.3,-0.3,40.0,1.2,-44.1,2.36,10.02,-0.38,0,42.32,1006.17,0,0.0,0.0,0.0,0.0,0.0,0.0,0,0,0
1753507499.5110493,1082.981620311737,0.0,1362,-0.17,-0.03,0.97,0.0,0.0,0.0,45.4,-1.2,-37.5,2.36,10.01,0.8,0,42.36,1006.15,0,0.0,0.0,0.0,0.0,0.0,0.0,0,0,0
1753507499.7384045,1083.2089755535126,0.0,1427,-0.18,-0.03,0.97,0.0,-0.4,-0.1,45.4,-0.7,-37.3,2.36,10.01,0.7,0,42.36,1006.14,0,0.0,0.0,0.0,0.0,0.0,0.0,0,0,0
1753507500.3650334,1083.835604429245,0.0,1501,-0.17,-0.03,0.97,-0.1,-0.3,-0.2,45.5,-0.6,-37.5,2.38,10.01,0.46,0,42.36,1006.14,0,0.0,0.0,0.0,0.0,0.0,0.0,0,0,0
1753507500.5215657,1083.9921367168427,0.0,2488,-0.17,-0.03,0.97,-0.1,-0.3,-0.2,40.8,1.9,-39.2,2.35,10.02,-0.36,0,42.38,1006.14,0,0.0,0.0,0.0,0.0,0.0,0.0,0,0,0
1753507501.1714096,1084.6419806480408,0.0,2561,-0.17,-0.03,0.97,0.0,-0.4,0.0,40.8,1.7,-38.7,2.35,10.02,-0.17,0,42.38,1006.15,0,0.0,0.0,0.0,0.0,0.0,0.0,0,0,0
1753507501.259001,1084.729572057724,0.0,2634,-0.17,-0.03,0.97,0.0,-0.3,-0.3,40.3,1.5,-39.4,2.35,10.02,0.01,0,42.38,1006.15,0,0.0,0.0,0.0,0.0,0.0,0.0,0,0,0
1753507501.3449714,1084.815542459488,0.0,2711,-0.17,-0.03,0.97,0.0,-0.3,-0.1,40.9,1.9,-39.0,2.35,10.02,0.1,0,42.37,1006.15,0,0.0,0.0,0.0,0.0,0.0,0.0,0,0,0
1753507501.9705138,1085.4410848617554,0.0,2799,-0.18,-0.03,0.97,0.0,-0.4,-0.1,40.7,1.8,-39.3,2.34,10.02,0.28,0,42.37,1006.15,0,0.0,0.0,0.0,0.0,0.0,0.0,0,0,0
1753507502.1289537,1085.5995247364044,0.0,3771,-0.18,-0.03,0.97,-0.1,-0.3,-0.3,44.5,-2.0,-41.4,2.35,10.03,0.94,0,42.38,1006.14,0,0.0,0.0,0.0,0.0,0.0,0.0,0,0,0
1753507502.2258174,1085.6963884830475,0.0,3849,-0.18,-0.03,0.97,0.0,-0.3,-0.1,44.5,-2.2,-41.3,2.35,10.03,0.95,0,42.38,1006.15,0,0.0,0.0,0.0,0.0,0.0,0.0,0,0,0
1753507502.3181453,1085.7887163162231,0.0,3923,-0.18,-0.03,0.97,0.0,-0.4,-0.2,44.4,-2.4,-41.4,2.35,10.03,0.97,0,42.38,1006.15,0,0.0,0.0,0.0,0.0,0.0,0.0,0,0,0
1753507502.9440436,1086.4146146774292,0.0,3997,-0.17,-0.03,0.97,0.0,-0.3,-0.3,44.8,-2.2,-41.3,2.36,10.02,0.98,0,42.38,1006.15,0,0.0,0.0,0.0,0.0,0.0,0.0,0,0,0
1753507503.1166682,1086.587239265442,0.0,4986,-0.17,-0.03,0.97,0.0,0.0,0.0,39.9,0.4,-39.5,2.36,10.02,0.22,0,42.38,1006.15,0,0.0,0.0,0.0,0.0,0.0,0.0,0,0,0
1753507503.2060997,1086.6766707897186,0.0,5059,-0.17,-0.03,0.97,0.0,-0.4,-0.2,39.9,0.3,-39.1,2.38,10.02,0.14,0,42.38,1006.15,0,0.0,0.0,0.0,0.0,0.0,0.0,0,0,0
1753507503.2901056,1086.7606766223907,0.0,5137,-0.17,-0.03,0.97,0.0,-0.4,-0.2,40.0,0.4,-39.5,2.38,10.02,0.1,0,42.38,1006.15,0,0.0,0.0,0.0,0.0,0.0,0.0,0,0,0
1753507503.3793933,1086.8499643802643,0.0,5211,-0.18,-0.03,0.97,0.0,-0.3,0.0,39.8,0.1,-39.9,2.38,10.02,0.04,0,42.38,1006.15,0,0.0,0.0,0.0,0.0,0.0,0.0,0,0,0
1753507504.0069337,1087.4775047302246,0.0,5286,-0.17,-0.03,0.97,0.0,-0.3,-0.1,40.1,0.3,-39.6,2.36,10.02,0.0,0,42.38,1006.15,0,0.0,0.0,0.0,0.0,0.0,0.0,0,0,0
1753507504.1009808,1087.5715517997742,0.0,5364,-0.17,-0.03,0.97,0.0,-0.3,-0.2,40.1,0.1,-39.3,2.36,10.02,-0.03,0,42.38,1006.15,0,0.0,0.0,0.0,0.0,0.0,0.0,0,0,0
1753507504.200686,1087.671257019043,0.0,5452,-0.17,-0.03,0.97,-0.1,-0.3,-0.2,39.6,0.0,-39.4,2.38,10.02,-0.13,0,42.38,1006.15,0,0.0,0.0,0.0,0.0,0.0,0.0,0,0,0
1753507504.2800605,1087.750631570816,0.0,5527,-0.18,-0.03,0.97,0.0,-0.3,-0.4,39.9,0.0,-39.7,2.38,10.02,-0.19,0,42.38,1006.15,0,0.0,0.0,0.0,0.0,0.0,0.0,0,0,0
1753507504.37262,1087.8431911468506,0.0,5586,-0.18,-0.03,0.97,0.0,-0.3,-0.2,39.9,0.0,-39.5,2.38,10.02,-0.23,0,42.38,1006.15,0,0.0,0.0,0.0,0.0,0.0,0.0,0,0,0
1753507504.4543006,1087.9248716831207,0.0,5681,-0.18,-0.03,0.97,0.0,-0.3,-0.1,39.8,-0.1,-39.8,2.38,10.02,-0.31,0,42.38,1006.14,0,0.0,0.0,0.0,0.0,0.0,0.0,0,0,0
1753507504.522767,1087.9933381080627,0.0,5740,-0.18,-0.03,0.97,0.0,-0.3,-0.2,39.7,-0.3,-39.4,2.38,10.02,-0.35,0,42.38,1006.14,0,0.0,0.0,0.0,0.0,0.0,0.0,0,0,0
1753507504.626206,1088.0967769622803,0.0,5812,-0.18,-0.03,0.97,0.0,-0.4,-0.2,39.6,0.0,-40.1,2.38,10.02,-0.42,0,42.38,1006.15,0,0.0,0.0,0.0,0.0,0.0,0.0,0,0,0
1753507504.9534726,1088.4240436553955,0.0,6788,-0.17,-0.03,0.97,-0.1,-0.3,-0.1,39.4,0.0,-39.6,2.38,10.02,-0.83,0,42.38,1006.15,0,0.0,0.0,0.0,0.0,0.0,0.0,0,0,0
1753507505.0255165,1088.496087551117,0.0,6876,-0.17,-0.03,0.97,-0.1,-0.4,-0.2,39.7,0.0,-39.6,2.38,10.02,-0.87,0,42.38,1006.15,0,0.0,0.0,0.0,0.0,0.0,0.0,0,0,0
1753507505.3943858,1088.864956855774,0.0,6940,-0.18,-0.03,0.97,-0.1,-0.3,-0.2,40.0,-0.1,-39.9,2.38,10.02,-0.89,0,42.38,1006.15,0,0.0,0.0,0.0,0.0,0.0,0.0,0,0,0
1753507505.4834316,1088.9540026187897,0.0,7013,-0.17,-0.03,0.97,-0.1,-0.4,-0.2,39.9,-0.2,-39.9,2.38,10.02,-0.92,0,42.38,1006.15,0,0.0,0.0,0.0,0.0,0.0,0.0,0,0,0
1753507505.5628006,1089.0333716869354,0.0,7102,-0.17,-0.03,0.97,0.0,-0.4,-0.2,39.7,-0.1,-39.5,2.39,10.02,-0.94,0,42.38,1006.15,0,0.0,0.0,0.0,0.0,0.0,0.0,0,0,0
1753507505.6503735,1089.1209444999695,0.0,7180,-0.17,-0.03,0.97,0.0,-0.4,-0.2,39.6,-0.2,-40.0,2.39,10.02,-0.96,0,42.38,1006.15,0,0.0,0.0,0.0,0.0,0.0,0.0,0,0,0
1753507505.730043,1089.200613975525,0.0,7255,-0.18,-0.03,0.97,0.0,-0.4,-0.2,39.5,0.0,-39.0,2.39,10.02,-0.98,0,42.38,1006.16,0,0.0,0.0,0.0,0.0,0.0,0.0,0,0,0
1753507505.8264596,1089.2970306873322,0.0,7328,-0.18,-0.03,0.97,0.0,-0.3,-0.2,40.0,0.1,-39.6,2.38,10.02,-0.97,0,42.38,1006.16,0,0.0,0.0,0.0,0.0,0.0,0.0,0,0,0
1753507505.9153297,1089.385900735855,0.0,7407,-0.18,-0.03,0.97,0.0,-0.3,-0.2,40.3,-0.1,-39.4,2.38,10.02,-0.98,0,42.38,1006.16,0,0.0,0.0,0.0,0.0,0.0,0.0,0,0,0
1753507506.012153,1089.4827239513397,0.0,7480,-0.17,-0.03,0.97,0.0,-0.4,-0.2,40.2,-0.2,-39.8,2.38,10.02,-0.98,0,42.38,1006.16,0,0.0,0.0,0.0,0.0,0.0,0.0,0,0,0
1753507506.092716,1089.5632870197296,0.0,7539,-0.17,-0.03,0.97,0.0,-0.4,-0.1,39.8,0.0,-39.7,2.38,10.02,-0.98,0,42.38,1006.16,0,0.0,0.0,0.0,0.0,0.0,0.0,0,0,0
1753507506.4512308,1089.9218018054962,0.0,7629,-0.18,-0.03,0.97,0.0,-0.4,-0.2,39.9,-0.3,-39.8,2.39,10.02,-1.01,0,42.38,1006.16,0,0.0,0.0,0.0,0.0,0.0,0.0,0,0,0
1753507506.61643,1090.0870010852814,0.0,8614,-0.17,-0.03,0.97,0.0,-0.3,0.0,39.8,0.1,-39.8,2.39,10.02,-1.08,0,42.38,1006.16,0,0.0,0.0,0.0,0.0,0.0,0.0,0,0,0
1753507506.9842868,1090.454857826233,0.0,8689,-0.17,-0.03,0.97,0.0,-0.4,-0.2,39.7,0.4,-39.7,2.39,10.02,-1.08,0,42.38,1006.16,0,0.0,0.0,0.0,0.0,0.0,0.0,0,0,0
1753507507.2182174,1090.6887884140015,0.0,8762,-0.17,-0.03,0.97,0.0,-0.3,-0.2,39.7,0.0,-39.8,2.39,10.03,-1.11,0,42.38,1006.15,0,0.0,0.0,0.0,0.0,0.0,0.0,0,0,0
1753507507.3091676,1090.779738664627,0.0,8840,-0.18,-0.03,0.97,0.0,-0.3,-0.2,39.8,0.0,-39.5,2.39,10.03,-1.11,0,42.38,1006.15,0,0.0,0.0,0.0,0.0,0.0,0.0,0,0,0
1753507507.52634,1090.9969110488892,0.0,8916,-0.18,-0.03,0.97,0.0,-0.3,0.0,39.9,0.0,-39.4,2.39,10.02,-1.12,0,42.38,1006.16,0,0.0,0.0,0.0,0.0,0.0,0.0,0,0,0
1753507508.0132372,1091.4838082790375,0.0,8989,-0.18,-0.03,0.97,0.0,-0.3,-0.2,39.6,0.0,-39.7,2.39,10.02,-1.13,0,42.38,1006.16,0,0.0,0.0,0.0,0.0,0.0,0.0,0,0,0
1753507508.1876893,1091.658260345459,0.0,9971,-0.18,-0.03,0.97,-0.1,-0.3,-0.2,39.8,0.0,-39.8,2.39,10.02,-1.16,0,42.38,1006.16,0,0.0,0.0,0.0,0.0,0.0,0.0,0,0,0
1753507508.2752237,1091.7457947731018,0.0,10057,-0.17,-0.03,0.97,0.0,-0.4,-0.3,39.6,0.0,-39.7,2.39,10.02,-1.15,0,42.38,1006.16,0,0.0,0.0,0.0,0.0,0.0,0.0,0,0,0
1753507508.9088755,1092.3794465065002,0.0,10122,-0.17,-0.03,0.97,0.0,-0.3,-0.2,39.7,0.1,-39.9,2.39,10.02,-1.15,0,42.38,1006.16,0,0.0,0.0,0.0,0.0,0.0,0.0,0,0,0
1753507508.998971,1092.4695420265198,0.0,10196,-0.18,-0.03,0.97,0.0,-0.3,-0.1,39.7,-0.1,-40.1,2.39,10.02,-1.16,0,42.38,1006.16,0,0.0,0.0,0.0,0.0,0.0,0.0,0,0,0
1753507509.0897892,1092.5603601932526,0.0,10275,-0.17,-0.03,0.97,-0.1,-0.4,0.0,39.7,0.0,-39.9,2.39,10.02,-1.16,0,42.38,1006.16,0,0.0,0.0,0.0,0.0,0.0,0.0,0,0,0
1753507509.1763728,1092.646943807602,0.0,10350,-0.17,-0.03,0.97,0.0,0.0,0.0,39.6,0.0,-40.3,2.39,10.02,-1.16,0,42.38,1006.16,0,0.0,0.0,0.0,0.0,0.0,0.0,0,0,0
1753507509.345356,1092.815927028656,0.0,11336,-0.17,-0.03,0.97,0.0,-0.3,-0.2,39.7,0.0,-40.0,2.38,10.01,-1.1,0,42.39,1006.16,0,0.0,0.0,0.0,0.0,0.0,0.0,0,0,0
1753507509.5728438,1093.0434148311615,0.0,11414,-0.18,-0.03,0.97,-0.1,-0.3,-0.3,40.1,0.0,-39.6,2.38,10.01,-1.09,0,42.39,1006.16,0,0.0,0.0,0.0,0.0,0.0,0.0,0,0,0
1753507509.647829,1093.1184000968933,0.0,11489,-0.18,-0.03,0.97,0.0,-0.3,-0.1,39.7,0.0,-39.8,2.39,10.02,-1.08,0,42.39,1006.16,0,0.0,0.0,0.0,0.0,0.0,0.0,0,0,0
1753507510.281096,1093.751667022705,0.0,11566,-0.17,-0.03,0.97,0.0,-0.3,-0.1,39.4,0.0,-40.2,2.39,10.01,-1.09,0,42.39,1006.16,0,0.0,0.0,0.0,0.0,0.0,0.0,0,0,0
1753507510.38003,1093.8506009578705,0.0,11641,-0.17,-0.03,0.97,0.0,-0.4,-0.4,39.8,-0.1,-39.7,2.39,10.01,-1.09,0,42.39,1006.16,0,0.0,0.0,0.0,0.0,0.0,0.0,0,0,0
1753507510.4630432,1093.9336142539978,0.0,11715,-0.18,-0.03,0.97,0.0,-0.4,-0.2,40.0,0.2,-39.8,2.39,10.01,-1.1,0,42.39,1006.16,0,0.0,0.0,0.0,0.0,0.0,0.0,0,0,0
1753507510.555812,1094.0263829231262,0.0,11794,-0.17,-0.03,0.97,0.0,-0.3,-0.2,39.9,0.2,-39.6,2.39,10.02,-1.1,0,42.39,1006.16,0,0.0,0.0,0.0,0.0,0.0,0.0,0,0,0
1753507510.780575,1094.2511460781097,0.0,11867,-0.17,-0.03,0.97,0.0,-0.3,-0.2,39.8,-0.1,-39.7,2.38,10.02,-1.1,0,42.39,1006.16,0,0.0,0.0,0.0,0.0,0.0,0.0,0,0,0
1753507510.931051,1094.401622056961,0.0,12846,-0.17,-0.03,0.97,0.0,-0.3,-0.1,39.6,0.1,-40.2,2.38,10.01,-1.15,0,42.38,1006.16,0,0.0,0.0,0.0,0.0,0.0,0.0,0,0,0
1753507511.0143113,1094.4848823547363,0.0,12919,-0.17,-0.03,0.97,0.0,-0.3,-0.1,39.7,0.1,-39.8,2.38,10.01,-1.15,0,42.38,1006.16,0,0.0,0.0,0.0,0.0,0.0,0.0,0,0,0
1753507511.5139563,1094.984527349472,0.0,12998,-0.18,-0.03,0.97,-0.2,-0.3,-0.1,39.5,0.0,-39.7,2.38,10.02,-1.15,0,42.38,1006.16,0,0.0,0.0,0.0,0.0,0.0,0.0,0,0,0
1753507511.605991,1095.0765619277954,0.0,13086,-0.17,-0.03,0.97,0.0,-0.3,-0.1,39.6,-0.3,-40.0,2.39,10.01,-1.15,0,42.38,1006.16,0,0.0,0.0,0.0,0.0,0.0,0.0,0,0,0
1753507511.6895761,1095.160147190094,0.0,13160,-0.17,-0.03,0.97,0.0,-0.3,-0.1,39.8,0.1,-39.9,2.39,10.01,-1.14,0,42.38,1006.16,0,0.0,0.0,0.0,0.0,0.0,0.0,0,0,0
1753507512.0473924,1095.5179634094238,0.0,13220,-0.18,-0.03,0.97,0.0,-0.4,-0.1,40.0,0.2,-39.7,2.39,10.01,-1.14,0,42.38,1006.16,0,0.0,0.0,0.0,0.0,0.0,0.0,0,0,0
1753507512.221696,1095.6922669410706,0.0,14206,-0.17,-0.03,0.97,0.0,-0.5,-0.2,39.9,-0.1,-40.2,2.4,10.02,-1.15,0,42.39,1006.16,0,0.0,0.0,0.0,0.0,0.0,0.0,0,0,0
1753507512.3058987,1095.776469707489,0.0,14282,-0.17,-0.03,0.97,-0.1,-0.4,-0.2,39.7,0.2,-40.1,2.4,10.02,-1.14,0,42.39,1006.16,0,0.0,0.0,0.0,0.0,0.0,0.0,0,0,0
1753507512.7975028,1096.268073797226,0.0,14370,-0.18,-0.03,0.97,0.0,-0.4,-0.2,40.0,0.1,-40.2,2.39,10.02,-1.14,0,42.39,1006.16,0,0.0,0.0,0.0,0.0,0.0,0.0,0,0,0
1753507512.8892407,1096.359811782837,0.0,14432,-0.18,-0.03,0.97,-0.1,-0.3,0.0,39.6,0.0,-40.1,2.39,10.02,-1.14,0,42.39,1006.16,0,0.0,0.0,0.0,0.0,0.0,0.0,0,0,0
1753507512.9807992,1096.4513702392578,0.0,14507,-0.17,-0.03,0.97,0.0,-0.3,-0.1,39.9,0.2,-39.5,2.39,10.02,-1.14,0,42.39,1006.16,0,0.0,0.0,0.0,0.0,0.0,0.0,0,0,0
1753507513.072327,1096.542897939682,0.0,14596,-0.18,-0.03,0.97,-0.1,-0.4,-0.2,39.6,0.2,-39.8,2.39,10.02,-1.15,0,42.39,1006.16,0,0.0,0.0,0.0,0.0,0.0,0.0,0,0,0
1753507513.1559303,1096.6265013217926,0.0,14659,-0.17,-0.03,0.97,0.0,-0.4,-0.1,40.1,-0.1,-40.3,2.39,10.02,-1.15,0,42.39,1006.16,0,0.0,0.0,0.0,0.0,0.0,0.0,0,0,0
1753507513.2389393,1096.7095103263855,0.0,14749,-0.18,-0.03,0.97,0.0,-0.4,-0.1,39.8,-0.2,-39.6,2.39,10.02,-1.15,0,42.39,1006.16,0,0.0,0.0,0.0,0.0,0.0,0.0,0,0,0
1753507513.8727007,1097.3432717323303,0.0,14821,-0.17,-0.03,0.97,0.1,-0.3,-0.1,39.7,0.0,-39.9,2.38,10.02,-1.15,0,42.4,1006.15,0,0.0,0.0,0.0,0.0,0.0,0.0,0,0,0
1753507514.0234053,1097.493976354599,0.0,15830,-0.18,-0.03,0.97,0.0,-0.3,-0.1,39.8,0.1,-39.7,2.39,10.02,-1.12,0,42.39,1006.16,0,0.0,0.0,0.0,0.0,0.0,0.0,0,0,0
1753507514.1142387,1097.5848097801208,0.0,15923,-0.17,-0.03,0.97,0.0,-0.3,-0.2,40.3,0.4,-40.1,2.39,10.02,-1.12,0,42.39,1006.16,0,0.0,0.0,0.0,0.0,0.0,0.0,0,0,0
1753507514.2060215,1097.6765925884247,0.0,15998,-0.17,-0.03,0.97,-0.1,-0.3,-0.2,40.2,0.0,-40.0,2.39,10.02,-1.11,0,42.39,1006.16,0,0.0,0.0,0.0,0.0,0.0,0.0,0,0,0
1753507514.2892678,1097.7598388195038,0.0,16208,-0.17,-0.03,0.97,0.0,-0.4,-0.2,39.5,-0.1,-39.7,2.39,10.02,-1.14,0,42.39,1006.16,0,0.0,0.0,0.0,0.0,0.0,0.0,0,0,0
1753507514.38833,1097.8589010238647,0.0,16283,-0.18,-0.03,0.97,-0.1,-0.3,-0.1,39.8,0.1,-40.1,2.39,10.02,-1.14,0,42.4,1006.16,0,0.0,0.0,0.0,0.0,0.0,0.0,0,0,0
1753507514.4724357,1097.9430067539215,0.0,16372,-0.18,-0.03,0.97,0.0,-0.3,0.0,40.0,0.1,-39.9,2.39,10.03,-1.14,0,42.39,1006.16,0,0.0,0.0,0.0,0.0,0.0,0.0,0,0,0
1753507514.9687836,1098.4393546581268,0.0,16436,-0.17,-0.03,0.97,-0.1,-0.4,-0.3,39.5,-0.1,-39.7,2.39,10.03,-1.14,0,42.39,1006.16,0,0.0,0.0,0.0,0.0,0.0,0.0,0,0,0
1753507515.0565019,1098.5270729064941,0.0,16510,-0.17,-0.03,0.97,-0.1,-0.3,-0.2,39.9,0.0,-40.1,2.39,10.03,-1.15,0,42.39,1006.16,0,0.0,0.0,0.0,0.0,0.0,0.0,0,0,0
1753507515.155898,1098.6264691352844,0.0,16596,-0.18,-0.03,0.97,0.0,-0.3,-0.2,40.1,0.0,-40.0,2.39,10.03,-1.15,0,42.39,1006.17,0,0.0,0.0,0.0,0.0,0.0,0.0,0,0,0
1753507515.2468336,1098.7174046039581,0.0,16685,-0.17,-0.03,0.97,0.0,-0.3,-0.1,39.7,0.0,-40.2,2.39,10.03,-1.16,0,42.39,1006.16,0,0.0,0.0,0.0,0.0,0.0,0.0,0,0,0
1753507515.599456,1099.0700271129608,0.0,16749,-0.17,-0.03,0.97,0.0,-0.3,0.0,40.0,0.3,-39.6,2.39,10.03,-1.17,0,42.39,1006.16,0,0.0,0.0,0.0,0.0,0.0,0.0,0,0,0
1753507515.6975925,1099.1681635379791,0.0,16837,-0.17,-0.03,0.97,0.0,-0.4,-0.1,40.3,0.0,-39.5,2.39,10.03,-1.17,0,42.4,1006.16,0,0.0,0.0,0.0,0.0,0.0,0.0,0,0,0
1753507515.871929,1099.3424999713898,0.0,17856,-0.18,-0.03,0.97,0.0,0.0,0.0,39.7,0.3,-40.3,2.38,10.05,-1.2,0,42.41,1006.16,0,0.0,0.0,0.0,0.0,0.0,0.0,0,0,0
1753507515.9550846,1099.4256556034088,0.0,17930,-0.18,-0.03,0.97,0.0,0.0,0.0,40.0,0.0,-40.2,2.38,10.08,-1.2,0,42.41,1006.16,0,0.0,0.0,0.0,0.0,0.0,0.0,0,0,0
1753507516.3135931,1099.7841641902924,0.0,18019,-0.17,-0.03,0.97,0.0,0.0,0.0,39.6,0.1,-40.0,2.36,10.12,-1.2,0,42.41,1006.16,0,0.0,0.0,0.0,0.0,0.0,0.0,0,0,0
1753507516.405788,1099.8763589859009,0.0,18078,-0.17,-0.03,0.97,0.0,0.0,0.0,39.4,0.1,-39.7,2.36,10.13,-1.2,0,42.41,1006.16,0,0.0,0.0,0.0,0.0,0.0,0.0,0,0,0
1753507516.4974854,1099.9680564403534,0.0,18150,-0.17,-0.03,0.97,0.0,0.0,0.0,39.9,0.0,-39.5,2.35,10.14,-1.2,0,42.4,1006.16,0,0.0,0.0,0.0,0.0,0.0,0.0,0,0,0
1753507516.581951,1100.052521944046,0.0,18229,-0.17,-0.03,0.97,0.0,0.0,0.0,39.4,0.3,-39.8,2.35,10.17,-1.2,0,42.4,1006.16,0,0.0,0.0,0.0,0.0,0.0,0.0,0,0,0
1753507516.6641428,1100.1347138881683,0.0,18320,-0.18,-0.03,0.97,0.0,0.0,0.0,39.6,0.2,-39.8,2.34,10.18,-1.2,0,42.4,1006.16,0,0.0,0.0,0.0,0.0,0.0,0.0,0,0,0
1753507516.7471194,1100.2176904678345,0.0,18393,-0.17,-0.03,0.97,0.0,0.0,0.0,39.7,0.2,-40.3,2.34,10.21,-1.2,0,42.4,1006.16,0,0.0,0.0,0.0,0.0,0.0,0.0,0,0,0
1753507516.8224926,1100.2930636405945,0.0,18473,-0.17,-0.03,0.97,0.0,0.0,0.0,39.7,0.4,-40.0,2.34,10.22,-1.2,0,42.4,1006.16,0,0.0,0.0,0.0,0.0,0.0,0.0,0,0,0
1753507517.0391445,1100.5097155570984,0.0,18533,-0.18,-0.03,0.97,0.0,0.0,0.0,39.7,0.4,-40.0,2.34,10.24,-1.2,0,42.4,1006.16,0,0.0,0.0,0.0,0.0,0.0,0.0,0,0,0
1753507517.1255345,1100.5961055755615,0.0,18621,-0.17,-0.03,0.97,0.0,0.0,0.0,39.7,0.2,-40.0,2.33,10.26,-1.2,0,42.4,1006.16,0,0.0,0.0,0.0,0.0,0.0,0.0,0,0,0
1753507517.6225533,1101.0931243896484,0.0,18699,-0.17,-0.03,0.97,0.0,0.0,0.0,39.6,0.1,-40.3,2.33,10.26,-1.21,0,42.39,1006.16,0,0.0,0.0,0.0,0.0,0.0,0.0,0,0,0
1753507517.8052237,1101.2757947444916,0.0,19706,-0.17,-0.03,0.97,0.0,0.0,0.0,40.0,-0.1,-40.1,2.32,10.37,-1.21,0,42.41,1006.16,0,0.0,0.0,0.0,0.0,0.0,0.0,0,0,0
1753507517.8890843,1101.359655380249,0.0,19794,-0.18,-0.03,0.97,0.0,0.0,0.0,39.7,0.0,-39.8,2.32,10.37,-1.21,0,42.4,1006.16,0,0.0,0.0,0.0,0.0,0.0,0.0,0,0,0
1753507517.9809434,1101.4515144824982,0.0,19873,-0.18,-0.03,0.97,0.0,0.0,0.0,39.6,-0.2,-39.8,2.31,10.38,-1.21,0,42.4,1006.16,0,0.0,0.0,0.0,0.0,0.0,0.0,0,0,0
1753507518.339215,1101.809786081314,0.0,19946,-0.17,-0.03,0.97,0.0,0.0,0.0,40.0,0.0,-39.7,2.31,10.38,-1.21,0,42.4,1006.16,0,0.0,0.0,0.0,0.0,0.0,0.0,0,0,0
1753507518.8394186,1102.3099896907806,0.0,20036,-0.18,-0.03,0.97,0.0,0.0,0.0,39.8,0.0,-39.6,2.31,10.38,-1.21,0,42.4,1006.16,0,0.0,0.0,0.0,0.0,0.0,0.0,0,0,0
1753507519.0559328,1102.5265038013458,0.0,20115,-0.18,-0.03,0.97,0.0,0.0,0.0,39.5,0.0,-40.1,2.31,10.39,-1.21,0,42.4,1006.16,0,0.0,0.0,0.0,0.0,0.0,0.0,0,0,0
1753507519.2224379,1102.6930088996887,0.0,21123,-0.17,-0.03,0.97,0.0,0.0,0.0,39.6,0.3,-40.1,2.31,10.41,-1.21,0,42.4,1006.15,0,0.0,0.0,0.0,0.0,0.0,0.0,0,0,0
1753507519.7135592,1103.184130191803,0.0,21202,-0.18,-0.03,0.97,0.0,0.0,0.0,40.0,0.1,-40.0,2.31,10.41,-1.21,0,42.4,1006.16,0,0.0,0.0,0.0,0.0,0.0,0.0,0,0,0
1753507519.8143716,1103.2849426269531,0.0,21276,-0.18,-0.03,0.97,0.0,0.0,0.0,39.4,0.0,-39.7,2.31,10.41,-1.21,0,42.4,1006.16,0,0.0,0.0,0.0,0.0,0.0,0.0,0,0,0
1753507519.9059167,1103.3764877319336,0.0,21350,-0.18,-0.03,0.97,0.0,0.0,0.0,39.9,0.1,-39.9,2.31,10.41,-1.21,0,42.4,1006.16,0,0.0,0.0,0.0,0.0,0.0,0.0,0,0,0
1753507520.0019643,1103.4725353717804,0.0,21428,-0.17,-0.03,0.97,0.0,0.0,0.0,39.6,0.1,-40.1,2.31,10.42,-1.21,0,42.4,1006.16,0,0.0,0.0,0.0,0.0,0.0,0.0,0,0,0
1753507520.3640969,1103.8346679210663,0.0,21502,-0.17,-0.03,0.97,0.0,0.0,0.0,40.3,0.1,-40.2,2.31,10.42,-1.21,0,42.4,1006.16,0,0.0,0.0,0.0,0.0,0.0,0.0,0,0,0
1753507520.5391352,1104.0097062587738,0.0,22530,-0.17,-0.03,0.97,0.0,0.0,0.0,39.9,0.2,-40.4,2.31,10.42,-1.21,0,42.4,1006.17,0,0.0,0.0,0.0,0.0,0.0,0.0,0,0,0
1753507521.0384164,1104.5089874267578,0.0,22608,-0.17,-0.03,0.97,0.0,0.0,0.0,39.8,0.0,-40.3,2.31,10.42,-1.21,0,42.41,1006.17,0,0.0,0.0,0.0,0.0,0.0,0.0,0,0,0
1753507521.1318932,1104.6024641990662,0.0,22681,-0.17,-0.03,0.97,0.0,0.0,0.0,40.0,0.1,-39.8,2.31,10.42,-1.21,0,42.41,1006.17,0,0.0,0.0,0.0,0.0,0.0,0.0,0,0,0
1753507521.2310908,1104.70166182518,0.0,22739,-0.18,-0.03,0.97,0.0,0.0,0.0,39.9,0.1,-40.3,2.31,10.42,-1.21,0,42.41,1006.17,0,0.0,0.0,0.0,0.0,0.0,0.0,0,0,0
1753507521.3227234,1104.793294429779,0.0,22830,-0.18,-0.03,0.97,0.0,0.0,0.0,39.9,0.3,-39.9,2.31,10.42,-1.21,0,42.41,1006.16,0,0.0,0.0,0.0,0.0,0.0,0.0,0,0,0
1753507521.4060328,1104.8766038417816,0.0,22903,-0.17,-0.03,0.97,0.0,0.0,0.0,39.8,0.0,-40.0,2.31,10.42,-1.21,0,42.41,1006.17,0,0.0,0.0,0.0,0.0,0.0,0.0,0,0,0
1753507521.6227038,1105.0932748317719,0.0,22983,-0.17,-0.03,0.97,0.0,0.0,0.0,39.7,0.0,-40.5,2.31,10.42,-1.21,0,42.41,1006.17,0,0.0,0.0,0.0,0.0,0.0,0.0,0,0,0
1753507521.7145157,1105.1850867271423,0.0,23072,-0.18,-0.03,0.97,0.0,0.0,0.0,39.9,0.0,-39.8,2.31,10.42,-1.21,0,42.41,1006.17,0,0.0,0.0,0.0,0.0,0.0,0.0,0,0,0
1753507522.3469825,1105.8175535202026,0.0,23145,-0.17,-0.03,0.97,0.0,0.0,0.0,39.9,0.1,-40.3,2.31,10.42,-1.21,0,42.41,1006.17,0,0.0,0.0,0.0,0.0,0.0,0.0,0,0,0
1753507522.5001166,1105.9706876277924,0.0,24159,-0.17,-0.03,0.97,0.0,0.0,0.0,39.9,0.1,-40.1,2.3,10.42,-1.21,0,42.41,1006.15,0,0.0,0.0,0.0,0.0,0.0,0.0,0,0,0
1753507522.993028,1106.4635989665985,0.0,24233,-0.18,-0.03,0.97,0.0,0.0,0.0,39.8,0.3,-40.1,2.3,10.42,-1.21,0,42.41,1006.16,0,0.0,0.0,0.0,0.0,0.0,0.0,0,0,0
1753507523.0989707,1106.5695416927338,0.0,24322,-0.17,-0.03,0.97,0.0,0.0,0.0,39.7,0.0,-39.9,2.3,10.43,-1.21,0,42.41,1006.16,0,0.0,0.0,0.0,0.0,0.0,0.0,0,0,0
1753507523.191152,1106.6617231369019,0.0,24386,-0.17,-0.03,0.97,0.0,0.0,0.0,40.0,0.1,-40.2,2.3,10.42,-1.21,0,42.41,1006.16,0,0.0,0.0,0.0,0.0,0.0,0.0,0,0,0
1753507523.280659,1106.7512300014496,0.0,24460,-0.18,-0.03,0.97,0.0,0.0,0.0,40.0,0.1,-39.8,2.3,10.42,-1.21,0,42.41,1006.16,0,0.0,0.0,0.0,0.0,0.0,0.0,0,0,0
1753507523.3641572,1106.8347282409668,0.0,24547,-0.17,-0.03,0.97,0.0,0.0,0.0,39.9,0.0,-40.1,2.3,10.42,-1.21,0,42.41,1006.16,0,0.0,0.0,0.0,0.0,0.0,0.0,0,0,0
1753507523.4391053,1106.9096763134003,0.0,24637,-0.17,-0.03,0.97,0.0,0.0,0.0,40.1,0.2,-39.8,2.3,10.42,-1.21,0,42.41,1006.16,0,0.0,0.0,0.0,0.0,0.0,0.0,0,0,0
1753507523.938912,1107.4094829559326,0.0,24701,-0.18,-0.03,0.97,0.0,0.0,0.0,39.8,0.0,-40.4,2.3,10.42,-1.21,0,42.41,1006.16,0,0.0,0.0,0.0,0.0,0.0,0.0,0,0,0
1753507524.1092393,1107.5798103809357,0.0,25714,-0.17,-0.03,0.97,0.0,0.0,0.0,40.1,-0.3,-40.1,2.3,10.42,-1.21,0,42.41,1006.17,0,0.0,0.0,0.0,0.0,0.0,0.0,0,0,0
1753507524.3215988,1107.7921698093414,0.0,25788,-0.17,-0.03,0.97,0.0,0.0,0.0,39.9,0.1,-40.1,2.3,10.42,-1.21,0,42.41,1006.16,0,0.0,0.0,0.0,0.0,0.0,0.0,0,0,0
1753507524.4308853,1107.9014563560486,0.0,25876,-0.17,-0.03,0.97,0.0,0.0,0.0,39.8,0.2,-39.9,2.3,10.42,-1.21,0,42.42,1006.16,0,0.0,0.0,0.0,0.0,0.0,0.0,0,0,0
1753507524.655679,1108.1262500286102,0.0,25966,-0.17,-0.03,0.97,0.0,0.0,0.0,39.4,0.0,-39.9,2.31,10.42,-1.21,0,42.42,1006.16,0,0.0,0.0,0.0,0.0,0.0,0.0,0,0,0
1753507524.747408,1108.2179789543152,0.0,26015,-0.18,-0.03,0.97,0.0,0.0,0.0,40.0,0.4,-39.8,2.31,10.42,-1.21,0,42.41,1006.17,0,0.0,0.0,0.0,0.0,0.0,0.0,0,0,0
1753507525.2474651,1108.7180361747742,0.0,26102,-0.18,-0.03,0.97,0.0,0.0,0.0,39.9,0.0,-40.2,2.31,10.42,-1.21,0,42.42,1006.17,0,0.0,0.0,0.0,0.0,0.0,0.0,0,0,0
1753507525.4143262,1108.8848972320557,0.0,27117,-0.18,-0.03,0.97,0.0,0.0,0.0,39.9,0.0,-40.2,2.31,10.42,-1.21,0,42.42,1006.17,0,0.0,0.0,0.0,0.0,0.0,0.0,0,0,0
1753507525.5224855,1108.9930565357208,0.0,27191,-0.17,-0.03,0.97,0.0,0.0,0.0,39.9,0.1,-40.2,2.3,10.42,-1.21,0,42.42,1006.17,0,0.0,0.0,0.0,0.0,0.0,0.0,0,0,0
1753507526.147407,1109.6179780960083,0.0,27280,-0.17,-0.03,0.97,0.0,0.0,0.0,39.9,-0.1,-40.1,2.3,10.42,-1.21,0,42.42,1006.16,0,0.0,0.0,0.0,0.0,0.0,0.0,0,0,0
1753507526.304967,1109.7755379676819,0.0,28278,-0.17,-0.03,0.97,0.0,0.0,0.0,40.0,0.0,-39.9,2.31,10.42,-1.21,0,42.42,1006.17,0,0.0,0.0,0.0,0.0,0.0,0.0,0,0,0
1753507526.3947315,1109.8653025627136,0.0,28371,-0.18,-0.03,0.97,0.0,0.0,0.0,40.2,0.2,-39.8,2.31,10.42,-1.21,0,42.42,1006.16,0,0.0,0.0,0.0,0.0,0.0,0.0,0,0,0
1753507526.4641793,1109.9347503185272,0.0,28429,-0.18,-0.03,0.97,0.0,0.0,0.0,40.2,-0.2,-40.1,2.31,10.42,-1.21,0,42.42,1006.16,0,0.0,0.0,0.0,0.0,0.0,0.0,0,0,0
1753507526.6976936,1110.1682646274567,0.0,28504,-0.17,-0.03,0.97,0.0,0.0,0.0,39.9,0.0,-39.7,2.31,10.42,-1.21,0,42.42,1006.16,0,0.0,0.0,0.0,0.0,0.0,0.0,0,0,0
1753507526.7809694,1110.2515404224396,0.0,28592,-0.18,-0.03,0.97,0.0,0.0,0.0,40.2,0.0,-40.2,2.31,10.42,-1.21,0,42.42,1006.16,0,0.0,0.0,0.0,0.0,0.0,0.0,0,0,0
1753507526.8558867,1110.3264577388763,0.0,28671,-0.18,-0.03,0.97,0.0,0.0,0.0,40.0,-0.3,-40.1,2.31,10.42,-1.21,0,42.42,1006.16,0,0.0,0.0,0.0,0.0,0.0,0.0,0,0,0
1753507527.0806906,1110.551261663437,0.0,28744,-0.18,-0.03,0.97,0.0,0.0,0.0,39.9,0.0,-39.9,2.31,10.42,-1.21,0,42.42,1006.16,0,0.0,0.0,0.0,0.0,0.0,0.0,0,0,0
1753507527.1693573,1110.6399283409119,0.0,28831,-0.17,-0.03,0.97,0.0,0.0,0.0,39.3,0.0,-39.6,2.31,10.42,-1.21,0,42.42,1006.16,0,0.0,0.0,0.0,0.0,0.0,0.0,0,0,0
1753507527.2460723,1110.716643333435,0.0,28906,-0.17,-0.03,0.97,0.0,0.0,0.0,39.9,0.3,-40.1,2.31,10.42,-1.21,0,42.42,1006.16,0,0.0,0.0,0.0,0.0,0.0,0.0,0,0,0
1753507527.7425754,1111.2131464481354,0.0,28986,-0.18,-0.03,0.97,0.0,0.0,0.0,40.2,0.3,-40.0,2.31,10.42,-1.21,0,42.42,1006.17,0,0.0,0.0,0.0,0.0,0.0,0.0,0,0,0
1753507528.2548993,1111.7254703044891,0.0,29078,-0.17,-0.03,0.97,0.0,0.0,0.0,40.1,0.0,-39.6,2.31,10.42,-1.21,0,42.42,1006.16,0,0.0,0.0,0.0,0.0,0.0,0.0,0,0,0
1753507528.4084976,1111.8790686130524,0.0,30088,-0.18,-0.03,0.97,0.0,0.0,0.0,40.0,0.2,-40.1,2.31,10.43,-1.21,0,42.42,1006.17,0,0.0,0.0,0.0,0.0,0.0,0.0,0,0,0
1753507528.4979067,1111.9684777259827,0.0,30163,-0.17,-0.03,0.97,0.0,0.0,0.0,40.0,0.0,-40.4,2.31,10.43,-1.21,0,42.42,1006.17,0,0.0,0.0,0.0,0.0,0.0,0.0,0,0,0
1753507528.7200563,1112.190627336502,0.0,30226,-0.18,-0.03,0.97,0.0,0.0,0.0,39.9,0.0,-40.2,2.31,10.43,-1.21,0,42.42,1006.17,0,0.0,0.0,0.0,0.0,0.0,0.0,0,0,0
1753507528.8120868,1112.2826578617096,0.0,30301,-0.17,-0.03,0.97,0.0,0.0,0.0,39.9,0.0,-40.1,2.31,10.43,-1.21,0,42.42,1006.17,0,0.0,0.0,0.0,0.0,0.0,0.0,0,0,0
1753507528.8913825,1112.361953496933,0.0,30389,-0.18,-0.03,0.97,0.0,0.0,0.0,39.7,0.0,-39.6,2.31,10.42,-1.21,0,42.43,1006.17,0,0.0,0.0,0.0,0.0,0.0,0.0,0,0,0
1753507529.378305,1112.8488759994507,0.0,30478,-0.17,-0.03,0.97,0.0,0.0,0.0,39.9,0.3,-40.3,2.31,10.42,-1.21,0,42.42,1006.17,0,0.0,0.0,0.0,0.0,0.0,0.0,0,0,0
1753507529.5392802,1113.00985121727,0.0,31476,-0.17,-0.03,0.97,0.0,0.0,0.0,40.1,-0.1,-39.8,2.31,10.42,-1.21,0,42.43,1006.17,0,0.0,0.0,0.0,0.0,0.0,0.0,0,0,0
1753507529.6363683,1113.106939315796,0.0,31565,-0.18,-0.03,0.97,0.0,0.0,0.0,40.3,0.0,-40.3,2.31,10.42,-1.21,0,42.43,1006.17,0,0.0,0.0,0.0,0.0,0.0,0.0,0,0,0
1753507529.7288465,1113.199417591095,0.0,31643,-0.17,-0.03,0.97,0.0,0.0,0.0,40.4,0.0,-39.9,2.31,10.42,-1.21,0,42.43,1006.17,0,0.0,0.0,0.0,0.0,0.0,0.0,0,0,0
1753507529.8195972,1113.2901682853699,0.0,31718,-0.18,-0.03,0.97,0.0,0.0,0.0,40.1,-0.1,-40.3,2.31,10.42,-1.21,0,42.43,1006.17,0,0.0,0.0,0.0,0.0,0.0,0.0,0,0,0
1753507529.902136,1113.3727071285248,0.0,31790,-0.18,-0.03,0.97,0.0,0.0,0.0,40.0,-0.2,-40.1,2.31,10.42,-1.21,0,42.43,1006.16,0,0.0,0.0,0.0,0.0,0.0,0.0,0,0,0
1753507529.9867067,1113.4572777748108,0.0,31868,-0.18,-0.03,0.97,0.0,0.0,0.0,40.3,0.0,-40.2,2.31,10.42,-1.21,0,42.43,1006.16,0,0.0,0.0,0.0,0.0,0.0,0.0,0,0,0
1753507530.4794688,1113.9500398635864,0.0,31943,-0.18,-0.03,0.97,0.0,0.0,0.0,39.6,0.0,-39.9,2.31,10.42,-1.21,0,42.43,1006.17,0,0.0,0.0,0.0,0.0,0.0,0.0,0,0,0
1753507530.5837312,1114.0543022155762,0.0,32017,-0.17,-0.03,0.97,0.0,0.0,0.0,39.9,-0.1,-40.1,2.31,10.42,-1.21,0,42.43,1006.16,0,0.0,0.0,0.0,0.0,0.0,0.0,0,0,0
1753507530.6720905,1114.1426615715027,0.0,32110,-0.17,-0.03,0.97,0.0,0.0,0.0,39.7,0.0,-39.9,2.31,10.42,-1.21,0,42.43,1006.16,0,0.0,0.0,0.0,0.0,0.0,0.0,0,0,0
1753507530.7575972,1114.2281682491302,0.0,32184,-0.18,-0.03,0.97,0.0,0.0,0.0,39.7,0.0,-40.2,2.31,10.42,-1.21,0,42.43,1006.17,0,0.0,0.0,0.0,0.0,0.0,0.0,0,0,0
1753507530.9818103,1114.4523813724518,0.0,32259,-0.17,-0.03,0.97,0.0,0.0,0.0,40.4,0.0,-40.1,2.31,10.42,-1.21,0,42.43,1006.17,0,0.0,0.0,0.0,0.0,0.0,0.0,0,0,0
1753507531.0596375,1114.5302085876465,0.0,32337,-0.17,-0.03,0.97,0.0,0.0,0.0,40.0,0.4,-40.1,2.31,10.42,-1.21,0,42.43,1006.17,0,0.0,0.0,0.0,0.0,0.0,0.0,0,0,0
1753507531.1449838,1114.6155548095703,0.0,32411,-0.17,-0.03,0.97,0.0,0.0,0.0,40.3,0.0,-40.2,2.31,10.42,-1.21,0,42.43,1006.17,0,0.0,0.0,0.0,0.0,0.0,0.0,0,0,0
1753507531.7748406,1115.2454116344452,0.0,32500,-0.17,-0.03,0.97,0.0,0.0,0.0,39.8,0.4,-40.2,2.31,10.42,-1.21,0,42.43,1006.17,0,0.0,0.0,0.0,0.0,0.0,0.0,0,0,0
1753507531.9204366,1115.3910076618195,0.0,33680,-0.17,-0.03,0.97,0.0,0.0,0.0,39.8,0.0,-40.4,2.31,10.42,-1.21,0,42.44,1006.17,0,0.0,0.0,0.0,0.0,0.0,0.0,0,0,0
1753507532.0042765,1115.4748475551605,0.0,33739,-0.18,-0.03,0.97,0.0,0.0,0.0,39.8,-0.1,-40.2,2.31,10.42,-1.21,0,42.44,1006.17,0,0.0,0.0,0.0,0.0,0.0,0.0,0,0,0
1753507532.0874307,1115.558001756668,0.0,33812,-0.17,-0.03,0.97,0.0,0.0,0.0,40.1,-0.1,-40.1,2.3,10.42,-1.21,0,42.43,1006.17,0,0.0,0.0,0.0,0.0,0.0,0.0,0,0,0
1753507532.1662064,1115.6367774009705,0.0,33891,-0.17,-0.03,0.97,0.0,0.0,0.0,40.0,0.2,-40.1,2.3,10.42,-1.21,0,42.43,1006.17,0,0.0,0.0,0.0,0.0,0.0,0.0,0,0,0
1753507532.2475026,1115.718073606491,0.0,33966,-0.17,-0.03,0.97,0.0,0.0,0.0,39.9,0.4,-40.2,2.31,10.42,-1.21,0,42.43,1006.17,0,0.0,0.0,0.0,0.0,0.0,0.0,0,0,0
1753507532.3337092,1115.804280281067,0.0,34038,-0.17,-0.03,0.97,0.0,0.0,0.0,40.0,0.1,-40.4,2.31,10.42,-1.21,0,42.43,1006.17,0,0.0,0.0,0.0,0.0,0.0,0.0,0,0,0
1753507532.4223623,1115.8929333686829,0.0,34147,-0.18,-0.03,0.97,0.0,0.0,0.0,39.8,0.3,-40.0,2.31,10.42,-1.21,0,42.43,1006.17,0,0.0,0.0,0.0,0.0,0.0,0.0,0,0,0
1753507532.523124,1115.9936950206757,0.0,34207,-0.17,-0.03,0.97,0.0,0.0,0.0,40.3,0.0,-40.0,2.3,10.42,-1.21,0,42.43,1006.17,0,0.0,0.0,0.0,0.0,0.0,0.0,0,0,0
1753507532.6196694,1116.0902404785156,0.0,34280,-0.18,-0.03,0.97,0.0,0.0,0.0,40.3,0.3,-40.2,2.3,10.42,-1.21,0,42.43,1006.17,0,0.0,0.0,0.0,0.0,0.0,0.0,0,0,0
1753507532.7098243,1116.1803953647614,0.0,34359,-0.18,-0.03,0.97,0.0,0.0,0.0,39.9,0.4,-40.2,2.3,10.42,-1.21,0,42.44,1006.17,0,0.0,0.0,0.0,0.0,0.0,0.0,0,0,0
1753507533.3337147,1116.8042857646942,0.0,34434,-0.17,-0.03,0.97,0.0,0.0,0.0,40.0,0.0,-39.5,2.3,10.42,-1.21,0,42.44,1006.16,0,0.0,0.0,0.0,0.0,0.0,0.0,0,0,0
1753507533.4827552,1116.9533262252808,0.0,35461,-0.17,-0.03,0.97,0.0,0.0,0.0,40.3,0.0,-40.4,2.31,10.42,-1.21,0,42.44,1006.17,0,0.0,0.0,0.0,0.0,0.0,0.0,0,0,0
1753507533.8486037,1117.3191747665405,0.0,35525,-0.18,-0.03,0.97,0.0,0.0,0.0,40.3,0.0,-39.9,2.31,10.42,-1.21,0,42.44,1006.17,0,0.0,0.0,0.0,0.0,0.0,0.0,0,0,0
1753507533.9414725,1117.4120435714722,0.0,35614,-0.17,-0.03,0.97,0.0,0.0,0.0,40.0,0.4,-39.9,2.31,10.42,-1.21,0,42.44,1006.17,0,0.0,0.0,0.0,0.0,0.0,0.0,0,0,0
1753507534.0313923,1117.501963376999,0.0,35688,-0.17,-0.03,0.97,0.0,0.0,0.0,40.3,0.0,-40.9,2.31,10.42,-1.21,0,42.44,1006.17,0,0.0,0.0,0.0,0.0,0.0,0.0,0,0,0
1753507534.1103501,1117.5809211730957,0.0,35753,-0.18,-0.03,0.97,0.0,0.0,0.0,39.8,0.0,-40.0,2.31,10.42,-1.21,0,42.44,1006.16,0,0.0,0.0,0.0,0.0,0.0,0.0,0,0,0
1753507534.7377079,1118.2082788944244,0.0,35841,-0.17,-0.03,0.97,0.0,0.0,0.0,39.9,-0.1,-40.1,2.31,10.42,-1.21,0,42.44,1006.17,0,0.0,0.0,0.0,0.0,0.0,0.0,0,0,0
1753507534.8825855,1118.3531565666199,0.0,36854,-0.18,-0.03,0.97,0.0,0.0,0.0,40.1,0.1,-39.9,2.31,10.42,-1.21,0,42.44,1006.17,0,0.0,0.0,0.0,0.0,0.0,0.0,0,0,0
1753507534.9648023,1118.4353733062744,0.0,36930,-0.18,-0.03,0.97,0.0,0.0,0.0,40.2,-0.1,-40.4,2.31,10.42,-1.21,0,42.44,1006.17,0,0.0,0.0,0.0,0.0,0.0,0.0,0,0,0
1753507535.0506718,1118.5212428569794,0.0,37002,-0.18,-0.03,0.97,0.0,0.0,0.0,39.8,0.3,-39.8,2.32,10.42,-1.21,0,42.44,1006.17,0,0.0,0.0,0.0,0.0,0.0,0.0,0,0,0
1753507535.6830046,1119.1535756587982,0.0,37107,-0.17,-0.03,0.97,0.0,0.0,0.0,40.7,0.1,-40.0,2.32,10.42,-1.21,0,42.44,1006.17,0,0.0,0.0,0.0,0.0,0.0,0.0,0,0,0
1753507536.3100555,1119.7806265354156,0.0,37171,-0.18,-0.03,0.97,0.0,0.0,0.0,40.7,0.2,-40.4,2.31,10.42,-1.21,0,42.44,1006.17,0,0.0,0.0,0.0,0.0,0.0,0.0,0,0,0
1753507536.8811476,1120.3517186641693,0.0,38181,-0.18,-0.03,0.97,0.0,0.0,0.0,40.3,0.0,-39.9,2.32,10.42,-1.21,0,42.44,1006.17,0,0.0,0.0,0.0,0.0,0.0,0.0,0,0,0
1753507536.9808512,1120.451422214508,0.0,38260,-0.17,-0.03,0.97,0.0,0.0,0.0,40.0,-0.1,-40.0,2.31,10.42,-1.21,0,42.44,1006.17,0,0.0,0.0,0.0,0.0,0.0,0.0,0,0,0
1753507537.071062,1120.5416331291199,0.0,38348,-0.17,-0.03,0.97,0.0,0.0,0.0,40.4,0.2,-40.7,2.31,10.42,-1.21,0,42.44,1006.17,0,0.0,0.0,0.0,0.0,0.0,0.0,0,0,0
1753507537.1476011,1120.6181721687317,0.0,38422,-0.18,-0.03,0.97,0.0,0.0,0.0,40.4,-0.1,-40.0,2.31,10.42,-1.21,0,42.44,1006.17,0,0.0,0.0,0.0,0.0,0.0,0.0,0,0,0
1753507537.2356322,1120.7062032222748,0.0,38486,-0.18,-0.03,0.97,0.0,0.0,0.0,40.1,0.1,-40.5,2.32,10.42,-1.21,0,42.44,1006.17,0,0.0,0.0,0.0,0.0,0.0,0.0,0,0,0
1753507537.5859396,1121.0565106868744,0.0,38574,-0.18,-0.03,0.97,0.0,0.0,0.0,39.9,0.0,-40.0,2.32,10.42,-1.21,0,42.45,1006.17,0,0.0,0.0,0.0,0.0,0.0,0.0,0,0,0
1753507537.7597651,1121.23033618927,0.0,39599,-0.18,-0.03,0.97,0.0,0.0,0.0,40.3,0.1,-40.1,2.32,10.42,-1.21,0,42.44,1006.17,0,0.0,0.0,0.0,0.0,0.0,0.0,0,0,0
1753507538.3955092,1121.8660802841187,0.0,39659,-0.18,-0.03,0.97,0.0,0.0,0.0,40.4,0.0,-40.7,2.31,10.42,-1.21,0,42.44,1006.17,0,0.0,0.0,0.0,0.0,0.0,0.0,0,0,0
1753507538.4784846,1121.949055671692,0.0,39732,-0.18,-0.03,0.97,0.0,0.0,0.0,39.9,0.2,-39.9,2.31,10.42,-1.21,0,42.45,1006.17,0,0.0,0.0,0.0,0.0,0.0,0.0,0,0,0
1753507538.838065,1122.3086359500885,0.0,39812,-0.17,-0.03,0.97,0.0,0.0,0.0,39.9,0.0,-40.1,2.31,10.42,-1.21,0,42.45,1006.17,0,0.0,0.0,0.0,0.0,0.0,0.0,0,0,0
1753507539.0074599,1122.4780309200287,0.0,40839,-0.17,-0.03,0.97,0.0,0.0,0.0,39.9,0.0,-40.4,2.31,10.42,-1.21,0,42.45,1006.16,0,0.0,0.0,0.0,0.0,0.0,0.0,0,0,0
1753507539.094094,1122.5646650791168,0.0,40911,-0.18,-0.03,0.97,0.0,0.0,0.0,40.0,0.0,-40.1,2.31,10.42,-1.21,0,42.45,1006.17,0,0.0,0.0,0.0,0.0,0.0,0.0,0,0,0
1753507539.1772554,1122.6478264331818,0.0,40990,-0.18,-0.03,0.97,0.0,0.0,0.0,40.0,-0.1,-40.2,2.31,10.42,-1.21,0,42.45,1006.17,0,0.0,0.0,0.0,0.0,0.0,0.0,0,0,0
1753507539.2550833,1122.7256543636322,0.0,41065,-0.17,-0.03,0.97,0.0,0.0,0.0,39.9,-0.1,-40.4,2.31,10.42,-1.21,0,42.45,1006.17,0,0.0,0.0,0.0,0.0,0.0,0.0,0,0,0
1753507539.3448033,1122.8153743743896,0.0,41139,-0.18,-0.03,0.97,0.0,0.0,0.0,40.1,0.1,-40.6,2.32,10.42,-1.21,0,42.45,1006.17,0,0.0,0.0,0.0,0.0,0.0,0.0,0,0,0
1753507539.4216757,1122.892246723175,0.0,41217,-0.17,-0.03,0.97,0.0,0.0,0.0,40.2,0.2,-40.3,2.31,10.42,-1.21,0,42.45,1006.17,0,0.0,0.0,0.0,0.0,0.0,0.0,0,0,0
1753507539.5050282,1122.9755992889404,0.0,41292,-0.17,-0.03,0.97,0.0,0.0,0.0,39.9,0.2,-40.4,2.31,10.42,-1.21,0,42.45,1006.17,0,0.0,0.0,0.0,0.0,0.0,0.0,0,0,0
1753507539.5919404,1123.0625114440918,0.0,41379,-0.17,-0.03,0.97,0.0,0.0,0.0,40.5,0.0,-40.0,2.31,10.42,-1.21,0,42.45,1006.17,0,0.0,0.0,0.0,0.0,0.0,0.0,0,0,0
1753507539.687244,1123.1578149795532,0.0,41468,-0.17,-0.03,0.97,0.0,0.0,0.0,40.0,0.0,-40.1,2.32,10.42,-1.21,0,42.45,1006.17,0,0.0,0.0,0.0,0.0,0.0,0.0,0,0,0
1753507540.3346286,1123.805199623108,0.0,41532,-0.17,-0.03,0.97,0.0,0.0,0.0,40.0,0.0,-40.1,2.32,10.42,-1.21,0,42.45,1006.17,0,0.0,0.0,0.0,0.0,0.0,0.0,0,0,0
1753507540.4099972,1123.880568265915,0.0,41621,-0.17,-0.03,0.97,0.0,0.0,0.0,40.2,0.0,-40.4,2.32,10.42,-1.21,0,42.45,1006.17,0,0.0,0.0,0.0,0.0,0.0,0.0,0,0,0
1753507541.050121,1124.5206921100616,0.0,41685,-0.18,-0.03,0.97,0.0,0.0,0.0,40.2,-0.4,-41.0,2.32,10.42,-1.21,0,42.45,1006.17,0,0.0,0.0,0.0,0.0,0.0,0.0,0,0,0
1753507541.492673,1124.9632439613342,0.0,42696,-0.17,-0.03,0.97,0.0,0.0,0.0,40.0,0.0,-40.0,2.32,10.42,-1.21,0,42.46,1006.17,0,0.0,0.0,0.0,0.0,0.0,0.0,0,0,0
1753507541.5824826,1125.0530536174774,0.0,42773,-0.17,-0.03,0.97,0.0,0.0,0.0,40.2,0.0,-40.4,2.31,10.42,-1.21,0,42.45,1006.17,0,0.0,0.0,0.0,0.0,0.0,0.0,0,0,0
1753507541.660828,1125.131399154663,0.0,42863,-0.17,-0.03,0.97,0.0,0.0,0.0,40.4,0.1,-40.2,2.32,10.42,-1.21,0,42.45,1006.17,0,0.0,0.0,0.0,0.0,0.0,0.0,0,0,0
1753507541.749408,1125.2199790477753,0.0,42937,-0.18,-0.03,0.97,0.0,0.0,0.0,40.1,0.0,-40.2,2.32,10.42,-1.21,0,42.46,1006.17,0,0.0,0.0,0.0,0.0,0.0,0.0,0,0,0
1753507542.3794935,1125.8500645160675,0.0,43015,-0.18,-0.03,0.97,0.0,0.0,0.0,40.1,-0.1,-39.9,2.32,10.42,-1.21,0,42.46,1006.17,0,0.0,0.0,0.0,0.0,0.0,0.0,0,0,0
1753507543.0770352,1126.547606229782,0.0,44024,-0.18,-0.03,0.97,0.0,0.0,0.0,40.0,0.1,-39.9,2.32,10.42,-1.21,0,42.46,1006.17,0,0.0,0.0,0.0,0.0,0.0,0.0,0,0,0
1753507543.2350724,1126.705643415451,0.0,45030,-0.18,-0.03,0.97,0.0,0.0,0.0,40.2,0.2,-40.3,2.32,10.42,-1.21,0,42.46,1006.17,0,0.0,0.0,0.0,0.0,0.0,0.0,0,0,0
1753507543.7208674,1127.1914384365082,0.0,45139,-0.17,-0.03,0.97,0.0,0.0,0.0,40.5,0.0,-40.8,2.32,10.42,-1.21,0,42.46,1006.17,0,0.0,0.0,0.0,0.0,0.0,0.0,0,0,0
1753507543.8175042,1127.288075208664,0.0,45213,-0.17,-0.03,0.97,0.0,0.0,0.0,40.3,-0.2,-40.7,2.32,10.42,-1.21,0,42.46,1006.18,0,0.0,0.0,0.0,0.0,0.0,0.0,0,0,0
1753507543.9149415,1127.3855125904083,0.0,45272,-0.18,-0.03,0.97,0.0,0.0,0.0,39.8,0.0,-40.4,2.31,10.42,-1.21,0,42.46,1006.18,0,0.0,0.0,0.0,0.0,0.0,0.0,0,0,0
1753507544.0138416,1127.4844126701355,0.0,45362,-0.17,-0.03,0.97,0.0,0.0,0.0,40.2,0.0,-40.0,2.31,10.42,-1.21,0,42.46,1006.18,0,0.0,0.0,0.0,0.0,0.0,0.0,0,0,0
1753507544.0936651,1127.564236164093,0.0,45435,-0.17,-0.03,0.97,0.0,0.0,0.0,40.3,0.0,-40.2,2.32,10.42,-1.21,0,42.46,1006.18,0,0.0,0.0,0.0,0.0,0.0,0.0,0,0,0
1753507544.1718774,1127.642448425293,0.0,45531,-0.18,-0.03,0.97,0.0,0.0,0.0,40.4,-0.1,-39.9,2.32,10.42,-1.21,0,42.46,1006.18,0,0.0,0.0,0.0,0.0,0.0,0.0,0,0,0
1753507544.2536297,1127.7242007255554,0.0,45590,-0.18,-0.03,0.97,0.0,0.0,0.0,39.7,-0.2,-40.8,2.32,10.42,-1.21,0,42.46,1006.18,0,0.0,0.0,0.0,0.0,0.0,0.0,0,0,0
1753507544.6117318,1128.0823028087616,0.0,45663,-0.18,-0.03,0.97,0.0,0.0,0.0,40.0,0.0,-40.2,2.32,10.42,-1.21,0,42.46,1006.18,0,0.0,0.0,0.0,0.0,0.0,0.0,0,0,0
1753507544.7823658,1128.2529368400574,0.0,46680,-0.18,-0.03,0.97,0.0,0.0,0.0,40.1,-0.1,-40.2,2.32,10.42,-1.21,0,42.46,1006.17,0,0.0,0.0,0.0,0.0,0.0,0.0,0,0,0
1753507545.4149468,1128.885517835617,0.0,46755,-0.18,-0.03,0.97,0.0,0.0,0.0,39.7,0.0,-40.0,2.32,10.42,-1.21,0,42.47,1006.18,0,0.0,0.0,0.0,0.0,0.0,0.0,0,0,0
1753507545.6373243,1129.107895374298,0.0,46842,-0.17,-0.03,0.97,0.0,0.0,0.0,39.9,0.4,-40.6,2.32,10.42,-1.21,0,42.47,1006.18,0,0.0,0.0,0.0,0.0,0.0,0.0,0,0,0
1753507546.2678978,1129.7384688854218,0.0,46920,-0.18,-0.03,0.97,0.0,0.0,0.0,39.8,0.0,-40.6,2.32,10.42,-1.21,0,42.47,1006.17,0,0.0,0.0,0.0,0.0,0.0,0.0,0,0,0
1753507547.1128354,1130.5834064483643,0.0,47929,-0.18,-0.03,0.97,0.0,0.0,0.0,40.3,0.1,-40.2,2.32,10.42,-1.21,0,42.47,1006.17,0,0.0,0.0,0.0,0.0,0.0,0.0,0,0,0
1753507547.2770858,1130.7476568222046,0.0,48929,-0.17,-0.03,0.97,0.0,0.0,0.0,39.9,0.2,-40.3,2.32,10.42,-1.2,0,42.47,1006.17,0,0.0,0.0,0.0,0.0,0.0,0.0,0,0,0
1753507547.900327,1131.3708980083466,0.0,49002,-0.18,-0.03,0.97,0.0,0.0,0.0,40.0,0.1,-39.8,2.32,10.42,-1.2,0,42.47,1006.17,0,0.0,0.0,0.0,0.0,0.0,0.0,0,0,0
1753507548.6053884,1132.075959444046,0.0,50029,-0.18,-0.03,0.97,0.0,0.0,0.0,40.5,0.3,-40.2,2.32,10.42,-1.2,0,42.48,1006.17,0,0.0,0.0,0.0,0.0,0.0,0.0,0,0,0
1753507548.7079375,1132.1785085201263,0.0,50108,-0.17,-0.03,0.97,0.0,0.0,0.0,39.9,0.0,-40.2,2.32,10.42,-1.2,0,42.48,1006.17,0,0.0,0.0,0.0,0.0,0.0,0.0,0,0,0
1753507548.8001993,1132.2707703113556,0.0,50181,-0.18,-0.03,0.97,0.0,0.0,0.0,40.1,0.2,-40.2,2.32,10.42,-1.2,0,42.48,1006.16,0,0.0,0.0,0.0,0.0,0.0,0.0,0,0,0
1753507548.8860345,1132.3566055297852,0.0,50271,-0.17,-0.03,0.97,0.0,0.0,0.0,40.3,0.0,-40.1,2.32,10.42,-1.2,0,42.48,1006.16,0,0.0,0.0,0.0,0.0,0.0,0.0,0,0,0
1753507549.2399087,1132.7104797363281,0.0,50349,-0.17,-0.03,0.97,0.0,0.0,0.0,40.5,0.0,-40.4,2.32,10.42,-1.2,0,42.48,1006.17,0,0.0,0.0,0.0,0.0,0.0,0.0,0,0,0
1753507549.338843,1132.8094141483307,0.0,50423,-0.17,-0.03,0.97,0.0,0.0,0.0,40.0,0.1,-40.4,2.32,10.42,-1.2,0,42.48,1006.16,0,0.0,0.0,0.0,0.0,0.0,0.0,0,0,0
1753507549.4247665,1132.8953375816345,0.0,50482,-0.18,-0.03,0.97,0.0,0.0,0.0,40.0,0.2,-40.3,2.32,10.42,-1.2,0,42.48,1006.16,0,0.0,0.0,0.0,0.0,0.0,0.0,0,0,0
1753507549.505502,1132.976073026657,0.0,50591,-0.17,-0.03,0.97,0.0,0.0,0.0,39.9,0.1,-40.3,2.32,10.42,-1.2,0,42.47,1006.16,0,0.0,0.0,0.0,0.0,0.0,0.0,0,0,0
1753507550.007515,1133.4780859947205,0.0,50770,-0.18,-0.03,0.97,0.0,0.0,0.0,39.9,0.3,-40.1,2.32,10.42,-1.2,0,42.48,1006.16,0,0.0,0.0,0.0,0.0,0.0,0.0,0,0,0
1753507550.1803646,1133.6509356498718,0.0,51782,-0.17,-0.03,0.97,0.0,0.0,0.0,40.2,0.5,-40.1,2.32,10.42,-1.2,0,42.48,1006.17,0,0.0,0.0,0.0,0.0,0.0,0.0,0,0,0
1753507550.276913,1133.7474839687347,0.0,51872,-0.17,-0.03,0.97,0.0,0.0,0.0,40.3,0.2,-40.4,2.32,10.42,-1.2,0,42.48,1006.17,0,0.0,0.0,0.0,0.0,0.0,0.0,0,0,0
1753507550.4991853,1133.9697563648224,0.0,51946,-0.17,-0.03,0.97,0.0,0.0,0.0,40.2,0.3,-40.4,2.32,10.42,-1.2,0,42.48,1006.16,0,0.0,0.0,0.0,0.0,0.0,0.0,0,0,0
1753507550.5965338,1134.0671048164368,0.0,52009,-0.18,-0.03,0.97,0.0,0.0,0.0,40.1,0.1,-40.4,2.32,10.42,-1.2,0,42.48,1006.17,0,0.0,0.0,0.0,0.0,0.0,0.0,0,0,0
1753507550.67758,1134.1481511592865,0.0,52099,-0.17,-0.03,0.97,0.0,0.0,0.0,40.3,0.0,-40.8,2.32,10.42,-1.2,0,42.48,1006.17,0,0.0,0.0,0.0,0.0,0.0,0.0,0,0,0
1753507550.752819,1134.2233901023865,0.0,52171,-0.17,-0.03,0.97,0.0,0.0,0.0,40.2,0.0,-39.9,2.32,10.42,-1.2,0,42.49,1006.17,0,0.0,0.0,0.0,0.0,0.0,0.0,0,0,0
1753507551.3840435,1134.854614496231,0.0,52249,-0.18,-0.03,0.97,0.0,0.0,0.0,39.8,0.2,-40.5,2.32,10.42,-1.2,0,42.48,1006.17,0,0.0,0.0,0.0,0.0,0.0,0.0,0,0,0
1753507551.8263893,1135.2969603538513,0.0,53274,-0.17,-0.03,0.97,0.0,0.0,0.0,40.4,0.2,-40.0,2.32,10.42,-1.2,0,42.48,1006.17,0,0.0,0.0,0.0,0.0,0.0,0.0,0,0,0
1753507551.9115317,1135.38210272789,0.0,53349,-0.18,-0.03,0.97,0.0,0.0,0.0,40.5,0.1,-40.0,2.32,10.43,-1.2,0,42.48,1006.18,0,0.0,0.0,0.0,0.0,0.0,0.0,0,0,0
1753507552.0011106,1135.4716815948486,0.0,53428,-0.17,-0.03,0.97,0.0,0.0,0.0,40.1,0.0,-40.1,2.32,10.43,-1.2,0,42.49,1006.18,0,0.0,0.0,0.0,0.0,0.0,0.0,0,0,0
1753507552.6298573,1136.1004283428192,0.0,53502,-0.17,-0.03,0.97,0.0,0.0,0.0,40.2,0.0,-40.4,2.32,10.42,-1.2,0,42.49,1006.18,0,0.0,0.0,0.0,0.0,0.0,0.0,0,0,0
1753507553.0777445,1136.548315525055,0.0,54529,-0.17,-0.03,0.97,0.0,0.0,0.0,40.4,0.0,-40.4,2.32,10.42,-1.2,0,42.49,1006.17,0,0.0,0.0,0.0,0.0,0.0,0.0,0,0,0
1753507553.1610916,1136.631662607193,0.0,54608,-0.18,-0.03,0.97,0.0,0.0,0.0,39.9,0.0,-40.4,2.32,10.42,-1.2,0,42.49,1006.17,0,0.0,0.0,0.0,0.0,0.0,0.0,0,0,0
1753507553.2472525,1136.7178235054016,0.0,54681,-0.17,-0.03,0.97,0.0,0.0,0.0,40.0,0.0,-40.5,2.32,10.42,-1.2,0,42.49,1006.17,0,0.0,0.0,0.0,0.0,0.0,0.0,0,0,0
1753507553.605183,1137.0757539272308,0.0,54739,-0.17,-0.03,0.97,0.0,0.0,0.0,40.5,0.1,-40.7,2.32,10.42,-1.2,0,42.49,1006.17,0,0.0,0.0,0.0,0.0,0.0,0.0,0,0,0
1753507553.790928,1137.26149892807,0.0,55752,-0.18,-0.03,0.97,0.0,0.0,0.0,40.5,0.0,-40.3,2.32,10.42,-1.2,0,42.5,1006.17,0,0.0,0.0,0.0,0.0,0.0,0.0,0,0,0
1753507554.013072,1137.4836430549622,0.0,55840,-0.18,-0.03,0.97,0.0,0.0,0.0,40.1,0.0,-40.2,2.32,10.42,-1.2,0,42.5,1006.17,0,0.0,0.0,0.0,0.0,0.0,0.0,0,0,0
1753507554.105568,1137.576138973236,0.0,55918,-0.17,-0.03,0.97,0.0,0.0,0.0,40.3,-0.1,-40.8,2.32,10.42,-1.2,0,42.5,1006.17,0,0.0,0.0,0.0,0.0,0.0,0.0,0,0,0
1753507554.1856415,1137.656212568283,0.0,55993,-0.17,-0.03,0.97,0.0,0.0,0.0,40.4,0.0,-40.2,2.32,10.42,-1.2,0,42.5,1006.17,0,0.0,0.0,0.0,0.0,0.0,0.0,0,0,0
1753507554.2669919,1137.7375628948212,0.0,56080,-0.18,-0.03,0.97,0.0,0.0,0.0,40.3,-0.1,-40.1,2.32,10.42,-1.2,0,42.5,1006.18,0,0.0,0.0,0.0,0.0,0.0,0.0,0,0,0
1753507554.6200092,1138.0905802249908,0.0,56159,-0.17,-0.03,0.97,0.0,0.0,0.0,40.3,0.0,-40.1,2.32,10.42,-1.2,0,42.5,1006.18,0,0.0,0.0,0.0,0.0,0.0,0.0,0,0,0
1753507554.722189,1138.1927599906921,0.0,56233,-0.18,-0.03,0.97,0.0,0.0,0.0,40.2,0.0,-40.5,2.32,10.42,-1.2,0,42.5,1006.18,0,0.0,0.0,0.0,0.0,0.0,0.0,0,0,0
1753507554.8044777,1138.2750487327576,0.0,56308,-0.18,-0.03,0.97,0.0,0.0,0.0,40.3,-0.1,-40.3,2.32,10.42,-1.2,0,42.49,1006.18,0,0.0,0.0,0.0,0.0,0.0,0.0,0,0,0
1753507554.8924277,1138.3629987239838,0.0,56386,-0.17,-0.03,0.97,0.0,0.0,0.0,40.1,0.1,-40.3,2.32,10.42,-1.2,0,42.49,1006.18,0,0.0,0.0,0.0,0.0,0.0,0.0,0,0,0
1753507555.247471,1138.7180421352386,0.0,56460,-0.17,-0.03,0.97,0.0,0.0,0.0,40.5,0.0,-40.1,2.32,10.42,-1.2,0,42.49,1006.17,0,0.0,0.0,0.0,0.0,0.0,0.0,0,0,0
1753507555.3418689,1138.812439918518,0.0,56549,-0.17,-0.03,0.97,0.0,0.0,0.0,40.0,0.3,-40.4,2.32,10.42,-1.2,0,42.49,1006.17,0,0.0,0.0,0.0,0.0,0.0,0.0,0,0,0
1753507555.4249644,1138.8955354690552,0.0,56628,-0.17,-0.03,0.97,0.0,0.0,0.0,40.2,0.0,-40.0,2.32,10.42,-1.2,0,42.49,1006.17,0,0.0,0.0,0.0,0.0,0.0,0.0,0,0,0
1753507555.7896073,1139.2601783275604,0.0,56702,-0.18,-0.03,0.97,0.0,0.0,0.0,40.1,0.1,-40.3,2.32,10.42,-1.2,0,42.49,1006.17,0,0.0,0.0,0.0,0.0,0.0,0.0,0,0,0
1753507555.9751666,1139.4457376003265,0.0,57727,-0.17,-0.03,0.97,0.0,0.0,0.0,40.1,0.0,-39.9,2.32,10.42,-1.2,0,42.5,1006.18,0,0.0,0.0,0.0,0.0,0.0,0.0,0,0,0
1753507556.197258,1139.6678290367126,0.0,57777,-0.18,-0.03,0.97,0.0,0.0,0.0,39.7,0.1,-40.4,2.32,10.42,-1.2,0,42.5,1006.18,0,0.0,0.0,0.0,0.0,0.0,0.0,0,0,0
1753507556.6906903,1140.1612613201141,0.0,57864,-0.17,-0.03,0.97,0.0,0.0,0.0,40.3,0.1,-40.4,2.32,10.42,-1.2,0,42.5,1006.18,0,0.0,0.0,0.0,0.0,0.0,0.0,0,0,0
1753507556.780408,1140.2509789466858,0.0,57943,-0.18,-0.03,0.97,0.0,0.0,0.0,40.6,0.2,-40.1,2.32,10.42,-1.2,0,42.5,1006.18,0,0.0,0.0,0.0,0.0,0.0,0.0,0,0,0
1753507556.8737793,1140.3443503379822,0.0,58018,-0.18,-0.03,0.97,0.0,0.0,0.0,40.4,0.0,-40.4,2.32,10.42,-1.2,0,42.5,1006.18,0,0.0,0.0,0.0,0.0,0.0,0.0,0,0,0
1753507556.9781723,1140.4487433433533,0.0,58107,-0.18,-0.03,0.97,0.0,0.0,0.0,40.0,0.4,-40.4,2.31,10.42,-1.2,0,42.5,1006.18,0,0.0,0.0,0.0,0.0,0.0,0.0,0,0,0
1753507557.6805341,1141.1511051654816,0.0,59118,-0.17,-0.03,0.97,0.0,0.0,0.0,40.0,0.1,-40.0,2.31,10.42,-1.2,0,42.5,1006.18,0,0.0,0.0,0.0,0.0,0.0,0.0,0,0,0
1753507558.0384517,1141.5090227127075,0.0,59191,-0.18,-0.03,0.97,0.0,0.0,0.0,40.1,0.0,-40.2,2.31,10.42,-1.2,0,42.5,1006.18,0,0.0,0.0,0.0,0.0,0.0,0.0,0,0,0
1753507558.145689,1141.6162600517273,0.0,59281,-0.17,-0.03,0.97,0.0,0.0,0.0,39.9,0.1,-40.2,2.31,10.42,-1.2,0,42.5,1006.18,0,0.0,0.0,0.0,0.0,0.0,0.0,0,0,0
1753507558.3176446,1141.788215637207,0.0,60298,-0.18,-0.03,0.97,0.0,0.0,0.0,40.3,0.0,-40.1,2.32,10.42,-1.21,0,42.51,1006.18,0,0.0,0.0,0.0,0.0,0.0,0.0,0,0,0
1753507558.4044805,1141.875051498413,0.0,60372,-0.18,-0.03,0.97,0.0,0.0,0.0,40.3,0.1,-40.4,2.32,10.42,-1.21,0,42.51,1006.18,0,0.0,0.0,0.0,0.0,0.0,0.0,0,0,0
1753507558.6196475,1142.0902185440063,0.0,60462,-0.17,-0.03,0.97,0.0,0.0,0.0,40.2,0.0,-40.6,2.32,10.42,-1.21,0,42.51,1006.18,0,0.0,0.0,0.0,0.0,0.0,0.0,0,0,0
1753507558.7159493,1142.1865203380585,0.0,60521,-0.17,-0.03,0.97,0.0,0.0,0.0,40.0,-0.1,-40.2,2.32,10.42,-1.21,0,42.51,1006.18,0,0.0,0.0,0.0,0.0,0.0,0.0,0,0,0
1753507558.7972267,1142.2677977085114,0.0,60614,-0.18,-0.03,0.97,0.0,0.0,0.0,39.8,0.1,-39.9,2.31,10.42,-1.21,0,42.51,1006.18,0,0.0,0.0,0.0,0.0,0.0,0.0,0,0,0
1753507558.8818796,1142.3524506092072,0.0,60673,-0.18,-0.03,0.97,0.0,0.0,0.0,39.9,0.4,-40.6,2.31,10.42,-1.21,0,42.51,1006.18,0,0.0,0.0,0.0,0.0,0.0,0.0,0,0,0
1753507559.5025907,1142.9731616973877,0.0,60763,-0.17,-0.03,0.97,0.0,0.0,0.0,40.5,0.0,-40.2,2.32,10.43,-1.21,0,42.51,1006.18,0,0.0,0.0,0.0,0.0,0.0,0.0,0,0,0
1753507560.0083263,1143.4788973331451,0.0,60837,-0.18,-0.03,0.97,0.0,0.0,0.0,40.0,0.1,-40.4,2.32,10.42,-1.2,0,42.51,1006.18,0,0.0,0.0,0.0,0.0,0.0,0.0,0,0,0
1753507561.2219248,1144.6924958229065,0.0,62776,-0.03,0.41,2.34,-4.9,-4.5,158.8,41.5,-18.2,-41.6,4.28,12.32,-37.91,0,42.52,1003.21,24.42,0.0,0.0,0.0,0.0,0.0,0.0,0,0,1
1753507561.4412158,1144.9117867946625,0.09,62866,-0.01,0.37,1.29,2.2,-8.89,183.7,32.4,-25.7,-43.5,0.54,12.41,-55.55,0,42.52,1002.81,27.77,0.0,0.0,0.0,0.0,0.0,0.0,0,0,1
1753507561.9459484,1145.4165194034576,0.163,62939,0.13,0.21,0.66,4.0,-13.3,200.4,25.5,-36.6,-43.4,-3.44,10.95,-73.37,0,42.52,1002.4,31.28,0.0,0.0,0.0,0.0,0.0,0.0,0,0,1
1753507562.1103604,1145.5809314250946,1.179,63955,0.06,0.31,-0.09,-7.0,-32.3,280.5,22.5,38.2,-33.9,21.75,3.36,50.66,0,42.53,996.96,77.04,0.0,0.0,0.0,0.0,0.0,0.0,0,0,1
1753507562.207036,1145.6776070594788,1.253,64029,-0.02,0.33,-0.09,-11.6,-34.59,263.5,35.9,29.3,-34.8,19.87,9.17,26.65,0,42.53,996.6,80.11,0.0,0.0,0.0,0.0,0.0,0.0,0,0,1
1753507562.2924924,1145.7630634307861,1.343,64119,0.0,0.35,-0.08,-14.8,-31.7,252.0,43.7,9.6,-35.4,15.79,14.0,0.35,0,42.52,996.22,83.27,0.0,0.0,0.0,0.0,0.0,0.0,0,0,1
1753507562.6504815,1146.1210525035858,1.407,64183,0.02,0.35,-0.09,-14.5,-30.7,249.9,46.6,1.6,-39.0,13.71,15.35,-10.1,0,42.52,995.85,86.43,0.0,0.0,0.0,0.0,0.0,0.0,0,0,1
1753507562.738875,1146.2094459533691,1.482,64258,0.0,0.31,-0.08,-13.4,-27.1,237.4,44.0,-12.9,-37.5,8.54,16.96,-32.75,0,42.52,995.48,89.48,0.0,0.0,0.0,0.0,0.0,0.0,0,0,1
1753507562.8393264,1146.3098974227905,1.586,64362,0.04,0.36,-0.07,-9.39,-26.2,245.7,33.9,-29.0,-43.1,1.62,16.42,-60.61,0,42.52,995.12,92.54,0.0,0.0,0.0,0.0,0.0,0.0,0,0,1
1753507562.919371,1146.3899419307709,1.65,64426,0.05,0.33,-0.08,-7.6,-26.3,253.8,29.2,-34.3,-44.1,-0.91,15.42,-70.97,0,42.52,994.77,95.48,0.0,0.0,0.0,0.0,0.0,0.0,0,0,1
1753507563.4174318,1146.888002872467,1.724,64500,0.1,0.34,-0.07,-5.0,-32.5,260.6,14.1,-40.9,-45.1,-6.04,11.3,-94.99,0,42.52,994.44,98.28,0.0,0.0,0.0,0.0,0.0,0.0,0,0,1
1753507564.1227872,1147.5933582782745,2.729,65505,0.15,0.13,-0.06,-44.8,-7.1,-269.56,56.3,-12.8,-28.3,5.59,34.64,-27.16,0,42.52,990.83,128.84,0.0,0.0,0.0,0.0,0.0,0.0,0,0,1
1753507564.2075238,1147.6780948638916,2.819,65595,0.14,0.06,-0.06,-40.8,6.3,-265.66,37.9,-40.0,-24.8,-16.17,30.67,-73.93,0,42.52,990.61,130.74,0.0,0.0,0.0,0.0,0.0,0.0,0,0,1
1753507564.8475132,1148.3180842399597,2.893,65669,0.14,0.0,-0.06,-35.2,14.4,-289.06,16.1,-51.5,-31.9,-27.67,18.36,-109.09,0,42.53,990.4,132.52,0.0,0.0,0.0,0.0,0.0,0.0,0,0,1
1753507565.0126827,1148.4832537174225,3.912,66688,-0.09,-0.07,-0.03,9.8,35.7,210.5,54.7,-18.0,-28.6,4.92,60.7,-14.71,0,42.53,988.29,150.42,0.0,0.0,0.0,0.0,0.0,0.0,0,1,1
1753507565.1043322,1148.5749032497406,3.987,66763,-0.08,-0.05,-0.02,16.2,32.7,210.9,44.0,-29.7,-20.2,-28.18,62.71,-51.73,0,42.53,988.17,151.46,0.0,0.0,0.0,0.0,0.0,0.0,0,1,1
1753507565.735767,1149.206337928772,4.077,66853,-0.09,-0.01,-0.02,23.4,27.0,214.0,35.1,-44.5,-20.5,-57.44,49.89,-84.07,0,42.53,988.06,152.38,0.0,0.0,0.0,0.0,0.0,0.0,0,1,1
1753507565.8945305,1149.3651015758514,5.098,67874,0.06,0.0,-0.02,-6.0,-25.5,88.9,-41.5,22.2,4.4,147.81,-77.22,10.22,0,42.54,987.21,159.63,0.0,0.0,0.0,0.0,0.0,0.0,0,1,1
1753507566.3873827,1149.85795378685,5.161,67937,0.05,-0.01,-0.02,-8.7,-25.3,86.1,-42.1,28.2,8.3,139.28,-74.29,19.29,0,42.54,987.2,159.73,0.0,0.0,0.0,0.0,0.0,0.0,0,1,1
1753507566.4797618,1149.9503328800201,5.233,68009,0.07,-0.01,-0.02,-14.1,-24.4,80.8,-34.6,29.7,6.1,129.78,-67.3,30.39,0,42.54,987.19,159.82,0.0,0.0,0.0,0.0,0.0,0.0,0,1,1
1753507566.5756624,1150.0462334156036,5.321,68097,0.08,-0.01,-0.03,-20.29,-20.6,74.5,-34.3,38.0,14.7,125.73,-59.67,36.79,0,42.53,987.17,159.91,0.0,0.0,0.0,0.0,0.0,0.0,0,1,1
1753507566.6707602,1150.1413311958313,5.399,68175,0.1,0.0,-0.03,-24.3,-16.29,69.4,-27.6,38.3,14.5,124.78,-56.19,39.21,0,42.53,987.17,159.91,0.0,0.0,0.0,0.0,0.0,0.0,0,1,1
1753507567.3028648,1150.77343583107,5.474,68250,0.11,-0.03,-0.05,-31.7,-5.9,58.8,-25.3,39.6,15.4,124.08,-50.83,43.22,0,42.54,987.16,160.06,0.0,0.0,0.0,0.0,0.0,0.0,0,1,1
1753507567.458062,1150.9286329746246,6.491,69267,0.54,-0.12,-0.2,31.6,123.0,-206.8,-42.6,26.3,3.1,63.03,-78.11,128.67,0,42.55,987.2,159.67,0.0,0.0,0.0,0.0,0.0,0.0,0,1,1
1753507568.0829153,1151.5534863471985,6.579,69355,0.4,0.18,-0.13,-58.9,144.39,-295.5,-48.4,3.1,-4.0,-36.64,-65.26,-126.95,0,42.55,987.25,159.26,0.0,0.0,0.0,0.0,0.0,0.0,0,1,1
1753507568.1732256,1151.6437966823578,6.643,69419,0.36,0.23,-0.14,-86.8,136.0,-254.8,-47.8,-8.0,-9.9,-42.14,-53.89,-117.05,0,42.55,987.37,158.26,0.0,0.0,0.0,0.0,0.0,0.0,0,1,1
1753507568.3909433,1151.8615143299103,6.717,69493,0.26,0.34,-0.07,-136.39,77.69,270.16,-40.5,-26.6,-21.8,-43.42,-27.35,-98.73,0,42.55,987.5,157.1,0.0,0.0,0.0,0.0,0.0,0.0,0,1,1
1753507568.5522563,1152.022827386856,7.757,70533,-0.24,0.34,0.24,-31.5,-26.4,25.9,25.4,-13.9,-50.1,-28.4,12.68,114.59,0,42.56,988.84,145.72,0.0,0.0,0.0,0.0,0.0,0.0,0,1,1
1753507568.6327293,1152.103300333023,7.835,70611,-0.24,0.21,0.61,-26.5,-26.3,44.0,23.0,-12.3,-51.2,-27.14,10.58,113.62,0,42.55,988.99,144.49,0.0,0.0,0.0,0.0,0.0,0.0,0,1,1
1753507568.7108634,1152.181434392929,7.909,70685,0.12,0.24,0.46,-9.3,6.6,31.3,21.5,-12.2,-51.0,-25.78,7.81,111.01,0,42.56,989.11,143.48,0.0,0.0,0.0,0.0,0.0,0.0,0,1,1
1753507568.7982557,1152.2688267230988,7.984,70760,-0.11,0.38,0.16,6.4,42.5,34.09,22.2,-11.2,-53.6,-26.17,8.89,107.57,0,42.56,989.21,142.61,0.0,0.0,0.0,0.0,0.0,0.0,0,1,1
1753507568.881518,1152.3520889282227,8.063,70839,-0.24,0.31,0.23,12.5,52.2,35.09,25.5,-12.7,-54.4,-27.05,10.29,104.89,0,42.56,989.31,141.77,0.0,0.0,0.0,0.0,0.0,0.0,0,1,1
1753507568.9586093,1152.4291803836823,8.136,70912,-0.39,0.48,0.26,12.7,57.4,66.3,31.7,-17.8,-52.8,-29.47,12.67,98.43,0,42.56,989.41,140.95,0.0,0.0,0.0,0.0,0.0,0.0,0,1,1
1753507569.0544713,1152.525042295456,8.226,71002,-0.2,0.77,0.2,-8.39,45.1,129.6,32.4,-22.0,-47.6,-32.13,12.12,87.35,0,42.56,989.59,139.41,0.0,0.0,0.0,0.0,0.0,0.0,0,1,1
1753507569.2332916,1152.7038626670837,8.378,71154,-0.18,0.54,0.1,-51.2,42.5,204.6,22.6,-29.1,-47.4,-30.39,2.86,62.53,0,42.56,989.99,136.0,0.0,0.0,0.0,0.0,0.0,0.0,0,1,1
1753507569.7372167,1153.2077877521515,8.453,71229,0.14,0.62,0.16,-35.2,63.1,211.6,20.9,-32.5,-47.5,-26.38,-1.95,43.63,0,42.56,990.17,134.5,0.0,0.0,0.0,0.0,0.0,0.0,0,1,1
1753507569.8257725,1153.2963435649872,8.513,71289,-0.14,0.66,0.23,-32.4,62.9,216.6,16.9,-33.9,-49.6,-24.56,-3.4,34.75,0,42.56,990.17,134.5,0.0,0.0,0.0,0.0,0.0,0.0,0,1,1
1753507569.9136841,1153.3842551708221,8.605,71381,0.07,0.35,0.09,-18.7,57.8,181.4,8.5,-33.0,-43.6,-20.06,-5.59,13.62,0,42.57,990.57,131.05,0.0,0.0,0.0,0.0,0.0,0.0,0,1,1
1753507570.0085924,1153.4791634082794,8.694,71470,0.19,0.77,0.57,-35.3,44.8,113.3,4.8,-34.9,-49.6,-16.29,-5.6,-1.85,0,42.57,990.81,129.01,0.0,0.0,0.0,0.0,0.0,0.0,0,1,1
1753507570.1015012,1153.5720722675323,8.753,71529,0.24,0.29,0.35,-36.9,47.8,90.4,3.5,-34.5,-50.8,-14.37,-4.92,-6.22,0,42.57,990.81,129.01,0.0,0.0,0.0,0.0,0.0,0.0,0,1,1
1753507570.3209436,1153.791514635086,8.847,71623,0.52,0.29,0.6,-38.0,65.9,21.5,4.8,-30.6,-47.2,-9.91,-0.61,-12.58,0,42.57,991.36,124.41,0.0,0.0,0.0,0.0,0.0,0.0,0,1,1
1753507570.4130545,1153.8836255073547,8.906,71682,0.25,0.24,0.65,-39.2,76.3,14.5,7.2,-30.8,-50.9,-8.29,2.06,-13.67,0,42.57,991.36,124.41,0.0,0.0,0.0,0.0,0.0,0.0,0,1,1
1753507570.9077585,1154.3783295154572,8.982,71758,0.14,0.39,1.46,-24.3,76.4,28.2,11.4,-27.1,-50.0,-5.7,8.68,-16.29,0,42.57,991.64,122.0,0.0,0.0,0.0,0.0,0.0,0.0,0,1,1
1753507571.0633287,1154.5338997840881,9.993,72769,0.37,-0.83,0.57,-260.29,-305.5,58.7,-17.9,-1.3,-54.4,-14.55,-38.39,133.77,0,42.57,993.64,105.1,0.0,0.0,0.0,0.0,0.0,0.0,0,1,1
1753507571.2824605,1154.7530314922333,10.086,72862,1.56,-0.65,0.92,-150.39,-46.9,-93.2,-32.0,11.4,-45.1,-5.3,-49.49,137.98,0,42.57,993.77,104.0,0.0,0.0,0.0,0.0,0.0,0.0,0,1,1
1753507571.7760873,1155.2466583251953,10.162,72938,1.32,-1.05,0.26,-49.6,179.9,-249.3,-33.4,11.1,-43.0,-11.09,-39.93,157.61,0,42.57,993.87,103.16,0.0,0.0,0.0,0.0,0.0,0.0,0,1,1
1753507571.8729992,1155.3435702323914,10.235,73011,0.17,0.05,-0.19,-89.0,253.9,-267.1,-19.0,0.6,-55.5,-15.39,-14.17,179.04,0,42.57,993.93,102.62,0.0,0.0,0.0,0.0,0.0,0.0,0,1,1
1753507571.957571,1155.4281420707703,10.314,73090,-0.16,-0.19,0.02,-141.7,234.5,-258.9,-7.9,3.0,-60.4,-10.35,0.66,-170.98,0,42.57,994.02,101.85,0.0,0.0,0.0,0.0,0.0,0.0,0,1,1
1753507572.4042866,1155.8748576641083,11.342,74118,-0.24,0.75,0.55,-170.0,-177.5,-111.1,20.3,-44.4,-42.6,-33.96,32.81,-80.89,0,42.58,995.32,90.86,0.0,0.0,0.0,0.0,0.0,0.0,0,1,1
1753507572.4939358,1155.9645068645477,11.415,74191,0.35,0.03,0.4,-163.5,-195.6,-134.8,12.0,-28.3,-50.6,-10.27,20.52,-62.19,0,42.58,995.4,90.2,0.0,0.0,0.0,0.0,0.0,0.0,0,1,1
1753507572.5875545,1156.0581254959106,11.48,74256,0.48,-0.34,0.54,-137.5,-187.0,-160.7,5.0,-22.6,-51.9,-2.34,13.39,-55.19,0,42.58,995.5,89.36,0.0,0.0,0.0,0.0,0.0,0.0,0,1,1
1753507572.9649534,1156.4355244636536,11.568,74344,1.95,-0.63,1.64,-15.2,-50.2,-275.29,-0.3,-15.9,-55.8,6.92,-2.02,-34.43,0,42.58,995.6,88.5,0.0,0.0,0.0,0.0,0.0,0.0,0,1,1
