local_timestamp,connect_timestamp,flight_timestamp,raw_packet_timestamp,ax,ay,az,gx,gy,gz,mx,my,mz,roll,pitch,yaw,max_g,temp,pressure,P_alt,lon,lat,Alt,vel_n,vel_e,vel_d,fix_type,ejection,launch
1753197479.625995,0.2250211238861084,0.0,2035428,0.0,0.0,0.99,0.0,0.0,0.0,26.1,25.0,-38.6,-0.17,0.03,42.49,0,23.03,1011.48,0.38,0.0,0.0,0.0,0.0,0.0,0.0,0,3,1
1753197479.726511,0.32553720474243164,0.085,2035513,0.0,0.0,0.99,0.0,0.0,0.0,26.2,24.9,-38.7,-0.17,0.03,42.49,0,23.04,1011.48,0.4,0.0,0.0,0.0,0.0,0.0,0.0,0,3,1
1753197479.952651,0.5516772270202637,0.156,2035584,0.0,0.0,0.99,0.0,0.0,0.0,26.2,24.9,-38.7,-0.17,0.03,42.49,0,23.05,1011.48,0.4,0.0,0.0,0.0,0.0,0.0,0.0,0,3,1
1753197480.058218,0.6572442054748535,0.232,2035660,0.0,0.0,0.99,0.0,0.0,0.0,26.1,25.0,-38.5,-0.17,0.03,42.49,0,23.05,1011.47,0.43,0.0,0.0,0.0,0.0,0.0,0.0,0,3,1
1753197480.2867546,0.8857808113098145,0.351,2035779,0.0,0.0,0.99,0.0,0.0,0.0,26.2,25.0,-38.2,-0.17,0.03,42.49,0,23.06,1011.47,0.45,0.0,0.0,0.0,0.0,0.0,0.0,0,3,1
1753197480.3915172,0.9905433654785156,0.431,2035859,0.0,0.0,0.99,0.0,0.0,0.0,26.2,25.0,-38.2,-0.17,0.03,42.49,0,23.05,1011.47,0.45,0.0,0.0,0.0,0.0,0.0,0.0,0,3,1
1753197480.4866796,1.0857057571411133,0.458,2035886,0.0,0.0,0.99,0.0,0.0,0.0,26.2,25.0,-38.2,-0.17,0.03,42.49,0,23.05,1011.47,0.45,0.0,0.0,0.0,0.0,0.0,0.0,0,3,1
1753197480.847231,1.4462571144104004,0.544,2035972,0.0,0.0,0.99,0.0,0.0,0.0,26.1,24.9,-38.5,-0.17,0.03,42.49,0,23.05,1011.47,0.42,0.0,0.0,0.0,0.0,0.0,0.0,0,3,1
1753197481.1452723,1.7442984580993652,1.68,2037108,0.0,0.0,0.99,0.0,0.0,0.0,26.0,25.0,-38.6,-0.17,0.03,42.5,0,23.03,1011.48,0.36,0.0,0.0,0.0,0.0,0.0,0.0,0,3,1
1753197481.2416081,1.8406343460083008,1.723,2037151,0.0,0.0,0.99,0.0,0.0,0.0,26.0,25.0,-38.6,-0.17,0.03,42.5,0,23.03,1011.48,0.36,0.0,0.0,0.0,0.0,0.0,0.0,0,3,1
1753197481.7390733,2.338099479675293,1.834,2037262,0.0,0.0,0.99,0.0,0.0,0.0,26.1,25.0,-38.5,-0.17,0.03,42.5,0,23.04,1011.48,0.38,0.0,0.0,0.0,0.0,0.0,0.0,0,3,1
1753197481.8285584,2.427584648132324,1.954,2037382,0.0,0.0,0.99,0.0,0.0,0.0,26.1,24.8,-38.7,-0.17,0.03,42.5,0,23.03,1011.48,0.34,0.0,0.0,0.0,0.0,0.0,0.0,0,3,1
1753197481.9151237,2.5141499042510986,2.007,2037435,0.0,0.0,0.99,0.0,0.0,0.0,26.1,24.8,-38.7,-0.17,0.03,42.5,0,23.03,1011.48,0.34,0.0,0.0,0.0,0.0,0.0,0.0,0,3,1
1753197482.1496062,2.7486324310302734,2.092,2037520,0.0,0.0,0.99,0.0,0.0,0.0,26.4,25.0,-38.4,-0.17,0.03,42.5,0,23.02,1011.49,0.29,0.0,0.0,0.0,0.0,0.0,0.0,0,3,1
1753197482.2459362,2.8449623584747314,2.171,2037599,0.0,0.0,0.99,0.0,0.0,0.0,26.4,25.0,-38.4,-0.17,0.03,42.5,0,23.01,1011.49,0.25,0.0,0.0,0.0,0.0,0.0,0.0,0,3,1
1753197482.8929005,3.491926670074463,2.257,2037685,0.0,0.0,0.99,0.0,0.0,0.0,26.1,25.0,-38.2,-0.17,0.03,42.5,0,23.01,1011.49,0.28,0.0,0.0,0.0,0.0,0.0,0.0,0,3,1
1753197483.0775676,3.676593780517578,3.386,2038814,0.0,0.0,0.99,0.0,0.0,0.0,26.1,25.0,-38.8,-0.17,0.03,42.5,0,23.02,1011.48,0.33,0.0,0.0,0.0,0.0,0.0,0.0,0,3,1
1753197483.173835,3.7728612422943115,3.449,2038877,0.0,0.0,0.99,0.0,0.0,0.0,26.1,25.0,-38.8,-0.17,0.03,42.5,0,23.02,1011.48,0.33,0.0,0.0,0.0,0.0,0.0,0.0,0,3,1
1753197483.2623456,3.8613717555999756,3.48,2038908,0.0,0.0,0.99,0.0,0.0,0.0,26.1,25.0,-38.8,-0.17,0.03,42.5,0,23.01,1011.48,0.34,0.0,0.0,0.0,0.0,0.0,0.0,0,3,1
1753197483.900985,4.500011205673218,3.603,2039031,0.0,0.0,0.99,0.0,0.0,0.0,26.5,25.2,-38.9,-0.18,0.03,42.5,0,23.01,1011.49,0.31,0.0,0.0,0.0,0.0,0.0,0.0,0,3,1
1753197484.0812056,4.680231809616089,4.696,2040124,0.0,0.0,0.99,0.0,0.0,0.0,26.3,25.0,-38.5,-0.17,0.03,42.51,0,23.0,1011.49,0.3,0.0,0.0,0.0,0.0,0.0,0.0,0,3,1
1753197484.449696,5.048722267150879,4.766,2040194,0.0,0.0,0.99,0.0,0.0,0.0,26.3,25.0,-38.5,-0.17,0.03,42.51,0,23.0,1011.49,0.32,0.0,0.0,0.0,0.0,0.0,0.0,0,3,1
1753197485.0794315,5.678457736968994,4.9,2040328,0.0,0.0,0.99,0.0,0.0,0.0,26.2,25.1,-38.6,-0.17,0.03,42.51,0,23.01,1011.49,0.32,0.0,0.0,0.0,0.0,0.0,0.0,0,3,1
1753197485.2763069,5.875333070755005,5.968,2041396,0.0,0.0,0.99,0.0,0.0,0.0,26.2,25.1,-38.2,-0.17,0.03,42.51,0,23.01,1011.49,0.32,0.0,0.0,0.0,0.0,0.0,0.0,0,3,1
1753197485.918254,6.517280101776123,6.0,2041428,0.0,0.0,0.99,0.0,0.0,0.0,26.2,25.1,-38.2,-0.17,0.03,42.51,0,23.02,1011.48,0.35,0.0,0.0,0.0,0.0,0.0,0.0,0,3,1
1753197486.0237217,6.622747898101807,6.129,2041557,0.0,0.0,0.98,0.0,0.0,0.0,26.5,24.9,-38.4,-0.17,0.03,42.51,0,23.02,1011.48,0.38,0.0,0.0,0.0,0.0,0.0,0.0,0,3,1
1753197486.111813,6.71083927154541,6.215,2041643,0.0,0.0,0.99,0.0,0.0,0.0,26.3,24.7,-38.5,-0.17,0.03,42.51,0,23.03,1011.48,0.41,0.0,0.0,0.0,0.0,0.0,0.0,0,3,1
1753197486.7467587,7.345784902572632,6.264,2041692,0.0,0.0,0.99,0.0,0.0,0.0,26.1,24.5,-38.8,-0.17,0.03,42.51,0,23.03,1011.48,0.41,0.0,0.0,0.0,0.0,0.0,0.0,0,3,1
1753197486.935421,7.534447193145752,7.365,2042793,0.0,0.0,0.99,0.0,0.0,0.0,25.8,24.9,-38.2,-0.17,0.03,42.51,0,23.0,1011.5,0.23,0.0,0.0,0.0,0.0,0.0,0.0,0,3,1
1753197487.0411499,7.640176057815552,7.442,2042870,0.0,0.0,0.98,0.0,0.0,0.0,26.1,25.3,-38.9,-0.17,0.03,42.51,0,23.0,1011.5,0.22,0.0,0.0,0.0,0.0,0.0,0.0,0,3,1
1753197487.1237826,7.722808837890625,7.571,2042999,0.0,0.0,0.99,0.0,0.0,0.0,26.2,25.3,-38.5,-0.17,0.03,42.51,0,23.0,1011.5,0.22,0.0,0.0,0.0,0.0,0.0,0.0,0,3,1
1753197487.2077537,7.806779861450195,7.676,2043104,0.0,0.0,0.99,0.0,0.0,0.0,26.0,25.2,-38.3,-0.16,0.03,42.51,0,22.99,1011.5,0.22,0.0,0.0,0.0,0.0,0.0,0.0,0,3,1
1753197487.3045864,7.9036126136779785,7.713,2043141,0.0,0.0,0.99,0.0,0.0,0.0,26.0,25.2,-38.3,-0.16,0.03,42.51,0,22.99,1011.5,0.22,0.0,0.0,0.0,0.0,0.0,0.0,0,3,1
1753197487.3891716,7.9881978034973145,7.797,2043225,0.0,0.0,0.99,0.0,0.0,0.0,26.0,24.8,-38.7,-0.17,0.03,42.51,0,22.99,1011.5,0.24,0.0,0.0,0.0,0.0,0.0,0.0,0,3,1
1753197487.4692924,8.068318605422974,7.887,2043315,0.0,0.0,0.99,0.0,0.0,0.0,26.1,25.2,-38.5,-0.17,0.03,42.51,0,22.99,1011.5,0.24,0.0,0.0,0.0,0.0,0.0,0.0,0,3,1
1753197487.693683,8.292709112167358,7.959,2043387,0.0,0.0,0.99,0.0,0.0,0.0,26.1,25.2,-38.5,-0.17,0.03,42.51,0,23.0,1011.49,0.27,0.0,0.0,0.0,0.0,0.0,0.0,0,3,1
1753197487.949249,8.548275232315063,8.015,2043443,0.0,0.0,0.98,0.0,0.0,0.0,26.0,25.3,-38.2,-0.17,0.03,42.51,0,23.0,1011.49,0.27,0.0,0.0,0.0,0.0,0.0,0.0,0,3,1
1753197488.0512233,8.650249481201172,8.155,2043583,0.0,0.0,0.99,0.0,0.0,0.0,26.2,25.2,-38.3,-0.17,0.03,42.52,0,23.01,1011.49,0.31,0.0,0.0,0.0,0.0,0.0,0.0,0,3,1
1753197488.1371205,8.736146688461304,8.227,2043655,0.0,0.0,0.99,0.0,0.0,0.0,26.2,25.2,-38.3,-0.17,0.03,42.52,0,23.01,1011.48,0.34,0.0,0.0,0.0,0.0,0.0,0.0,0,3,1
1753197488.23522,8.834246158599854,8.31,2043738,0.0,0.0,0.99,0.0,0.0,0.0,26.0,24.6,-36.0,-0.17,0.03,42.52,0,23.02,1011.48,0.4,0.0,0.0,0.0,0.0,0.0,0.0,0,3,1
1753197488.4574544,9.056480646133423,8.385,2043813,-0.04,0.0,0.99,0.0,0.0,0.0,26.1,25.0,-38.8,-0.16,0.04,42.57,0,23.03,1011.47,0.43,0.0,0.0,0.0,0.0,0.0,0.0,0,3,1
1753197488.556143,9.155169248580933,8.512,2043940,0.0,0.0,0.99,0.0,0.0,0.0,25.7,25.2,-38.6,-0.17,0.03,42.57,0,23.04,1011.47,0.45,0.0,0.0,0.0,0.0,0.0,0.0,0,3,1
1753197488.6457298,9.244755983352661,8.567,2043995,0.0,0.0,0.99,0.0,0.0,0.0,25.7,25.2,-38.6,-0.17,0.03,42.57,0,23.04,1011.47,0.45,0.0,0.0,0.0,0.0,0.0,0.0,0,3,1
1753197488.736272,9.335298299789429,8.669,2044097,0.0,0.0,0.99,0.0,0.0,0.0,25.9,25.0,-38.8,-0.17,0.03,42.57,0,23.03,1011.47,0.42,0.0,0.0,0.0,0.0,0.0,0.0,0,3,1
1753197488.9574769,9.556503057479858,8.778,2044206,0.0,0.0,0.99,0.0,0.0,0.0,26.1,25.2,-38.3,-0.17,0.03,42.57,0,23.04,1011.47,0.47,0.0,0.0,0.0,0.0,0.0,0.0,0,3,1
1753197489.0452209,9.644247055053711,8.833,2044261,0.0,0.0,0.99,0.0,0.0,0.0,26.1,25.2,-38.3,-0.17,0.03,42.57,0,23.04,1011.47,0.47,0.0,0.0,0.0,0.0,0.0,0.0,0,3,1
1753197489.133963,9.732989311218262,8.95,2044378,0.0,0.0,0.99,0.0,0.0,0.0,26.1,24.8,-38.6,-0.17,0.03,42.57,0,23.04,1011.47,0.44,0.0,0.0,0.0,0.0,0.0,0.0,0,3,1
1753197489.2142868,9.813313007354736,8.988,2044416,0.0,0.0,0.03,0.0,0.0,0.0,42.5,0.0,0.0,-0.17,0.03,42.57,0,23.04,1011.47,0.44,0.0,0.0,0.0,0.0,0.0,0.0,0,3,1
1753197489.722614,10.321640253067017,9.041,2044469,0.0,0.0,0.03,0.0,0.0,0.0,42.5,0.0,0.0,-0.17,0.03,42.57,0,23.04,1011.47,0.42,0.0,0.0,0.0,0.0,0.0,0.0,0,3,1
1753197490.4194095,11.018435716629028,10.345,2045773,0.0,0.0,0.99,0.0,0.0,0.0,26.1,24.9,0.0,-0.17,0.03,42.57,0,23.01,1011.48,0.41,0.0,0.0,0.0,0.0,0.0,0.0,0,3,1
1753197490.9203036,11.51932978630066,10.374,2045802,0.0,0.0,0.99,0.0,0.0,0.0,26.1,24.9,0.0,-0.17,0.03,42.57,0,23.01,1011.48,0.41,0.0,0.0,0.0,0.0,0.0,0.0,0,3,1
1753197491.474542,12.073568105697632,11.469,2046897,0.0,0.0,0.99,0.0,0.0,0.0,26.3,24.9,-38.5,-0.17,0.03,42.58,0,23.0,1011.48,0.34,0.0,0.0,0.0,0.0,0.0,0.0,0,3,1
1753197491.5703306,12.16935682296753,11.555,2046983,0.0,0.0,0.99,0.0,0.0,0.0,25.8,24.9,-38.3,-0.17,0.02,42.58,0,23.01,1011.48,0.34,0.0,0.0,0.0,0.0,0.0,0.0,0,3,1
1753197491.8013172,12.400343418121338,11.668,2047096,0.0,0.0,0.99,0.0,0.0,0.0,25.8,24.9,-38.3,-0.17,0.02,42.58,0,23.0,1011.49,0.32,0.0,0.0,0.0,0.0,0.0,0.0,0,3,1
1753197491.9034746,12.502500772476196,11.786,2047214,0.0,0.0,0.99,0.0,0.0,0.0,26.0,25.1,-38.5,-0.17,0.02,42.58,0,23.0,1011.49,0.31,0.0,0.0,0.0,0.0,0.0,0.0,0,3,1
1753197491.9936666,12.592692852020264,11.802,2047230,0.0,0.0,0.99,0.0,0.0,0.0,26.0,25.1,-38.5,-0.17,0.02,42.58,0,23.0,1011.49,0.31,0.0,0.0,0.0,0.0,0.0,0.0,0,3,1
1753197492.3600209,12.959047079086304,11.89,2047318,0.0,0.0,0.99,0.0,0.0,0.0,26.2,25.2,-38.5,-0.17,0.02,42.58,0,23.0,1011.49,0.29,0.0,0.0,0.0,0.0,0.0,0.0,0,3,1
1753197492.6649842,13.264010429382324,12.989,2048417,0.0,0.0,0.99,0.0,0.0,0.0,26.3,24.5,-38.1,-0.17,0.02,42.58,0,23.0,1011.49,0.3,0.0,0.0,0.0,0.0,0.0,0.0,0,3,1
1753197492.7590876,13.358113765716553,13.07,2048498,0.0,0.0,0.99,0.0,0.0,0.0,26.3,24.9,-38.5,-0.17,0.02,42.58,0,23.0,1011.49,0.31,0.0,0.0,0.0,0.0,0.0,0.0,0,3,1
1753197493.391001,13.99002718925476,13.166,2048594,0.0,0.0,0.99,0.0,0.0,0.0,26.2,25.0,-38.6,-0.17,0.02,42.58,0,23.0,1011.49,0.31,0.0,0.0,0.0,0.0,0.0,0.0,0,3,1
1753197493.4983835,14.097409725189209,13.251,2048679,0.0,0.0,0.98,0.0,0.0,0.0,26.0,25.1,-38.6,-0.17,0.02,42.58,0,23.0,1011.48,0.38,0.0,0.0,0.0,0.0,0.0,0.0,0,3,1
1753197493.6706505,14.269676685333252,14.35,2049778,0.0,0.0,0.98,0.0,0.0,0.0,26.3,24.8,-38.1,-0.17,0.03,42.59,0,23.02,1011.48,0.37,0.0,0.0,0.0,0.0,0.0,0.0,0,3,1
1753197494.3185163,14.917542457580566,14.417,2049845,0.0,0.0,0.99,0.0,0.0,0.0,26.2,24.9,-38.0,-0.17,0.03,42.59,0,23.02,1011.48,0.4,0.0,0.0,0.0,0.0,0.0,0.0,0,3,1
1753197494.4119308,15.01095700263977,14.557,2049985,0.0,0.0,0.99,0.0,0.0,0.0,26.3,24.8,-38.7,-0.17,0.03,42.59,0,23.02,1011.48,0.41,0.0,0.0,0.0,0.0,0.0,0.0,0,3,1
1753197494.5152783,15.114304542541504,14.637,2050065,0.0,0.0,0.99,0.0,0.0,0.0,26.3,24.8,-38.7,-0.17,0.03,42.59,0,23.01,1011.48,0.37,0.0,0.0,0.0,0.0,0.0,0.0,0,3,1
1753197495.1688457,15.767871856689453,14.776,2050204,0.0,0.0,0.99,0.0,0.0,0.0,26.3,0.0,42.5,-0.17,0.03,42.59,0,23.01,1011.48,0.34,0.0,0.0,0.0,0.0,0.0,0.0,0,3,1
1753197495.3538315,15.952857732772827,15.782,2051210,0.0,0.0,0.99,0.0,0.0,0.0,26.3,24.7,-38.7,-0.17,0.03,42.59,0,23.0,1011.5,0.23,0.0,0.0,0.0,0.0,0.0,0.0,0,3,1
1753197495.5866842,16.185710430145264,15.867,2051295,0.0,0.0,0.99,0.0,0.0,0.0,26.0,24.6,-38.3,-0.17,0.03,42.59,0,23.01,1011.5,0.25,0.0,0.0,0.0,0.0,0.0,0.0,0,3,1
1753197495.6918736,16.290899753570557,16.011,2051439,0.0,0.0,0.99,0.0,0.0,0.0,26.2,24.9,-38.3,-0.17,0.04,42.6,0,23.01,1011.49,0.27,0.0,0.0,0.0,0.0,0.0,0.0,0,3,1
1753197495.792171,16.391197204589844,16.053,2051481,0.0,0.0,0.99,0.0,0.0,0.0,26.2,24.9,-38.3,-0.17,0.04,42.6,0,23.01,1011.49,0.27,0.0,0.0,0.0,0.0,0.0,0.0,0,3,1
1753197496.291119,16.890145301818848,16.138,2051566,0.0,0.0,0.99,0.0,0.0,0.0,26.1,25.0,-38.1,-0.17,0.03,42.6,0,23.0,1011.49,0.27,0.0,0.0,0.0,0.0,0.0,0.0,0,3,1
1753197496.7862132,17.385239362716675,16.182,2051610,0.0,0.0,0.99,0.0,0.0,0.0,26.1,25.0,-38.1,-0.17,0.03,42.6,0,23.0,1011.49,0.27,0.0,0.0,0.0,0.0,0.0,0.0,0,3,1
1753197496.9531293,17.55215549468994,17.288,2052716,0.0,0.0,0.99,0.0,0.0,0.0,24.8,25.3,-38.4,-0.17,0.03,42.6,0,23.02,1011.48,0.37,0.0,0.0,0.0,0.0,0.0,0.0,0,3,1
1753197497.0480716,17.64709782600403,17.359,2052787,0.0,0.0,0.99,0.0,0.0,0.0,24.5,25.5,-38.7,-0.17,0.03,42.6,0,23.02,1011.48,0.35,0.0,0.0,0.0,0.0,0.0,0.0,0,3,1
1753197497.2699404,17.868966579437256,17.477,2052905,0.0,0.0,0.99,0.0,0.0,0.0,24.3,25.4,-38.5,-0.17,0.03,42.6,0,23.03,1011.48,0.38,0.0,0.0,0.0,0.0,0.0,0.0,0,3,1
1753197497.380889,17.979915142059326,17.558,2052986,0.0,0.0,0.99,0.0,0.0,0.0,24.3,25.4,-38.5,-0.17,0.03,42.6,0,23.02,1011.48,0.34,0.0,0.0,0.0,0.0,0.0,0.0,0,3,1
1753197497.4705389,18.069565057754517,17.674,2053102,0.0,0.0,0.99,0.0,0.0,0.0,24.7,25.7,-38.4,-0.17,0.03,42.6,0,23.03,1011.48,0.37,0.0,0.0,0.0,0.0,0.0,0.0,0,3,1
1753197497.6992137,18.298239946365356,17.702,2053130,0.0,0.0,0.99,0.0,0.0,0.0,24.7,25.7,-38.4,-0.17,0.03,42.6,0,23.03,1011.48,0.37,0.0,0.0,0.0,0.0,0.0,0.0,0,3,1
1753197497.7983112,18.397337436676025,17.786,2053214,0.0,0.0,0.99,0.0,0.0,0.0,24.4,25.5,-38.9,-0.17,0.03,42.6,0,23.02,1011.48,0.37,0.0,0.0,0.0,0.0,0.0,0.0,0,3,1
1753197498.2981238,18.89715003967285,17.912,2053340,0.0,0.0,0.99,0.0,0.0,0.0,24.2,25.5,-38.3,-0.17,0.03,42.6,0,23.02,1011.48,0.35,0.0,0.0,0.0,0.0,0.0,0.0,0,3,1
1753197498.4759047,19.074930906295776,19.036,2054464,-0.07,0.17,1.07,-14.99,0.42,36.59,24.7,25.1,-38.6,-0.1,0.04,41.67,0,23.02,1011.49,0.26,0.0,0.0,0.0,0.0,0.0,0.0,0,3,1
1753197498.562064,19.16109013557434,19.057,2054485,-0.07,0.17,1.07,-14.99,0.42,36.59,24.7,25.1,-38.6,-0.1,0.04,41.67,0,23.02,1011.49,0.26,0.0,0.0,0.0,0.0,0.0,0.0,0,3,1
1753197498.6499085,19.248934745788574,19.145,2054573,-0.06,-0.01,1.07,4.05,13.58,12.64,27.6,24.9,-37.8,0.54,2.47,39.48,0,23.01,1011.5,0.23,0.0,0.0,0.0,0.0,0.0,0.0,0,3,1
1753197498.7433162,19.342342376708984,19.258,2054686,-0.06,-0.03,1.01,16.12,0.88,15.54,28.3,21.0,6.2,-0.67,1.64,37.84,0,23.01,1011.5,0.22,0.0,0.0,0.0,0.0,0.0,0.0,0,3,1
1753197499.373573,19.972599267959595,19.313,2054741,-0.04,0.04,0.92,-5.03,-4.06,6.59,29.0,19.5,-36.8,-1.27,1.31,37.45,0,23.01,1011.5,0.22,0.0,0.0,0.0,0.0,0.0,0.0,0,3,1
1753197499.4709835,20.07000970840454,19.39,2054818,-0.04,0.04,0.92,-5.03,-4.06,6.59,29.0,19.5,-36.8,-1.27,1.31,37.45,0,23.01,1011.5,0.2,0.0,0.0,0.0,0.0,0.0,0.0,0,3,1
1753197499.5601141,20.15914034843445,19.477,2054905,-0.05,0.05,0.99,8.57,-4.64,-0.22,28.1,18.6,-37.1,-1.01,0.2,36.74,0,23.01,1011.5,0.18,0.0,0.0,0.0,0.0,0.0,0.0,0,3,1
1753197499.6546926,20.253718852996826,19.607,2055035,-0.02,0.03,1.0,3.76,0.85,-7.29,28.6,18.5,-37.1,-1.57,0.12,36.54,0,23.02,1011.5,0.24,0.0,0.0,0.0,0.0,0.0,0.0,0,3,1
1753197499.7513025,20.35032868385315,19.648,2055076,-0.02,0.03,1.0,3.76,0.85,-7.29,28.6,18.5,-37.1,-1.57,0.12,36.54,0,23.02,1011.5,0.24,0.0,0.0,0.0,0.0,0.0,0.0,0,3,1
1753197500.1040142,20.70304036140442,19.729,2055157,0.01,0.03,0.99,-0.58,-19.61,11.76,28.3,18.4,-37.3,-1.84,-0.43,36.33,0,23.02,1011.49,0.25,0.0,0.0,0.0,0.0,0.0,0.0,0,3,1
1753197500.4037604,21.00278663635254,20.844,2056272,0.0,0.0,1.09,1.93,-2.94,-5.4,28.6,18.1,-38.5,-1.7,-0.93,33.88,0,23.05,1011.49,0.29,0.0,0.0,0.0,0.0,0.0,0.0,0,3,1
1753197500.4967709,21.095797061920166,20.902,2056330,0.0,0.0,1.09,1.93,-2.94,-5.4,28.6,18.1,-38.5,-1.7,-0.93,33.88,0,23.05,1011.49,0.29,0.0,0.0,0.0,0.0,0.0,0.0,0,3,1
1753197500.589371,21.18839716911316,21.024,2056452,0.08,0.06,0.88,18.76,-25.71,-7.97,25.7,16.0,-39.4,-1.92,0.0,35.16,0,23.06,1011.49,0.29,0.0,0.0,0.0,0.0,0.0,0.0,0,3,1
1753197501.2178237,21.816849946975708,21.101,2056529,0.08,0.06,0.88,18.76,-25.71,-7.97,25.7,16.0,-39.4,-1.92,0.0,35.16,0,23.07,1011.49,0.3,0.0,0.0,0.0,0.0,0.0,0.0,0,3,1
1753197501.3176417,21.916667938232422,21.163,2056591,0.11,0.13,0.98,18.75,-5.57,8.34,25.1,15.4,-39.4,-5.26,-5.51,35.5,0,23.07,1011.49,0.3,0.0,0.0,0.0,0.0,0.0,0.0,0,3,1
1753197501.4157856,22.014811754226685,21.267,2056695,0.19,0.13,0.97,14.96,-46.66,26.61,24.1,13.0,-41.2,-7.51,-8.22,33.84,0,23.09,1011.47,0.42,0.0,0.0,0.0,0.0,0.0,0.0,0,3,1
1753197502.0631895,22.66221570968628,21.39,2056818,0.18,0.13,0.95,3.62,-23.04,23.53,22.0,12.0,-42.2,-7.99,-10.82,32.59,0,23.1,1011.47,0.46,0.0,0.0,0.0,0.0,0.0,0.0,0,3,1
1753197502.355017,22.95404314994812,22.402,2057830,0.63,0.07,0.79,-7.92,2.3,32.62,3.8,5.1,-46.2,-8.32,-36.68,19.95,0,23.09,1011.49,0.26,0.0,0.0,0.0,0.0,0.0,0.0,0,3,1
1753197502.849102,23.44812822341919,22.531,2057959,0.61,-0.03,0.77,-15.22,-10.52,25.6,3.9,8.2,-46.4,0.81,-38.52,11.34,0,23.1,1011.5,0.22,0.0,0.0,0.0,0.0,0.0,0.0,0,3,1
1753197503.8302274,24.429253578186035,23.613,2059041,0.61,-0.25,0.79,-14.23,3.04,-2.7,6.3,17.1,-44.8,18.15,-36.54,-0.78,0,23.13,1011.49,0.29,0.0,0.0,0.0,0.0,0.0,0.0,0,3,1
1753197503.9211752,24.520201444625854,23.682,2059110,0.61,-0.25,0.79,-14.23,3.04,-2.7,6.3,17.1,-44.8,18.15,-36.54,-0.78,0,23.12,1011.49,0.25,0.0,0.0,0.0,0.0,0.0,0.0,0,3,1
1753197504.008722,24.60774827003479,23.745,2059173,0.52,-0.31,0.75,-12.23,-3.01,10.27,7.1,18.6,0.0,20.62,-34.91,-0.58,0,23.12,1011.49,0.25,0.0,0.0,0.0,0.0,0.0,0.0,0,3,1
1753197504.1848013,24.783827543258667,24.882,2060310,0.5,0.04,0.86,10.77,5.77,-8.59,10.2,8.3,-45.4,-3.98,-29.06,21.44,0,23.14,1011.5,0.23,0.0,0.0,0.0,0.0,0.0,0.0,0,3,1
1753197504.2841184,24.88314461708069,24.924,2060352,0.5,0.04,0.86,10.77,5.77,-8.59,10.2,8.3,-45.4,-3.98,-29.06,21.44,0,23.14,1011.5,0.23,0.0,0.0,0.0,0.0,0.0,0.0,0,3,1
1753197504.507408,25.106434106826782,25.015,2060443,0.4,0.05,0.81,14.68,15.87,-17.73,12.4,7.7,-45.3,-5.56,-26.17,22.63,0,23.14,1011.5,0.23,0.0,0.0,0.0,0.0,0.0,0.0,0,3,1
1753197504.6074834,25.206509590148926,25.155,2060583,0.33,0.05,0.95,15.46,56.05,-7.83,17.7,5.5,-45.0,-7.17,-19.52,22.03,0,23.14,1011.5,0.22,0.0,0.0,0.0,0.0,0.0,0.0,0,3,1
1753197505.243605,25.842631101608276,25.188,2060616,0.33,0.05,0.95,15.46,56.05,-7.83,17.7,5.5,-45.0,-7.17,-19.52,22.03,0,23.14,1011.5,0.22,0.0,0.0,0.0,0.0,0.0,0.0,0,3,1
1753197505.3361468,25.93517303466797,25.26,2060688,0.23,0.12,0.91,12.9,33.77,-6.68,22.2,4.3,-43.9,-8.88,-14.03,21.92,0,23.14,1011.5,0.21,0.0,0.0,0.0,0.0,0.0,0.0,0,3,1
1753197505.428616,26.027642250061035,25.436,2060864,0.23,0.05,1.07,-19.67,33.04,10.21,25.4,5.5,-43.0,-6.14,-10.73,19.57,0,23.16,1011.49,0.3,0.0,0.0,0.0,0.0,0.0,0.0,0,3,1
1753197505.528239,26.127265214920044,25.481,2060909,0.74,-0.01,1.0,-21.8,38.88,4.15,26.7,5.9,-42.3,-5.88,-10.4,19.45,0,23.16,1011.49,0.3,0.0,0.0,0.0,0.0,0.0,0.0,0,3,1
1753197505.6239119,26.222938060760498,25.572,2061000,0.12,0.0,0.94,23.43,-29.54,-41.75,26.5,5.7,-41.9,-4.77,-10.02,19.68,0,23.17,1011.49,0.32,0.0,0.0,0.0,0.0,0.0,0.0,0,3,1
1753197506.2634156,26.862441778182983,25.679,2061107,0.15,0.17,0.34,-7.39,-40.68,-6.44,23.3,5.2,-42.0,-6.17,-13.37,22.3,0,23.17,1011.49,0.28,0.0,0.0,0.0,0.0,0.0,0.0,0,3,1
1753197506.8274124,27.426438570022583,26.698,2062126,0.0,-0.23,1.35,47.99,-60.65,-29.53,32.1,10.2,-39.9,-2.53,-2.94,20.52,0,23.22,1011.48,0.4,0.0,0.0,0.0,0.0,0.0,0.0,0,3,1
1753197507.1811938,27.78022003173828,26.772,2062200,0.0,-0.23,1.35,47.99,-60.65,-29.53,32.1,10.2,-39.9,-2.53,-2.94,20.52,0,23.23,1011.47,0.43,0.0,0.0,0.0,0.0,0.0,0.0,0,3,1
1753197507.883338,28.482364177703857,27.919,2063347,0.13,0.09,0.56,-22.27,-30.8,-5.5,26.4,9.6,-40.6,-1.66,-9.41,23.6,0,23.28,1011.46,0.52,0.0,0.0,0.0,0.0,0.0,0.0,0,3,1
1753197507.9741788,28.57320499420166,28.008,2063436,0.06,-0.16,1.42,-20.96,56.51,18.27,29.3,12.3,-40.0,0.21,-4.57,22.64,0,23.29,1011.46,0.51,0.0,0.0,0.0,0.0,0.0,0.0,0,3,1
1753197508.0739613,28.672987461090088,28.088,2063516,0.06,-0.16,1.42,-20.96,56.51,18.27,29.3,12.3,-40.0,0.21,-4.57,22.64,0,23.28,1011.47,0.48,0.0,0.0,0.0,0.0,0.0,0.0,0,3,1
1753197508.1679368,28.766963005065918,28.192,2063620,0.11,0.06,1.18,9.07,-16.5,-10.85,29.0,0.0,0.9,0.4,-4.48,23.18,0,23.28,1011.47,0.5,0.0,0.0,0.0,0.0,0.0,0.0,0,3,1
1753197508.6681216,29.26714777946472,28.264,2063692,0.05,-0.09,0.82,9.25,-46.49,-7.24,28.6,11.8,-39.9,0.4,-6.27,23.33,0,23.28,1011.47,0.49,0.0,0.0,0.0,0.0,0.0,0.0,0,3,1
1753197508.8397317,29.43875789642334,29.434,2064862,0.05,0.07,0.71,-0.38,-11.89,-7.25,27.9,12.8,-39.6,0.68,-6.57,24.57,0,23.28,1011.48,0.34,0.0,0.0,0.0,0.0,0.0,0.0,0,3,1
1753197509.061642,29.66066813468933,29.494,2064922,0.07,0.02,0.82,0.65,22.2,-1.44,27.9,13.2,-39.7,0.58,-6.3,24.59,0,23.28,1011.48,0.35,0.0,0.0,0.0,0.0,0.0,0.0,0,3,1
1753197509.1490195,29.748045682907104,29.614,2065042,0.08,-0.09,1.09,9.06,0.26,-4.32,30.1,13.6,-39.4,0.8,-3.62,24.02,0,23.29,1011.48,0.34,0.0,0.0,0.0,0.0,0.0,0.0,0,3,1
1753197509.249225,29.84825110435486,29.726,2065154,0.06,-0.04,1.0,3.03,4.76,-7.17,29.9,13.4,-39.4,0.3,-4.0,24.6,0,23.29,1011.49,0.32,0.0,0.0,0.0,0.0,0.0,0.0,0,3,1
1753197509.3419986,29.941024780273438,29.813,2065241,0.05,0.03,0.98,-1.36,5.49,-2.19,30.5,13.9,-39.6,-0.26,-3.11,25.23,0,23.29,1011.49,0.31,0.0,0.0,0.0,0.0,0.0,0.0,0,3,1
1753197509.4244215,30.0234477519989,29.859,2065287,0.05,0.03,0.98,-1.36,5.49,-2.19,30.5,13.9,-39.6,-0.26,-3.11,25.23,0,23.29,1011.49,0.31,0.0,0.0,0.0,0.0,0.0,0.0,0,3,1
1753197509.5178049,30.116831064224243,29.987,2065415,-0.21,0.04,0.01,25.18,1.38,-0.7,1.0,31.5,14.4,-0.17,-2.61,25.54,0,23.3,1011.48,0.35,0.0,0.0,0.0,0.0,0.0,0.0,0,3,1
1753197509.8777707,30.476796865463257,30.021,2065449,-0.21,0.04,0.01,25.18,1.38,-0.7,1.0,31.5,14.4,-0.17,-2.61,25.54,0,23.3,1011.48,0.35,0.0,0.0,0.0,0.0,0.0,0.0,0,3,1
1753197510.5076232,31.10664939880371,30.154,2065582,0.05,-0.01,1.03,3.82,-0.33,-3.13,31.4,14.0,-39.8,-0.43,-2.55,25.2,0,23.32,1011.48,0.41,0.0,0.0,0.0,0.0,0.0,0.0,0,3,1
1753197510.674354,31.273380279541016,31.198,2066626,0.09,0.08,0.92,-6.67,-16.68,3.04,28.5,13.9,-39.1,-0.64,-5.14,27.11,0,23.36,1011.47,0.47,0.0,0.0,0.0,0.0,0.0,0.0,0,3,1
1753197510.766736,31.36576223373413,31.28,2066708,0.06,0.11,0.42,22.56,-17.06,-34.41,25.3,12.1,-40.4,-2.76,-8.6,28.42,0,23.36,1011.47,0.46,0.0,0.0,0.0,0.0,0.0,0.0,0,3,1
1753197510.8619146,31.460940837860107,31.37,2066798,0.0,-0.22,1.37,14.01,-41.66,-12.83,31.7,15.9,-38.2,2.38,-2.26,25.2,0,23.37,1011.47,0.48,0.0,0.0,0.0,0.0,0.0,0.0,0,3,1
1753197510.9461753,31.545201539993286,31.445,2066873,0.0,-0.22,1.37,14.01,-41.66,-12.83,31.7,15.9,-38.2,2.38,-2.26,25.2,0,23.37,1011.46,0.51,0.0,0.0,0.0,0.0,0.0,0.0,0,3,1
1753197511.038253,31.637279272079468,31.499,2066927,0.0,-0.22,1.37,14.01,-41.66,-12.83,31.7,15.9,-38.2,2.38,-2.26,25.2,0,23.37,1011.46,0.51,0.0,0.0,0.0,0.0,0.0,0.0,0,3,1
1753197511.6677742,32.26680040359497,31.619,2067047,0.04,0.09,0.57,-16.6,-8.66,-5.04,25.9,14.3,-39.7,0.64,-8.27,27.27,0,23.38,1011.46,0.52,0.0,0.0,0.0,0.0,0.0,0.0,0,3,1
1753197511.7635005,32.362526655197144,31.708,2067136,0.05,0.1,0.72,-10.63,23.21,-12.34,26.1,15.0,-40.5,0.94,-8.12,27.53,0,23.37,1011.47,0.47,0.0,0.0,0.0,0.0,0.0,0.0,0,3,1
1753197511.8537984,32.45282459259033,31.823,2067251,0.09,-0.26,1.58,-1.24,37.32,-9.22,31.0,17.1,-37.3,3.68,-1.42,26.42,0,23.36,1011.48,0.4,0.0,0.0,0.0,0.0,0.0,0.0,0,3,1
1753197511.9498959,32.548922061920166,31.872,2067300,0.09,-8.14,28.86,6.02,5.69,-13.02,-26.9,-2.7,6.2,3.71,-1.25,26.55,0,23.36,1011.48,0.4,0.0,0.0,0.0,0.0,0.0,0.0,0,3,1
1753197512.0417047,32.64073085784912,31.927,2067355,0.0,-0.01,1.43,-43.29,54.15,35.61,28.9,16.3,-39.4,2.04,-4.32,27.23,0,23.35,1011.48,0.41,0.0,0.0,0.0,0.0,0.0,0.0,0,3,1
1753197512.3973186,32.996344804763794,32.045,2067473,0.03,-0.17,1.2,42.75,-63.75,-27.86,30.9,16.3,-38.2,2.33,-3.96,26.46,0,23.35,1011.48,0.41,0.0,0.0,0.0,0.0,0.0,0.0,0,3,1
1753197513.1031704,33.70219659805298,33.164,2068592,0.17,0.11,1.35,-36.45,49.38,31.19,25.2,15.4,-39.6,0.2,-7.97,28.38,0,23.35,1011.48,0.34,0.0,0.0,0.0,0.0,0.0,0.0,0,3,1
1753197513.194889,33.79391527175903,33.21,2068638,0.17,0.11,1.35,-36.45,49.38,31.19,25.2,15.4,-39.6,0.2,-7.97,28.38,0,23.35,1011.48,0.34,0.0,0.0,0.0,0.0,0.0,0.0,0,3,1
1753197513.2888446,33.88787078857422,33.279,2068707,0.17,0.11,1.35,-36.45,49.38,31.19,25.2,15.4,-39.6,0.2,-7.97,28.38,0,23.34,1011.49,0.27,0.0,0.0,0.0,0.0,0.0,0.0,0,3,1
1753197513.3888395,33.987865686416626,33.399,2068827,0.13,0.04,0.5,12.19,-21.96,-20.43,23.1,12.6,-40.5,-0.58,-12.41,27.91,0,23.34,1011.49,0.27,0.0,0.0,0.0,0.0,0.0,0.0,0,3,1
1753197513.4862664,34.08529257774353,33.456,2068884,0.13,0.04,0.5,12.19,-21.96,-20.43,23.1,12.6,-40.5,-0.58,-12.41,27.91,0,23.34,1011.49,0.27,0.0,0.0,0.0,0.0,0.0,0.0,0,3,1
1753197513.5660527,34.16507887840271,33.534,2068962,0.13,-0.07,1.51,-8.89,45.21,21.96,27.0,15.1,-39.7,0.69,-6.72,27.07,0,23.34,1011.49,0.26,0.0,0.0,0.0,0.0,0.0,0.0,0,3,1
1753197513.6538846,34.25291085243225,33.625,2069053,0.11,-0.02,0.82,30.0,-45.54,-20.79,25.6,13.2,-39.9,-1.67,-9.49,27.73,0,23.35,1011.5,0.24,0.0,0.0,0.0,0.0,0.0,0.0,0,3,1
1753197513.7420013,34.34102749824524,33.701,2069129,0.11,-0.02,0.82,30.0,-45.54,-20.79,25.6,13.2,-39.9,-1.67,-9.49,27.73,0,23.35,1011.49,0.27,0.0,0.0,0.0,0.0,0.0,0.0,0,3,1
1753197514.3738625,34.972888708114624,33.868,2069296,0.11,0.1,0.77,-4.42,39.16,5.12,23.8,12.4,-40.4,-2.73,-10.08,28.47,0,23.37,1011.48,0.37,0.0,0.0,0.0,0.0,0.0,0.0,0,3,1
1753197514.5429468,35.14197301864624,34.901,2070329,0.1,0.09,0.51,23.71,-2.3,-17.29,23.7,12.7,-39.8,-2.4,-10.29,28.96,0,23.38,1011.47,0.43,0.0,0.0,0.0,0.0,0.0,0.0,0,3,1
1753197514.6427255,35.2417516708374,34.988,2070416,0.27,0.13,0.74,11.56,40.82,-11.04,23.9,12.5,-40.3,-3.07,-9.68,29.39,0,23.38,1011.48,0.37,0.0,0.0,0.0,0.0,0.0,0.0,0,3,1
1753197514.737729,35.33675527572632,35.085,2070513,0.18,0.09,30.95,2.66,53.95,-4.13,12.2,0.1,0.0,-3.13,-9.2,29.43,0,23.38,1011.48,0.39,0.0,0.0,0.0,0.0,0.0,0.0,0,3,1
1753197514.8306944,35.429720640182495,35.176,2070604,0.06,0.0,1.08,21.63,-33.4,-10.7,2.2,-6.8,-27.0,-0.48,-5.18,27.83,0,23.38,1011.48,0.4,0.0,0.0,0.0,0.0,0.0,0.0,0,3,1
1753197514.9128156,35.511841773986816,35.286,2070714,0.07,0.0,0.54,12.74,-27.1,-17.37,26.4,14.3,-38.9,0.63,-8.01,27.53,0,23.39,1011.48,0.41,0.0,0.0,0.0,0.0,0.0,0.0,0,3,1
1753197515.1436322,35.742658376693726,35.347,2070775,0.07,0.0,0.54,12.74,-27.1,-17.37,26.4,14.3,-38.9,0.63,-8.01,27.53,0,23.39,1011.48,0.41,0.0,0.0,0.0,0.0,0.0,0.0,0,3,1
1753197515.244971,35.84399724006653,35.434,2070862,0.1,0.15,0.86,-2.71,36.2,-1.96,25.0,15.0,-40.2,-0.67,-8.0,28.83,0,23.39,1011.48,0.39,0.0,0.0,0.0,0.0,0.0,0.0,0,3,1
1753197515.3304956,35.929521799087524,35.509,2070937,0.1,0.15,0.86,-2.71,36.2,-1.96,25.0,15.0,-40.2,-0.67,-8.0,28.83,0,23.38,1011.48,0.37,0.0,0.0,0.0,0.0,0.0,0.0,0,3,1
1753197515.5610964,36.16012263298035,35.625,2071053,0.13,-0.19,1.5,-19.12,28.94,24.28,69.0,-9.6,0.0,2.73,-3.88,26.38,0,23.38,1011.48,0.37,0.0,0.0,0.0,0.0,0.0,0.0,0,3,1
1753197515.6547062,36.253732442855835,35.64,2071068,0.13,-0.19,1.5,-19.12,28.94,24.28,69.0,-9.6,0.0,2.73,-3.88,26.38,0,23.38,1011.48,0.37,0.0,0.0,0.0,0.0,0.0,0.0,0,3,1
1753197515.749207,36.348233222961426,35.723,2071151,0.13,-0.19,1.5,-19.12,28.94,24.28,69.0,-9.6,0.0,2.73,-3.88,26.38,0,23.38,1011.48,0.37,0.0,0.0,0.0,0.0,0.0,0.0,0,3,1
1753197516.2520947,36.851120948791504,35.823,2071251,0.08,-0.04,0.6,-2.88,-26.33,-12.71,26.4,13.8,-39.2,0.93,-7.91,26.9,0,23.38,1011.48,0.4,0.0,0.0,0.0,0.0,0.0,0.0,0,3,1
1753197516.6863587,37.28538489341736,36.939,2072367,0.03,0.0,0.92,5.27,0.4,9.72,29.2,15.1,-39.9,0.92,-3.96,25.47,0,23.4,1011.48,0.39,0.0,0.0,0.0,0.0,0.0,0.0,0,3,1
1753197517.1859102,37.78493642807007,36.99,2072418,0.03,0.0,0.92,5.27,0.4,9.72,29.2,15.1,-39.9,0.92,-3.96,25.47,0,23.4,1011.48,0.39,0.0,0.0,0.0,0.0,0.0,0.0,0,3,1
1753197517.2758603,37.87488651275635,37.077,2072505,0.05,-0.03,1.02,1.67,7.37,9.93,30.4,14.4,-40.1,0.52,-3.11,24.23,0,23.39,1011.48,0.34,0.0,0.0,0.0,0.0,0.0,0.0,0,3,1
1753197517.63792,38.23694610595703,37.195,2072623,0.09,0.02,1.02,-0.52,5.47,14.57,30.9,14.5,-39.6,0.49,-2.97,23.98,0,23.4,1011.48,0.35,0.0,0.0,0.0,0.0,0.0,0.0,0,3,1
1753197518.339264,38.93829011917114,38.267,2073695,0.0,0.0,0.99,0.0,0.0,0.0,33.3,14.5,-40.4,0.16,0.18,24.21,0,23.42,1011.47,0.46,0.0,0.0,0.0,0.0,0.0,0.0,0,3,1
1753197518.7096448,39.30867099761963,38.35,2073778,0.0,0.0,0.99,0.0,0.0,0.0,33.2,14.7,-40.2,0.13,0.17,24.21,0,23.42,1011.47,0.47,0.0,0.0,0.0,0.0,0.0,0.0,0,3,1
1753197518.8734498,39.4724760055542,39.479,2074907,0.0,0.0,0.99,0.0,0.0,0.0,33.7,14.2,-40.3,-0.01,0.1,24.21,0,23.4,1011.47,0.46,0.0,0.0,0.0,0.0,0.0,0.0,0,3,1
1753197518.9499965,39.54902267456055,39.518,2074946,0.0,0.0,0.99,0.0,0.0,0.0,33.7,14.2,-40.3,-0.01,0.1,24.21,0,23.4,1011.47,0.46,0.0,0.0,0.0,0.0,0.0,0.0,0,3,1
1753197519.3162756,39.91530179977417,39.668,2075096,0.0,0.0,0.0,0.0,0.0,0.0,0.0,0.9,34.3,-0.02,0.1,24.21,0,23.38,1011.48,0.4,0.0,0.0,0.0,0.0,0.0,0.0,0,3,1
1753197519.952799,40.551825284957886,39.698,2075126,0.0,0.0,0.0,0.0,0.0,0.0,0.0,0.9,34.3,-0.02,0.1,24.21,0,23.38,1011.48,0.4,0.0,0.0,0.0,0.0,0.0,0.0,0,3,1
1753197520.2760751,40.87510132789612,40.785,2076213,0.0,0.0,0.99,0.0,0.0,0.0,34.3,13.9,-40.3,-0.06,0.08,24.21,0,23.36,1011.48,0.38,0.0,0.0,0.0,0.0,0.0,0.0,0,3,1
1753197520.3794541,40.97848033905029,40.869,2076297,0.0,0.01,0.99,0.0,0.0,0.0,34.4,13.8,-40.5,-0.08,0.08,24.21,0,23.37,1011.47,0.43,0.0,0.0,0.0,0.0,0.0,0.0,0,3,1
1753197520.4692352,41.06826138496399,40.946,2076374,0.0,0.01,0.99,0.0,0.0,0.0,34.4,13.8,-40.5,-0.08,0.08,24.21,0,23.37,1011.47,0.46,0.0,0.0,0.0,0.0,0.0,0.0,0,3,1
1753197520.700506,41.29953217506409,41.089,2076517,0.0,0.0,0.99,0.0,0.0,0.0,34.1,14.0,-40.4,-0.06,0.08,24.21,0,23.38,1011.46,0.58,0.0,0.0,0.0,0.0,0.0,0.0,0,3,1
1753197520.7990103,41.39803647994995,41.173,2076601,0.0,0.01,0.99,0.0,0.0,0.0,34.4,13.6,-40.1,-0.09,0.08,24.21,0,23.39,1011.45,0.61,0.0,0.0,0.0,0.0,0.0,0.0,0,3,1
1753197521.0385356,41.6375617980957,41.217,2076645,0.0,0.01,0.99,0.0,0.0,0.0,34.4,13.6,-40.1,-0.09,0.08,24.21,0,23.39,1011.45,0.61,0.0,0.0,0.0,0.0,0.0,0.0,0,3,1
1753197521.1436906,41.742716789245605,41.314,2076742,0.0,0.01,0.99,0.0,0.0,0.0,34.4,13.9,-40.1,-0.06,0.08,24.21,0,23.4,1011.45,0.63,0.0,0.0,0.0,0.0,0.0,0.0,0,3,1
1753197521.2305684,41.82959461212158,41.372,2076800,0.0,0.01,0.99,0.0,0.0,0.0,34.4,13.9,-40.1,-0.06,0.08,24.21,0,23.4,1011.45,0.62,0.0,0.0,0.0,0.0,0.0,0.0,0,3,1
1753197521.4597313,42.05875754356384,41.456,2076884,0.0,0.0,0.99,0.0,0.0,0.0,34.6,13.8,-40.5,-0.08,0.08,24.21,0,23.39,1011.46,0.57,0.0,0.0,0.0,0.0,0.0,0.0,0,3,1
1753197521.977646,42.576672315597534,41.594,2077022,0.0,0.0,0.99,0.0,0.0,0.0,34.4,13.6,2619.3,-0.06,0.08,24.21,0,23.39,1011.46,0.57,0.0,0.0,0.0,0.0,0.0,0.0,0,3,1
1753197522.1470134,42.746039628982544,42.71,2078138,0.0,0.0,0.99,0.0,0.0,0.0,34.5,14.3,-40.4,-0.09,0.07,24.21,0,23.37,1011.46,0.51,0.0,0.0,0.0,0.0,0.0,0.0,0,3,1
1753197522.2474992,42.84652543067932,42.768,2078196,0.0,0.0,0.99,0.0,0.0,0.0,34.5,14.3,-40.4,-0.09,0.07,24.21,0,23.37,1011.46,0.51,0.0,0.0,0.0,0.0,0.0,0.0,0,3,1
1753197522.8798907,43.47891688346863,42.883,2078311,0.0,0.0,0.99,0.0,0.0,0.0,34.2,14.2,-40.4,-0.08,0.07,24.21,0,23.37,1011.46,0.54,0.0,0.0,0.0,0.0,0.0,0.0,0,3,1
1753197522.9882407,43.58726692199707,42.934,2078362,0.0,0.0,0.99,0.0,0.0,0.0,34.2,14.2,-40.4,-0.08,0.07,24.21,0,23.37,1011.46,0.54,0.0,0.0,0.0,0.0,0.0,0.0,0,3,1
1753197523.0831556,43.68218183517456,43.052,2078480,0.0,0.0,0.99,0.0,0.0,0.0,33.9,13.6,-40.5,-0.09,0.07,24.21,0,23.37,1011.46,0.57,0.0,0.0,0.0,0.0,0.0,0.0,0,3,1
1753197523.1682174,43.76724362373352,43.099,2078527,0.0,0.0,0.99,0.0,0.0,0.0,33.9,13.6,-40.5,-0.09,0.07,24.21,0,23.37,1011.46,0.57,0.0,0.0,0.0,0.0,0.0,0.0,0,3,1
1753197523.257213,43.856239318847656,43.182,2078610,0.0,0.0,0.99,0.0,0.0,0.0,34.1,13.9,-40.4,-0.09,0.07,24.21,0,23.37,1011.46,0.55,0.0,0.0,0.0,0.0,0.0,0.0,0,3,1
1753197523.6158388,44.21486496925354,43.251,2078679,0.0,0.0,0.99,0.0,0.0,0.0,34.1,13.9,-40.4,-0.09,0.07,24.21,0,23.37,1011.46,0.55,0.0,0.0,0.0,0.0,0.0,0.0,0,3,1
1753197524.0480652,44.64709138870239,44.328,2079756,0.0,0.0,0.99,0.0,0.0,0.0,34.2,14.1,-40.4,-0.09,0.08,24.21,0,23.34,1011.47,0.44,0.0,0.0,0.0,0.0,0.0,0.0,0,3,1
1753197524.1486802,44.74770641326904,44.451,2079879,0.0,0.0,0.99,0.0,0.0,0.0,34.3,13.9,-40.6,-0.08,0.08,24.21,0,23.35,1011.47,0.49,0.0,0.0,0.0,0.0,0.0,0.0,0,3,1
1753197524.2523355,44.8513617515564,44.514,2079942,0.0,0.0,0.99,0.0,0.0,0.0,34.3,13.9,-40.6,-0.08,0.08,24.21,0,23.35,1011.47,0.49,0.0,0.0,0.0,0.0,0.0,0.0,0,3,1
1753197524.624614,45.22364020347595,44.599,2080027,0.0,0.0,0.99,0.0,0.0,0.0,34.1,13.6,-40.3,-0.08,0.08,24.21,0,23.34,1011.47,0.47,0.0,0.0,0.0,0.0,0.0,0.0,0,3,1
1753197524.9777806,45.57680678367615,44.685,2080113,0.0,0.0,0.99,0.0,0.0,0.0,34.3,14.0,-40.3,-0.09,0.08,24.21,0,23.33,1011.47,0.44,0.0,0.0,0.0,0.0,0.0,0.0,0,3,1
1753197525.1616392,45.76066541671753,45.766,2081194,0.0,0.0,0.99,0.0,0.0,0.0,34.1,14.0,-40.9,-0.08,0.07,24.21,0,23.33,1011.47,0.42,0.0,0.0,0.0,0.0,0.0,0.0,0,3,1
1753197525.2691414,45.86816763877869,45.877,2081305,0.0,0.0,0.99,0.0,0.0,0.0,34.3,13.9,-40.4,-0.08,0.07,24.21,0,23.32,1011.47,0.42,0.0,0.0,0.0,0.0,0.0,0.0,0,3,1
1753197525.3606012,45.95962738990784,45.914,2081342,0.0,0.0,0.98,0.0,0.0,0.0,34.2,13.9,-41.0,-0.08,0.07,24.21,0,23.32,1011.47,0.42,0.0,0.0,0.0,0.0,0.0,0.0,0,3,1
1753197525.441372,46.04039812088013,46.001,2081429,0.0,0.0,0.99,0.0,0.0,0.0,34.2,13.9,-40.6,-0.09,0.07,24.21,0,23.32,1011.48,0.37,0.0,0.0,0.0,0.0,0.0,0.0,0,3,1
1753197526.0821133,46.68113946914673,46.089,2081517,0.0,0.0,0.99,0.0,0.0,0.0,34.2,14.1,-40.4,-0.09,0.08,24.21,0,23.31,1011.48,0.39,0.0,0.0,0.0,0.0,0.0,0.0,0,3,1
1753197526.1846166,46.78364276885986,46.217,2081645,0.0,0.0,0.98,0.0,0.0,0.0,34.1,14.1,-40.5,-0.08,0.07,24.21,0,23.31,1011.48,0.4,0.0,0.0,0.0,0.0,0.0,0.0,0,3,1
1753197526.2771986,46.876224756240845,46.302,2081730,0.0,0.0,0.99,0.0,0.0,0.0,34.5,14.3,-40.9,-0.08,0.07,24.21,0,23.3,1011.48,0.41,0.0,0.0,0.0,0.0,0.0,0.0,0,3,1
1753197526.509974,47.10900020599365,46.344,2081772,0.0,0.0,0.99,0.0,0.0,0.0,34.5,14.3,-40.9,-0.08,0.07,24.21,0,23.3,1011.48,0.41,0.0,0.0,0.0,0.0,0.0,0.0,0,3,1
1753197526.613104,47.212130308151245,46.47,2081898,0.0,0.0,0.99,0.0,0.0,0.0,34.3,14.2,-40.2,-0.09,0.07,24.21,0,23.31,1011.47,0.45,0.0,0.0,0.0,0.0,0.0,0.0,0,3,1
1753197526.842053,47.44107913970947,46.525,2081953,0.0,0.0,0.99,0.0,0.0,0.0,34.3,14.2,-40.2,-0.09,0.07,24.21,0,23.31,1011.47,0.45,0.0,0.0,0.0,0.0,0.0,0.0,0,3,1
1753197527.0303302,47.629356384277344,47.673,2083101,0.0,0.0,0.99,0.0,0.0,0.0,34.2,14.7,-40.6,-0.08,0.07,24.22,0,23.3,1011.47,0.48,0.0,0.0,0.0,0.0,0.0,0.0,0,3,1
1753197527.6709747,48.27000093460083,47.71,2083138,0.0,0.0,0.99,0.0,0.0,0.0,34.2,14.7,-40.6,-0.08,0.07,24.22,0,23.3,1011.47,0.48,0.0,0.0,0.0,0.0,0.0,0.0,0,3,1
1753197527.776974,48.37600016593933,47.796,2083224,0.0,0.0,0.99,0.0,0.0,0.0,34.0,14.9,-40.9,-0.09,0.07,24.22,0,23.29,1011.48,0.41,0.0,0.0,0.0,0.0,0.0,0.0,0,3,1
1753197527.8740063,48.47303247451782,47.903,2083331,0.0,0.0,0.99,0.0,0.0,0.0,34.6,14.5,-40.7,-0.08,0.07,24.22,0,23.28,1011.48,0.36,0.0,0.0,0.0,0.0,0.0,0.0,0,3,1
1753197527.9629166,48.56194281578064,48.026,2083454,0.0,0.0,0.99,0.0,0.0,0.0,34.8,14.7,-40.8,-0.08,0.07,24.22,0,23.28,1011.49,0.33,0.0,0.0,0.0,0.0,0.0,0.0,0,3,1
1753197528.0490735,48.64809966087341,48.154,2083582,0.0,0.0,0.99,0.0,0.0,0.0,34.4,14.7,-40.2,-0.08,0.08,24.22,0,23.27,1011.49,0.32,0.0,0.0,0.0,0.0,0.0,0.0,0,3,1
1753197528.4101963,49.00922250747681,48.229,2083657,0.0,0.0,0.99,0.0,0.0,0.0,34.4,14.7,-40.2,-0.08,0.08,24.22,0,23.27,1011.49,0.32,0.0,0.0,0.0,0.0,0.0,0.0,0,3,1
1753197528.9006355,49.499661684036255,48.294,2083722,0.0,0.0,0.99,0.0,0.0,0.0,34.7,14.6,-40.7,-0.09,0.08,24.22,0,23.27,1011.49,0.32,0.0,0.0,0.0,0.0,0.0,0.0,0,3,1
1753197529.4766605,50.07568669319153,49.429,2084857,0.0,0.0,0.99,0.0,0.0,0.0,34.6,14.7,-41.2,-0.09,0.07,24.22,0,23.29,1011.47,0.47,0.0,0.0,0.0,0.0,0.0,0.0,0,3,1
1753197529.5618935,50.16091966629028,49.501,2084929,0.0,0.0,0.99,0.0,0.0,0.0,34.6,14.7,-41.2,-0.09,0.07,24.22,0,23.29,1011.47,0.48,0.0,0.0,0.0,0.0,0.0,0.0,0,3,1
1753197530.194842,50.79386830329895,49.574,2085002,0.0,0.0,0.99,0.0,0.0,0.0,34.5,14.5,-40.3,-0.08,0.07,24.22,0,23.3,1011.46,0.5,0.0,0.0,0.0,0.0,0.0,0.0,0,3,1
1753197530.373845,50.97287130355835,50.67,2086098,0.0,0.0,0.99,0.0,0.0,0.0,34.6,14.8,-40.9,-0.09,0.07,24.22,0,23.28,1011.46,0.51,0.0,0.0,0.0,0.0,0.0,0.0,0,3,1
1753197530.4765413,51.07556748390198,50.703,2086131,0.0,0.0,0.99,0.0,0.0,0.0,34.6,14.8,-40.9,-0.09,0.07,24.22,0,23.28,1011.46,0.51,0.0,0.0,0.0,0.0,0.0,0.0,0,3,1
1753197530.848443,51.44746923446655,50.813,2086241,0.0,0.0,0.99,0.0,0.0,0.0,34.2,14.4,-40.4,-0.09,0.07,24.22,0,23.27,1011.47,0.5,0.0,0.0,0.0,0.0,0.0,0.0,0,3,1
1753197531.4832675,52.08229374885559,50.905,2086333,0.0,0.0,0.99,0.0,0.0,0.0,34.4,14.6,-40.3,-0.09,0.07,24.22,0,23.27,1011.46,0.5,0.0,0.0,0.0,0.0,0.0,0.0,0,3,1
1753197532.0832105,52.682236671447754,51.992,2087420,0.0,0.0,0.99,0.0,0.0,0.0,34.5,14.7,-40.5,-0.09,0.07,24.22,0,23.25,1011.47,0.43,0.0,0.0,0.0,0.0,0.0,0.0,0,3,1
1753197532.169386,52.7684121131897,52.119,2087547,0.0,0.0,0.99,0.0,0.0,0.0,34.4,14.6,-40.6,-0.09,0.07,24.22,0,23.25,1011.48,0.41,0.0,0.0,0.0,0.0,0.0,0.0,0,3,1
1753197532.266816,52.86584210395813,52.18,2087608,0.0,0.0,0.98,0.0,0.0,0.0,34.6,14.5,-40.5,-0.09,0.07,24.22,0,23.25,1011.48,0.41,0.0,0.0,0.0,0.0,0.0,0.0,0,3,1
1753197532.7660055,53.365031719207764,52.304,2087732,0.0,0.0,0.99,0.0,0.0,0.0,34.5,14.4,-40.2,-0.09,0.07,24.22,0,23.26,1011.47,0.47,0.0,0.0,0.0,0.0,0.0,0.0,0,3,1
1753197533.069199,53.66822528839111,53.335,2088763,0.0,0.0,0.99,0.0,0.0,0.0,34.1,14.5,-41.0,-0.09,0.07,24.22,0,23.25,1011.46,0.5,0.0,0.0,0.0,0.0,0.0,0.0,0,3,1
1753197533.1732788,53.77230501174927,53.421,2088849,0.0,0.0,0.99,0.0,0.0,0.0,34.4,14.4,-40.3,-0.09,0.07,24.22,0,23.25,1011.47,0.48,0.0,0.0,0.0,0.0,0.0,0.0,0,3,1
1753197533.4084935,54.00751972198486,53.528,2088956,24.22,0.0,0.0,0.0,0.0,0.07,0.0,0.0,0.0,-0.09,0.07,24.22,0,23.24,1011.48,0.41,0.0,0.0,0.0,0.0,0.0,0.0,0,3,1
1753197533.516995,54.116021156311035,53.585,2089013,0.0,0.0,0.99,0.0,0.0,0.0,34.5,0.0,0.0,-0.09,0.07,24.22,0,23.24,1011.48,0.41,0.0,0.0,0.0,0.0,0.0,0.0,0,3,1
1753197534.1577852,54.75681138038635,53.694,2089122,0.0,0.0,0.99,0.0,0.0,0.0,34.3,14.5,-40.4,-0.09,0.07,24.22,0,23.24,1011.47,0.44,0.0,0.0,0.0,0.0,0.0,0.0,0,3,1
1753197535.1505728,55.74959897994995,54.776,2090204,0.0,0.0,0.99,0.0,0.0,0.0,34.3,14.4,-40.2,-0.08,0.07,24.2,0,23.24,1011.47,0.47,0.0,0.0,0.0,0.0,0.0,0.0,0,3,1
1753197535.9919243,56.59095048904419,55.875,2091303,0.0,0.0,0.99,0.0,0.0,0.0,34.4,14.7,-40.4,-0.08,0.07,24.22,0,23.22,1011.47,0.42,0.0,0.0,0.0,0.0,0.0,0.0,0,3,1
1753197536.0786083,56.677634477615356,55.989,2091417,0.0,0.0,0.99,0.0,0.0,0.0,34.4,14.6,-40.4,-0.08,0.07,24.22,0,23.22,1011.48,0.39,0.0,0.0,0.0,0.0,0.0,0.0,0,3,1
1753197536.1671808,56.76620697975159,56.068,2091496,0.0,0.0,0.99,0.0,0.0,0.0,34.4,14.6,-40.4,-0.08,0.07,24.22,0,23.22,1011.48,0.41,0.0,0.0,0.0,0.0,0.0,0.0,0,3,1
1753197536.2579908,56.857017040252686,56.112,2091540,0.0,0.0,0.99,0.0,0.0,0.0,34.3,14.8,-40.4,-0.08,0.08,24.22,0,23.22,1011.48,0.41,0.0,0.0,0.0,0.0,0.0,0.0,0,3,1
1753197536.367141,56.96616721153259,56.183,2091611,0.0,0.0,0.99,0.0,0.0,0.0,34.3,14.8,-40.4,-0.08,0.08,24.22,0,23.22,1011.47,0.43,0.0,0.0,0.0,0.0,0.0,0.0,0,3,1
1753197536.4718344,57.070860624313354,56.272,2091700,0.0,0.0,0.99,0.0,0.0,0.0,34.3,14.5,-40.5,-0.08,0.08,24.22,0,23.22,1011.47,0.45,0.0,0.0,0.0,0.0,0.0,0.0,0,3,1
1753197536.6970763,57.29610252380371,56.402,2091830,0.0,0.0,0.98,0.0,0.0,0.0,34.8,14.6,-40.5,-0.08,0.08,24.22,0,23.22,1011.47,0.44,0.0,0.0,0.0,0.0,0.0,0.0,0,3,1
1753197536.880063,57.47908926010132,57.508,2092936,0.0,0.0,0.99,0.0,0.0,0.0,34.6,14.8,-40.2,-0.08,0.08,24.22,0,23.22,1011.46,0.51,0.0,0.0,0.0,0.0,0.0,0.0,0,3,1
1753197536.976244,57.57527017593384,57.548,2092976,0.0,0.0,0.99,0.0,0.0,0.0,34.6,14.8,-40.2,-0.08,0.08,24.22,0,23.22,1011.46,0.51,0.0,0.0,0.0,0.0,0.0,0.0,0,3,1
1753197537.332017,57.93104314804077,57.656,2093084,0.0,0.0,0.99,0.0,0.0,0.0,34.6,14.7,-40.4,-0.08,0.08,24.22,0,23.22,1011.47,0.44,0.0,0.0,0.0,0.0,0.0,0.0,0,3,1
1753197537.7040186,58.30304479598999,57.772,2093200,0.0,0.0,0.99,0.0,0.0,0.0,34.5,14.5,-40.3,-0.08,0.08,24.22,0,23.22,1011.47,0.42,0.0,0.0,0.0,0.0,0.0,0.0,0,3,1
1753197537.802054,58.40108013153076,57.8,2093228,0.0,0.0,0.99,0.0,0.0,0.0,34.5,14.5,-40.3,-0.08,0.08,24.22,0,23.22,1011.47,0.42,0.0,0.0,0.0,0.0,0.0,0.0,0,3,1
1753197537.897393,58.496419191360474,57.876,2093304,0.0,0.0,0.99,0.0,0.0,0.0,34.8,14.6,-40.5,-0.08,0.08,24.22,0,23.23,1011.47,0.48,0.0,0.0,0.0,0.0,0.0,0.0,0,3,1
1753197538.3942196,58.99324584007263,57.955,2093383,0.0,0.0,0.99,0.0,0.0,0.0,34.8,14.6,-40.5,-0.08,0.08,24.22,0,23.22,1011.47,0.49,0.0,0.0,0.0,0.0,0.0,0.0,0,3,1
1753197539.3851764,59.98420262336731,59.1,2094528,0.0,0.0,0.99,0.0,0.0,0.0,34.6,14.6,-40.0,-0.08,0.07,24.23,0,23.21,1011.47,0.45,0.0,0.0,0.0,0.0,0.0,0.0,0,3,1
1753197539.9540946,60.553120851516724,60.162,2095590,-0.01,0.0,0.99,0.0,0.0,0.0,34.7,15.1,-40.3,-0.08,0.07,24.23,0,23.2,1011.48,0.37,0.0,0.0,0.0,0.0,0.0,0.0,0,3,1
1753197540.0587249,60.65775108337402,60.228,2095656,-0.01,0.0,0.99,0.0,0.0,0.0,34.7,15.1,-40.3,-0.08,0.07,24.23,0,23.21,1011.48,0.39,0.0,0.0,0.0,0.0,0.0,0.0,0,3,1
1753197540.1604042,60.75943040847778,60.371,2095799,0.0,0.0,0.99,0.0,0.0,0.0,34.8,14.7,-40.3,-0.08,0.07,24.23,0,23.21,1011.48,0.39,0.0,0.0,0.0,0.0,0.0,0.0,0,3,1
1753197540.2538426,60.8528687953949,60.427,2095855,0.0,0.0,0.99,0.0,0.0,0.0,34.8,14.7,-40.3,-0.08,0.07,24.23,0,23.21,1011.48,0.39,0.0,0.0,0.0,0.0,0.0,0.0,0,3,1
1753197540.8874183,61.4864444732666,60.552,2095980,0.0,0.0,0.99,0.0,0.0,0.0,34.8,14.8,-41.0,-0.08,0.07,24.23,0,23.2,1011.48,0.34,0.0,0.0,0.0,0.0,0.0,0.0,0,3,1
1753197541.0855007,61.6845269203186,61.57,2096998,0.0,0.0,0.99,0.0,0.0,0.0,34.8,14.8,-40.4,-0.08,0.08,24.23,0,23.22,1011.46,0.51,0.0,0.0,0.0,0.0,0.0,0.0,0,3,1
1753197541.176071,61.775097131729126,61.677,2097105,0.0,0.0,0.99,0.0,0.0,0.0,35.0,14.2,-40.4,-0.08,0.08,24.23,0,23.22,1011.47,0.48,0.0,0.0,0.0,0.0,0.0,0.0,0,3,1
1753197541.8199198,62.41894602775574,61.748,2097176,0.0,0.0,0.99,0.0,0.0,0.0,35.1,14.4,-40.5,-0.08,0.08,24.23,0,23.21,1011.47,0.44,0.0,0.0,0.0,0.0,0.0,0.0,0,3,1
1753197541.9227772,62.52180337905884,61.874,2097302,0.0,0.0,0.99,0.0,0.0,0.0,34.6,14.8,-40.3,-0.08,0.08,24.23,0,23.22,1011.47,0.43,0.0,0.0,0.0,0.0,0.0,0.0,0,3,1
1753197542.0197985,62.61882472038269,61.912,2097340,0.0,0.0,0.99,0.0,0.0,0.0,34.6,14.8,-40.3,-0.08,0.08,24.23,0,23.22,1011.47,0.43,0.0,0.0,0.0,0.0,0.0,0.0,0,3,1
1753197542.1082652,62.7072913646698,61.998,2097426,0.0,0.0,0.99,0.0,0.0,0.0,34.4,14.9,-41.0,-0.08,0.08,24.23,0,23.21,1011.47,0.43,0.0,0.0,0.0,0.0,0.0,0.0,0,3,1
1753197542.3262155,62.92524170875549,62.103,2097531,0.0,0.0,0.99,0.0,0.0,0.0,34.4,14.7,-40.3,-0.08,0.08,24.23,0,23.21,1011.47,0.42,0.0,0.0,0.0,0.0,0.0,0.0,0,3,1
1753197542.5255508,63.124577045440674,63.193,2098621,0.0,0.0,0.99,0.0,0.0,0.0,33.9,13.9,-40.3,-0.09,0.07,24.23,0,23.22,1011.46,0.5,0.0,0.0,0.0,0.0,0.0,0.0,0,3,1
1753197542.881196,63.48022222518921,63.279,2098707,0.0,0.0,0.99,0.0,0.0,0.0,34.1,14.5,-40.2,-0.08,0.07,24.23,0,23.22,1011.46,0.54,0.0,0.0,0.0,0.0,0.0,0.0,0,3,1
1753197543.508828,64.10785412788391,63.35,2098778,0.0,0.0,0.99,0.0,0.0,0.0,34.1,14.5,-40.2,-0.08,0.07,24.23,0,23.22,1011.47,0.47,0.0,0.0,0.0,0.0,0.0,0.0,0,3,1
1753197543.6145482,64.21357440948486,63.47,2098898,0.0,0.0,0.99,0.0,0.0,0.0,34.2,14.3,-40.8,-0.09,0.07,24.23,0,23.22,1011.46,0.5,0.0,0.0,0.0,0.0,0.0,0.0,0,3,1
1753197543.971999,64.57102513313293,63.499,2098927,0.0,0.0,0.99,0.0,0.0,0.0,34.2,14.3,-40.8,-0.09,0.07,24.23,0,23.22,1011.46,0.5,0.0,0.0,0.0,0.0,0.0,0.0,0,3,1
1753197544.5403242,65.13935041427612,64.643,2100071,0.0,0.0,0.99,0.0,0.0,0.0,34.9,14.4,-40.3,-0.09,0.07,24.23,0,23.2,1011.47,0.46,0.0,0.0,0.0,0.0,0.0,0.0,0,3,1
1753197544.7730472,65.37207341194153,64.691,2100119,0.0,0.0,0.99,0.0,0.0,0.0,34.9,14.4,-40.3,-0.09,0.07,24.23,0,23.2,1011.47,0.46,0.0,0.0,0.0,0.0,0.0,0.0,0,3,1
1753197544.8757799,65.47480607032776,64.836,2100264,0.0,0.0,0.99,0.0,0.0,0.0,35.4,14.5,-40.2,-0.09,0.07,24.23,0,23.2,1011.47,0.42,0.0,0.0,0.0,0.0,0.0,0.0,0,3,1
1753197545.2299316,65.8289577960968,64.857,2100285,0.0,0.0,0.99,0.0,0.0,0.0,35.4,14.5,-40.2,-0.09,0.07,24.23,0,23.2,1011.47,0.42,0.0,0.0,0.0,0.0,0.0,0.0,0,3,1
1753197545.658346,66.2573721408844,65.96,2101388,0.0,0.0,0.99,0.0,0.0,0.0,34.9,14.8,-40.4,-0.08,0.08,24.23,0,23.19,1011.48,0.34,0.0,0.0,0.0,0.0,0.0,0.0,0,3,1
1753197546.1477425,66.74676871299744,66.094,2101522,0.0,0.0,0.99,0.0,0.0,0.0,34.5,14.6,-40.5,-0.08,0.08,24.23,0,23.2,1011.48,0.4,0.0,0.0,0.0,0.0,0.0,0.0,0,3,1
1753197546.6484895,67.24751567840576,66.159,2101587,0.0,0.0,0.99,0.0,0.0,0.0,34.5,14.6,-40.5,-0.08,0.08,24.23,0,23.2,1011.48,0.4,0.0,0.0,0.0,0.0,0.0,0.0,0,3,1
1753197546.8250973,67.4241235256195,67.358,2102786,0.0,0.0,0.99,0.0,0.0,0.0,34.7,14.6,-40.5,-0.09,0.08,24.23,0,23.19,1011.47,0.44,0.0,0.0,0.0,0.0,0.0,0.0,0,3,1
1753197547.3203835,67.91940975189209,67.389,2102817,0.0,0.0,0.99,0.0,0.0,0.0,34.7,14.6,-40.5,-0.09,0.08,24.23,0,23.18,1011.48,0.39,0.0,0.0,0.0,0.0,0.0,0.0,0,3,1
1753197547.411055,68.01008129119873,67.474,2102902,0.0,0.0,0.99,0.0,0.0,0.0,34.4,14.5,-40.4,-0.09,0.08,24.23,0,23.18,1011.48,0.4,0.0,0.0,0.0,0.0,0.0,0.0,0,3,1
1753197547.4998324,68.09885859489441,67.617,2103045,0.0,0.0,0.99,0.0,0.0,0.0,35.1,14.6,-40.8,-0.09,0.08,24.23,0,23.19,1011.48,0.4,0.0,0.0,0.0,0.0,0.0,0.0,0,3,1
1753197548.1412623,68.74028849601746,67.697,2103125,0.0,0.0,0.99,0.0,0.0,0.0,35.1,14.6,-40.8,-0.09,0.08,24.23,0,23.19,1011.48,0.38,0.0,0.0,0.0,0.0,0.0,0.0,0,3,1
1753197548.5931907,69.19221687316895,68.775,2104203,0.0,0.0,0.99,0.0,0.0,0.0,35.0,14.7,-40.3,-0.09,0.07,24.23,0,23.2,1011.47,0.45,0.0,0.0,0.0,0.0,0.0,0.0,0,3,1
1753197549.2269995,69.82602572441101,68.859,2104287,0.0,0.0,0.99,0.0,0.0,0.0,34.8,14.9,-40.7,-0.09,0.07,24.24,0,23.2,1011.47,0.47,0.0,0.0,0.0,0.0,0.0,0.0,0,3,1
1753197549.4120054,70.01103162765503,69.913,2105341,0.0,0.0,0.99,0.0,0.0,0.0,35.1,14.8,-40.5,-0.09,0.07,24.24,0,23.18,1011.47,0.47,0.0,0.0,0.0,0.0,0.0,0.0,0,3,1
1753197549.5163033,70.11532950401306,69.988,2105416,0.0,0.0,0.99,0.0,0.0,0.0,35.0,14.5,-40.8,-0.09,0.07,24.24,0,23.19,1011.47,0.49,0.0,0.0,0.0,0.0,0.0,0.0,0,3,1
1753197550.1551762,70.75420236587524,70.135,2105563,0.0,0.0,0.98,0.0,0.0,0.0,34.7,15.1,-40.3,-0.09,0.07,24.24,0,23.19,1011.47,0.48,0.0,0.0,0.0,0.0,0.0,0.0,0,3,1
1753197550.2607787,70.85980486869812,70.23,2105658,0.0,0.0,0.0,0.07,24.24,0.0,0.0,0.9,35.0,-0.09,0.07,20.09,0,23.18,1011.47,0.43,0.0,0.0,0.0,0.0,0.0,0.0,0,3,1
1753197550.3594613,70.95848751068115,70.358,2105786,0.0,0.0,0.98,0.0,0.0,0.0,3.0,24.2,0.0,-0.09,0.07,24.24,0,23.18,1011.47,0.45,0.0,0.0,0.0,0.0,0.0,0.0,0,3,1
1753197550.9990432,71.59806942939758,70.403,2105831,0.0,0.0,0.98,0.0,0.0,0.0,3.0,24.2,0.0,-0.09,0.07,24.24,0,23.18,1011.47,0.45,0.0,0.0,0.0,0.0,0.0,0.0,0,3,1
1753197551.1878073,71.78683352470398,71.578,2107006,0.0,0.0,0.99,0.0,0.0,0.0,34.0,0.0,24.2,-0.09,0.07,24.24,0,23.17,1011.48,0.35,0.0,0.0,0.0,0.0,0.0,0.0,0,3,1
1753197551.2934072,71.89243340492249,71.645,2107073,0.0,0.0,0.99,0.0,0.0,0.0,34.5,14.6,-40.5,-0.09,0.07,24.24,0,23.16,1011.49,0.3,0.0,0.0,0.0,0.0,0.0,0.0,0,3,1
1753197551.373198,71.97222423553467,71.7,2107128,0.0,0.0,0.99,0.0,0.0,0.0,34.5,14.6,-40.5,-0.09,0.07,24.24,0,23.16,1011.49,0.3,0.0,0.0,0.0,0.0,0.0,0.0,0,3,1
1753197551.597215,72.1962411403656,71.785,2107213,0.0,0.0,0.99,0.0,0.0,0.0,34.2,14.8,-40.5,-0.09,0.07,24.24,0,23.16,1011.49,0.27,0.0,0.0,0.0,0.0,0.0,0.0,0,3,1
1753197551.7032301,72.3022563457489,71.85,2107278,0.0,0.0,0.99,0.0,0.0,0.0,34.2,14.8,-40.5,-0.09,0.07,24.24,0,23.16,1011.49,0.27,0.0,0.0,0.0,0.0,0.0,0.0,0,3,1
1753197551.7900286,72.38905477523804,71.936,2107364,0.0,0.0,0.99,0.0,0.0,0.0,34.4,14.9,-40.2,-0.09,0.08,24.24,0,23.15,1011.49,0.26,0.0,0.0,0.0,0.0,0.0,0.0,0,3,1
1753197552.2993488,72.89837503433228,71.95,2107378,0.0,0.0,0.99,0.0,0.0,0.0,34.4,14.9,-40.2,-0.09,0.08,24.24,0,23.15,1011.49,0.26,0.0,0.0,0.0,0.0,0.0,0.0,0,3,1
1753197553.2843049,73.88333106040955,73.052,2108480,0.0,0.0,0.99,0.0,0.0,0.0,34.8,14.6,-41.0,-0.09,0.07,24.24,0,23.17,1011.48,0.39,0.0,0.0,0.0,0.0,0.0,0.0,0,3,1
1753197553.4828234,74.08184957504272,74.184,2109612,0.0,0.0,0.99,0.0,0.0,0.0,34.9,14.5,-40.9,-0.09,0.07,24.24,0,23.18,1011.46,0.55,0.0,0.0,0.0,0.0,0.0,0.0,0,3,1
1753197553.9844832,74.58350944519043,74.268,2109696,0.0,0.0,0.98,0.0,0.0,0.0,35.2,14.4,-40.8,-0.09,0.07,24.24,0,23.18,1011.45,0.6,0.0,0.0,0.0,0.0,0.0,0.0,0,3,1
1753197554.2188776,74.81790375709534,74.324,2109752,0.0,0.0,0.98,0.0,0.0,0.0,35.2,14.4,-40.8,-0.09,0.07,24.24,0,23.18,1011.45,0.6,0.0,0.0,0.0,0.0,0.0,0.0,0,3,1
1753197554.3199992,74.91902542114258,74.385,2109813,0.0,0.0,0.98,0.0,0.0,0.0,35.2,14.4,-40.8,-0.09,0.07,24.24,0,23.17,1011.46,0.56,0.0,0.0,0.0,0.0,0.0,0.0,0,3,1
1753197554.6776574,75.27668356895447,74.471,2109899,0.0,0.0,0.99,0.0,0.0,0.0,34.8,14.8,-40.3,-0.09,0.08,24.24,0,23.16,1011.46,0.58,0.0,0.0,0.0,0.0,0.0,0.0,0,3,1
1753197555.3122008,75.91122698783875,74.557,2109985,0.0,0.0,0.99,0.0,0.0,0.0,34.9,14.3,-40.7,-0.08,0.08,24.24,0,23.16,1011.46,0.56,0.0,0.0,0.0,0.0,0.0,0.0,0,3,1
1753197555.49119,76.09021615982056,75.683,2111111,0.0,0.0,0.99,0.0,0.0,0.0,35.0,13.9,-41.4,-0.08,0.08,24.25,0,23.17,1011.45,0.59,0.0,0.0,0.0,0.0,0.0,0.0,0,3,1
1753197555.5848737,76.18389987945557,75.756,2111184,0.0,0.0,0.99,0.0,0.0,0.0,35.0,13.9,-41.4,-0.08,0.08,24.25,0,23.17,1011.46,0.57,0.0,0.0,0.0,0.0,0.0,0.0,0,3,1
1753197556.2117836,76.81080985069275,75.868,2111296,0.0,0.0,0.99,0.0,0.0,0.0,34.3,14.2,-41.3,-0.08,0.08,24.25,0,23.17,1011.46,0.55,0.0,0.0,0.0,0.0,0.0,0.0,0,3,1
1753197556.4096267,77.00865292549133,76.939,2112367,0.0,0.0,0.99,0.0,0.0,0.0,34.4,14.4,-41.6,-0.09,0.07,24.25,0,23.17,1011.47,0.48,0.0,0.0,0.0,0.0,0.0,0.0,0,3,1
1753197556.510186,77.10921216011047,77.076,2112504,0.0,0.0,0.99,0.0,0.0,0.0,3.0,0.0,24.2,-0.09,0.07,24.25,0,23.17,1011.46,0.52,0.0,0.0,0.0,0.0,0.0,0.0,0,3,1
1753197557.004722,77.6037483215332,77.122,2112550,0.0,0.0,0.99,0.0,0.0,0.0,3.0,0.0,24.2,-0.09,0.07,24.25,0,23.17,1011.46,0.52,0.0,0.0,0.0,0.0,0.0,0.0,0,3,1
1753197557.6510696,78.2500958442688,77.156,2112584,0.0,0.0,0.99,0.0,0.0,0.0,3.0,0.0,24.2,-0.09,0.07,24.25,0,23.16,1011.47,0.46,0.0,0.0,0.0,0.0,0.0,0.0,0,3,1
1753197557.8364284,78.43545460700989,78.286,2113714,0.0,0.0,0.99,0.0,0.0,0.0,34.9,14.7,-41.3,-0.08,0.07,24.26,0,23.14,1011.47,0.48,0.0,0.0,0.0,0.0,0.0,0.0,0,3,1
1753197558.0773244,78.6763505935669,78.362,2113790,0.0,0.0,0.99,0.0,0.0,0.0,34.9,14.7,-41.3,-0.08,0.07,24.26,0,23.14,1011.46,0.51,0.0,0.0,0.0,0.0,0.0,0.0,0,3,1
1753197558.1747715,78.77379775047302,78.475,2113903,0.0,0.0,0.99,0.0,0.0,0.0,34.5,14.5,-41.0,-0.08,0.07,24.26,0,23.15,1011.46,0.52,0.0,0.0,0.0,0.0,0.0,0.0,0,3,1
1753197558.2748456,78.87387180328369,78.532,2113960,0.0,0.0,0.99,0.0,0.0,0.0,34.5,14.5,-41.0,-0.08,0.07,24.26,0,23.15,1011.46,0.52,0.0,0.0,0.0,0.0,0.0,0.0,0,3,1
1753197559.3321438,79.93116998672485,78.62,2114048,0.0,0.0,0.99,0.0,0.0,0.0,34.8,14.7,-41.2,-0.08,0.07,24.26,0,23.15,1011.46,0.54,0.0,0.0,0.0,0.0,0.0,0.0,0,3,1
1753197559.5065777,80.10560393333435,79.672,2115100,0.0,0.0,0.99,0.0,0.0,0.0,34.5,14.5,-40.9,-0.08,0.07,24.26,0,23.14,1011.47,0.46,0.0,0.0,0.0,0.0,0.0,0.0,0,3,1
1753197559.6070921,80.20611834526062,79.829,2115257,0.0,0.0,0.99,0.0,0.0,0.0,34.7,14.4,-40.9,-0.08,0.07,24.26,0,23.13,1011.47,0.46,0.0,0.0,0.0,0.0,0.0,0.0,0,3,1
1753197560.1150765,80.71410274505615,79.893,2115321,0.0,0.0,0.99,0.0,0.0,0.0,34.5,14.5,-41.1,-0.08,0.07,24.26,0,23.13,1011.47,0.46,0.0,0.0,0.0,0.0,0.0,0.0,0,3,1
1753197560.2934096,80.89243578910828,80.963,2116391,0.0,0.0,0.99,0.0,0.0,0.0,34.6,14.5,-41.5,-0.09,0.07,24.26,0,23.14,1011.45,0.62,0.0,0.0,0.0,0.0,0.0,0.0,0,3,1
1753197560.655699,81.25472521781921,81.022,2116450,0.0,0.0,0.99,0.0,0.0,0.0,34.5,14.4,-41.4,-0.08,0.07,24.26,0,23.14,1011.45,0.62,0.0,0.0,0.0,0.0,0.0,0.0,0,3,1
1753197560.874959,81.47398519515991,81.174,2116602,0.0,0.0,0.99,0.0,0.0,0.0,34.9,14.6,-40.8,-0.09,0.07,24.26,0,23.13,1011.46,0.57,0.0,0.0,0.0,0.0,0.0,0.0,0,3,1
1753197560.9598715,81.55889773368835,81.251,2116679,0.0,0.0,0.99,0.0,0.0,0.0,34.9,14.6,-40.8,-0.09,0.07,24.26,0,23.13,1011.46,0.53,0.0,0.0,0.0,0.0,0.0,0.0,0,3,1
1753197561.0512903,81.6503164768219,81.311,2116739,0.0,0.0,0.99,0.0,0.0,0.0,34.7,14.0,34.5,-0.09,0.07,24.26,0,23.13,1011.46,0.53,0.0,0.0,0.0,0.0,0.0,0.0,0,3,1
1753197561.5472045,82.14623069763184,81.396,2116824,0.0,0.0,0.99,0.0,0.0,0.0,34.5,14.9,-41.0,-0.08,0.07,24.26,0,23.14,1011.46,0.53,0.0,0.0,0.0,0.0,0.0,0.0,0,3,1
1753197561.6376128,82.23663902282715,81.521,2116949,0.0,0.0,0.99,0.0,0.0,0.0,34.6,14.8,-40.8,-0.09,0.07,24.26,0,23.13,1011.46,0.51,0.0,0.0,0.0,0.0,0.0,0.0,0,3,1
1753197562.1448164,82.74384260177612,81.592,2117020,0.0,0.0,0.99,0.0,0.0,0.0,34.6,14.8,-40.8,-0.09,0.07,24.26,0,23.12,1011.47,0.44,0.0,0.0,0.0,0.0,0.0,0.0,0,3,1
1753197562.31176,82.91078615188599,82.696,2118124,0.0,0.0,0.0,0.0,0.0,0.0,0.0,24.2,0.0,-0.09,0.07,24.26,0,23.13,1011.46,0.54,0.0,0.0,0.0,0.0,0.0,0.0,0,3,1
1753197562.6769137,83.27593994140625,82.73,2118158,0.0,0.0,0.0,0.0,0.0,0.0,0.0,24.2,0.0,-0.09,0.07,24.26,0,23.12,1011.47,0.49,0.0,0.0,0.0,0.0,0.0,0.0,0,3,1
1753197562.8933043,83.49233055114746,82.814,2118242,0.0,0.0,0.99,0.0,0.0,0.0,34.4,14.6,-40.5,-0.09,0.07,24.26,0,23.12,1011.46,0.51,0.0,0.0,0.0,0.0,0.0,0.0,0,3,1
1753197562.9950254,83.59405159950256,82.954,2118382,0.0,0.0,0.99,0.0,0.0,0.0,34.4,14.5,-40.9,-0.08,0.07,24.26,0,23.13,1011.46,0.52,0.0,0.0,0.0,0.0,0.0,0.0,0,3,1
1753197563.4924853,84.09151148796082,83.015,2118443,0.0,0.0,0.99,0.0,0.0,0.0,34.4,14.5,-40.9,-0.08,0.07,24.26,0,23.13,1011.46,0.52,0.0,0.0,0.0,0.0,0.0,0.0,0,3,1
1753197564.1953428,84.79436898231506,84.086,2119514,0.0,0.0,0.99,0.0,0.0,0.0,34.6,14.5,-40.4,-0.08,0.07,24.26,0,23.12,1011.47,0.46,0.0,0.0,0.0,0.0,0.0,0.0,0,3,1
1753197564.4156957,85.01472187042236,84.143,2119571,0.0,0.0,0.99,0.0,0.0,0.0,34.6,14.5,-40.4,-0.08,0.07,24.26,0,23.12,1011.47,0.46,0.0,0.0,0.0,0.0,0.0,0.0,0,3,1
1753197564.8666897,85.46571588516235,85.284,2120712,0.0,0.0,0.99,0.0,0.0,0.0,34.2,14.7,-40.3,-0.08,0.08,24.26,0,23.14,1011.45,0.6,0.0,0.0,0.0,0.0,0.0,0.0,0,3,1
1753197564.9680927,85.56711888313293,85.358,2120786,0.0,0.0,0.99,0.0,0.0,0.0,34.2,14.7,-40.3,-0.08,0.08,24.26,0,23.13,1011.46,0.55,0.0,0.0,0.0,0.0,0.0,0.0,0,3,1
1753197565.3384316,85.9374577999115,85.446,2120874,0.0,0.0,0.98,0.0,0.0,0.0,34.6,14.0,14.5,-0.08,0.07,24.26,0,23.13,1011.46,0.58,0.0,0.0,0.0,0.0,0.0,0.0,0,3,1
1753197565.833498,86.43252420425415,85.532,2120960,0.0,0.0,0.99,0.0,0.0,0.0,34.5,14.5,-40.8,-0.08,0.08,24.26,0,23.14,1011.45,0.6,0.0,0.0,0.0,0.0,0.0,0.0,0,3,1
1753197566.0555243,86.65455055236816,85.576,2121004,0.0,0.0,0.99,0.0,0.0,0.0,34.5,14.5,-40.8,-0.08,0.08,24.26,0,23.14,1011.45,0.6,0.0,0.0,0.0,0.0,0.0,0.0,0,3,1
1753197566.232861,86.83188724517822,86.827,2122255,0.0,0.0,0.99,0.0,0.0,0.0,34.7,14.8,-40.5,-0.09,0.07,24.27,0,23.13,1011.46,0.55,0.0,0.0,0.0,0.0,0.0,0.0,0,3,1
1753197566.3243105,86.92333674430847,86.94,2122368,0.0,0.0,0.99,0.0,0.0,0.0,34.4,14.5,-40.8,-0.08,0.07,24.27,0,23.12,1011.46,0.53,0.0,0.0,0.0,0.0,0.0,0.0,0,3,1
1753197566.402891,87.00191712379456,87.026,2122454,0.0,0.0,0.99,0.0,0.0,0.0,34.7,14.8,-41.1,-0.08,0.07,24.27,0,23.13,1011.46,0.52,0.0,0.0,0.0,0.0,0.0,0.0,0,3,1
1753197566.4943893,87.09341549873352,87.053,2122481,0.0,0.0,0.0,0.0,24.27,0.0,0.0,0.9,34.6,-0.08,0.07,24.27,0,23.13,1011.46,0.52,0.0,0.0,0.0,0.0,0.0,0.0,0,3,1
1753197566.8566937,87.45571994781494,87.185,2122613,0.0,0.0,0.99,0.0,0.0,0.0,34.6,14.6,-40.7,-0.08,0.07,24.27,0,23.14,1011.45,0.61,0.0,0.0,0.0,0.0,0.0,0.0,0,3,1
1753197567.074485,87.67351126670837,87.222,2122650,0.0,0.0,0.99,0.0,0.0,0.0,34.6,14.6,-40.7,-0.08,0.07,24.27,0,23.14,1011.45,0.61,0.0,0.0,0.0,0.0,0.0,0.0,0,3,1
1753197567.7120316,88.31105780601501,87.308,2122736,0.0,0.0,0.99,0.0,0.0,0.0,34.6,14.7,-40.8,-0.08,0.07,24.27,0,23.14,1011.45,0.62,0.0,0.0,0.0,0.0,0.0,0.0,0,3,1
1753197568.1411889,88.74021506309509,88.425,2123853,0.0,0.0,0.99,0.0,0.0,0.0,34.4,14.7,-40.4,-0.08,0.07,24.27,0,23.11,1011.47,0.45,0.0,0.0,0.0,0.0,0.0,0.0,0,3,1
1753197568.2434216,88.84244775772095,88.526,2123954,0.0,0.0,0.99,0.0,0.0,0.0,34.7,14.7,-40.7,-0.08,0.07,24.27,0,23.11,1011.46,0.53,0.0,0.0,0.0,0.0,0.0,0.0,0,3,1
1753197568.8933566,89.49238276481628,88.611,2124039,0.0,0.0,0.99,0.0,0.0,0.0,34.5,14.7,-41.0,-0.08,0.07,24.27,0,23.12,1011.46,0.55,0.0,0.0,0.0,0.0,0.0,0.0,0,3,1
1753197569.8604147,90.45944094657898,89.727,2125155,0.0,0.0,0.99,0.0,0.0,0.0,35.1,14.6,-40.7,-0.08,0.07,24.27,0,23.1,1011.47,0.43,0.0,0.0,0.0,0.0,0.0,0.0,0,3,1
1753197570.0854554,90.68448162078857,89.787,2125215,0.0,0.0,0.99,0.0,0.0,0.0,35.0,14.7,-40.4,-0.09,0.07,24.27,0,23.1,1011.47,0.43,0.0,0.0,0.0,0.0,0.0,0.0,0,3,1
1753197570.2773616,90.87638783454895,90.903,2126331,0.0,0.0,0.99,0.0,0.0,0.0,35.5,14.2,-40.3,-0.09,0.08,24.33,0,23.1,1011.47,0.42,0.0,0.0,0.0,0.0,0.0,0.0,0,3,1
1753197570.3714635,90.9704897403717,90.955,2126383,0.0,0.0,0.99,0.0,0.0,0.0,35.5,14.2,-40.3,-0.09,0.08,24.33,0,23.1,1011.47,0.42,0.0,0.0,0.0,0.0,0.0,0.0,0,3,1
1753197570.864896,91.46392226219177,91.088,2126516,0.0,0.0,0.99,0.0,0.0,0.0,35.1,14.5,-43.0,-0.09,0.08,24.33,0,23.1,1011.47,0.45,0.0,0.0,0.0,0.0,0.0,0.0,0,3,1
1753197570.9517567,91.55078291893005,91.11,2126538,0.0,0.0,0.99,0.0,0.0,0.0,35.1,14.5,-43.0,-0.09,0.08,24.33,0,23.1,1011.47,0.45,0.0,0.0,0.0,0.0,0.0,0.0,0,3,1
1753197571.0490234,91.6480495929718,91.195,2126623,0.0,0.0,0.98,0.0,0.0,0.0,35.3,14.5,-40.4,-0.09,0.08,24.33,0,23.09,1011.48,0.37,0.0,0.0,0.0,0.0,0.0,0.0,0,3,1
1753197571.5469127,92.14593887329102,91.283,2126711,0.0,0.0,0.99,0.0,0.0,0.0,35.2,14.4,-40.7,-0.09,0.08,24.33,0,23.08,1011.48,0.37,0.0,0.0,0.0,0.0,0.0,0.0,0,3,1
1753197572.656299,93.25532531738281,92.442,2127870,0.0,0.0,0.99,0.0,0.0,0.0,35.0,14.4,-40.0,-0.08,0.08,24.33,0,23.11,1011.46,0.57,0.0,0.0,0.0,0.0,0.0,0.0,0,3,1
1753197573.3809538,93.97997999191284,93.466,2128894,0.0,0.0,0.99,0.0,0.0,0.0,35.3,14.4,-40.9,-0.08,0.07,24.33,0,23.12,1011.46,0.53,0.0,0.0,0.0,0.0,0.0,0.0,0,3,1
1753197573.4889936,94.08801984786987,93.569,2128997,0.0,0.0,0.99,0.0,0.0,0.0,35.5,14.3,-40.8,-0.08,0.07,24.33,0,23.12,1011.46,0.58,0.0,0.0,0.0,0.0,0.0,0.0,0,3,1
1753197573.5711777,94.17020392417908,93.69,2129118,0.0,0.0,0.99,0.0,0.0,0.0,35.2,14.0,-40.7,-0.08,0.07,24.33,0,23.12,1011.45,0.59,0.0,0.0,0.0,0.0,0.0,0.0,0,3,1
1753197573.65319,94.25221610069275,93.778,2129206,0.0,0.0,0.99,0.0,0.0,0.0,35.2,14.5,-40.2,-0.08,0.07,24.33,0,23.11,1011.46,0.53,0.0,0.0,0.0,0.0,0.0,0.0,0,3,1
1753197573.8912947,94.49032092094421,93.863,2129291,0.0,0.0,0.99,0.0,0.0,0.0,35.3,14.3,-40.7,-0.08,0.07,24.33,0,23.11,1011.47,0.49,0.0,0.0,0.0,0.0,0.0,0.0,0,3,1
